{
  "region_id": "it-abruzzo",
  "label_it": "Abruzzo • core",
  "generated_at": "2026-01-15T08:14:16.054Z",
  "places": [
    {
      "id": "relation:12122906",
      "name": "Lago Sinizzo",
      "lat": 42.2908685,
      "lon": 13.5765285,
      "type": "core",
      "visibility": "chicca",
      "tags": [
        "name=Lago Sinizzo",
        "natural=water",
        "tourism=attraction",
        "type=multipolygon",
        "water=lake",
        "wikidata=Q16570961",
        "wikipedia=it:Lago Sinizzo"
      ],
      "score": 46
    },
    {
      "id": "relation:11902324",
      "name": "Lago Madonna in Panthanis",
      "lat": 42.5243514,
      "lon": 13.2558672,
      "type": "core",
      "visibility": "chicca",
      "tags": [
        "name=Lago Madonna in Panthanis",
        "natural=water",
        "tourism=attraction",
        "type=multipolygon",
        "water=lake"
      ],
      "score": 42
    },
    {
      "id": "way:32454217",
      "name": "Lago di Scanno",
      "lat": 41.9208392,
      "lon": 13.8645558,
      "type": "core",
      "visibility": "chicca",
      "tags": [
        "name=Lago di Scanno",
        "natural=water",
        "salt=no",
        "water=lake",
        "wikidata=Q1072254",
        "wikimedia_commons=Category:Lago di Scanno",
        "wikipedia=it:Lago di Scanno"
      ],
      "score": 36
    },
    {
      "id": "way:59428860",
      "name": "Lago di Talvacchia",
      "lat": 42.7743291,
      "lon": 13.5073778,
      "type": "core",
      "visibility": "chicca",
      "tags": [
        "name=Lago di Talvacchia",
        "natural=water",
        "reservoir=hydroelectricity",
        "water=lake",
        "wikidata=Q3215560",
        "wikipedia=it:Lago di Talvacchia"
      ],
      "score": 36
    },
    {
      "id": "way:96191841",
      "name": "Lago di Provvidenza",
      "lat": 42.507423,
      "lon": 13.4086512,
      "type": "core",
      "visibility": "chicca",
      "tags": [
        "name=Lago di Provvidenza",
        "natural=water",
        "water=lake",
        "wikidata=Q3826017",
        "wikipedia=it:Lago di Provvidenza"
      ],
      "score": 36
    },
    {
      "id": "way:279968183",
      "name": "Lago di San Raniero",
      "lat": 42.3068186,
      "lon": 13.4444348,
      "type": "core",
      "visibility": "chicca",
      "tags": [
        "alt_name=Lago di Civita",
        "name=Lago di San Raniero",
        "natural=water",
        "water=lake",
        "wikidata=Q28671062"
      ],
      "score": 36
    },
    {
      "id": "way:420903130",
      "name": "Lago Pietranzoni",
      "lat": 42.4275697,
      "lon": 13.6244374,
      "type": "core",
      "visibility": "chicca",
      "tags": [
        "alt_name=Lagone",
        "name=Lago Pietranzoni",
        "natural=water",
        "water=lake",
        "wikidata=Q101245967"
      ],
      "score": 36
    },
    {
      "id": "way:631360552",
      "name": "Lago della Marchesa di Pianella",
      "lat": 42.3644153,
      "lon": 14.0361205,
      "type": "core",
      "visibility": "chicca",
      "tags": [
        "basin=water",
        "description:it=carp fishing",
        "fishing=yes",
        "intermittent=no",
        "name=Lago della Marchesa di Pianella",
        "natural=water",
        "salt=no",
        "source:name=local knowledge",
        "tidal=no",
        "water=lake",
        "website=https://en.nicelocal.it/abruzzo/entertainment/lago_della_marchesa_di_pianella/"
      ],
      "score": 36
    },
    {
      "id": "way:468262213",
      "name": "Parco Archeologico di Iuvanum",
      "lat": 41.9978718,
      "lon": 14.2498624,
      "type": "core",
      "visibility": "chicca",
      "tags": [
        "access=permissive",
        "archaeological_site=settlement",
        "area=yes",
        "attraction=historic",
        "historic=archaeological_site",
        "historic:civilization=ancient_roman",
        "name=Parco Archeologico di Iuvanum",
        "tourism=attraction",
        "website=https://www.iuvanum.it",
        "wikidata=Q766840",
        "wikipedia=en:Juvanum"
      ],
      "score": 34
    },
    {
      "id": "relation:6897191",
      "name": "Castello Piccolomini (Ortucchio)",
      "lat": 41.9552032,
      "lon": 13.6436609,
      "type": "core",
      "visibility": "chicca",
      "tags": [
        "building=yes",
        "building:material=stone",
        "castle_type=defensive",
        "historic=castle",
        "historic:civilization=middle-ages",
        "name=Castello Piccolomini (Ortucchio)",
        "tourism=attraction",
        "type=multipolygon",
        "website=https://www.abruzzoturismo.it/index.php?Canale=Dove&IDCanaleSub=28&IDCanaleSubSub=0&IDItem=3425&ItemType=BC",
        "wikidata=Q23702079",
        "wikipedia=it:Castello Piccolomini (Ortucchio)"
      ],
      "score": 34
    },
    {
      "id": "way:41894754",
      "name": "Laghetto Pescasportivi Sangro",
      "lat": 41.7782952,
      "lon": 14.0990406,
      "type": "core",
      "visibility": "chicca",
      "tags": [
        "name=Laghetto Pescasportivi Sangro",
        "natural=water",
        "water=lake"
      ],
      "score": 32
    },
    {
      "id": "way:62307862",
      "name": "San Giovanni Lake",
      "lat": 41.8327079,
      "lon": 14.5761762,
      "type": "core",
      "visibility": "chicca",
      "tags": [
        "access=customers",
        "addr:city=San Giovanni Lipioni",
        "basin=fish_breeding",
        "fishing=customers",
        "intermittent=no",
        "name=San Giovanni Lake",
        "natural=water",
        "old_name=Mulino del Cignotto",
        "salt=no",
        "tidal=no",
        "water=lake"
      ],
      "score": 32
    },
    {
      "id": "way:73257443",
      "name": "Lago di Tempra",
      "lat": 42.1729457,
      "lon": 13.6417789,
      "type": "core",
      "visibility": "chicca",
      "tags": [
        "name=Lago di Tempra",
        "natural=water",
        "water=lake"
      ],
      "score": 32
    },
    {
      "id": "way:84343265",
      "name": "Lago Racollo",
      "lat": 42.3936279,
      "lon": 13.6574804,
      "type": "core",
      "visibility": "chicca",
      "tags": [
        "name=Lago Racollo",
        "natural=water",
        "water=lake"
      ],
      "score": 32
    },
    {
      "id": "way:84343303",
      "name": "Lago Passaneta",
      "lat": 42.3892477,
      "lon": 13.6264114,
      "type": "core",
      "visibility": "chicca",
      "tags": [
        "name=Lago Passaneta",
        "natural=water",
        "water=lake"
      ],
      "score": 32
    },
    {
      "id": "way:84343414",
      "name": "Lago Barisciano",
      "lat": 42.3996717,
      "lon": 13.6025729,
      "type": "core",
      "visibility": "chicca",
      "tags": [
        "ele=1604",
        "name=Lago Barisciano",
        "natural=water",
        "water=lake"
      ],
      "score": 32
    },
    {
      "id": "way:167134951",
      "name": "Lago di Rosciano",
      "lat": 42.3044679,
      "lon": 14.0422942,
      "type": "core",
      "visibility": "chicca",
      "tags": [
        "boat=permissive",
        "leisure=pitch",
        "loc_name=Lagone",
        "name=Lago di Rosciano",
        "natural=water",
        "sport=water_ski",
        "water=lake"
      ],
      "score": 32
    },
    {
      "id": "way:224751918",
      "name": "Lago El Caribe",
      "lat": 42.6298551,
      "lon": 13.9523792,
      "type": "core",
      "visibility": "chicca",
      "tags": [
        "fishing=members_only",
        "name=Lago El Caribe",
        "natural=water",
        "water=lake"
      ],
      "score": 32
    },
    {
      "id": "way:239018837",
      "name": "Lago di Venditti",
      "lat": 42.1794503,
      "lon": 13.6635019,
      "type": "core",
      "visibility": "chicca",
      "tags": [
        "name=Lago di Venditti",
        "natural=water",
        "water=lake"
      ],
      "score": 32
    },
    {
      "id": "way:244071188",
      "name": "Lago Del Sole",
      "lat": 42.6682314,
      "lon": 13.7501159,
      "type": "core",
      "visibility": "chicca",
      "tags": [
        "name=Lago Del Sole",
        "natural=water",
        "water=lake"
      ],
      "score": 32
    },
    {
      "id": "way:246620756",
      "name": "Sito archeologico di Largo Sant’Anna",
      "lat": 42.6587942,
      "lon": 13.7053749,
      "type": "core",
      "visibility": "chicca",
      "tags": [
        "building=yes",
        "contact:website=https://www.polomusealeteramo.it/sedi/sito-archeologico-di-largo-sant-anna/14-10.html",
        "fee=no",
        "historic=archaeological_site",
        "name=Sito archeologico di Largo Sant’Anna",
        "opening_hours=Sa-Su 16:00-19:00",
        "tourism=attraction"
      ],
      "score": 32
    },
    {
      "id": "way:331785238",
      "name": "Laghetto di Sella Venacquaro",
      "lat": 42.4679305,
      "lon": 13.4964235,
      "type": "core",
      "visibility": "chicca",
      "tags": [
        "name=Laghetto di Sella Venacquaro",
        "natural=water",
        "water=lake"
      ],
      "score": 32
    },
    {
      "id": "way:338048734",
      "name": "Lago La Croce",
      "lat": 41.87735,
      "lon": 14.4152722,
      "type": "core",
      "visibility": "chicca",
      "tags": [
        "intermittent=yes",
        "name=Lago La Croce",
        "natural=water",
        "water=lake"
      ],
      "score": 32
    },
    {
      "id": "way:350557141",
      "name": "Pozzo Caldaio",
      "lat": 42.2372121,
      "lon": 13.519495,
      "type": "core",
      "visibility": "chicca",
      "tags": [
        "intermittent=no",
        "name=Pozzo Caldaio",
        "natural=water",
        "note=Ex inghiottitoio ora chiuso.",
        "water=lake"
      ],
      "score": 32
    },
    {
      "id": "way:360721267",
      "name": "Lago di Calascio",
      "lat": 42.331061,
      "lon": 13.7052278,
      "type": "core",
      "visibility": "chicca",
      "tags": [
        "name=Lago di Calascio",
        "natural=water",
        "water=lake"
      ],
      "score": 32
    },
    {
      "id": "way:384864955",
      "name": "Laghetto di San Benedetto in Perillis",
      "lat": 42.1772988,
      "lon": 13.7684529,
      "type": "core",
      "visibility": "chicca",
      "tags": [
        "name=Laghetto di San Benedetto in Perillis",
        "natural=water",
        "water=lake"
      ],
      "score": 32
    },
    {
      "id": "way:395133276",
      "name": "Lago dei Prati",
      "lat": 42.2401059,
      "lon": 13.6644728,
      "type": "core",
      "visibility": "chicca",
      "tags": [
        "name=Lago dei Prati",
        "natural=water",
        "water=lake"
      ],
      "score": 32
    },
    {
      "id": "way:395215085",
      "name": "Lago di Colloprano",
      "lat": 42.2048703,
      "lon": 13.7392668,
      "type": "core",
      "visibility": "chicca",
      "tags": [
        "name=Lago di Colloprano",
        "natural=water",
        "water=lake"
      ],
      "score": 32
    },
    {
      "id": "way:399125560",
      "name": "Lago di Collepietro",
      "lat": 42.2069216,
      "lon": 13.7730387,
      "type": "core",
      "visibility": "chicca",
      "tags": [
        "name=Lago di Collepietro",
        "natural=water",
        "water=lake"
      ],
      "score": 32
    },
    {
      "id": "way:405514094",
      "name": "Il Laghetto",
      "lat": 42.7739055,
      "lon": 13.5930667,
      "type": "core",
      "visibility": "chicca",
      "tags": [
        "ele=1653",
        "name=Il Laghetto",
        "natural=water",
        "water=lake"
      ],
      "score": 32
    },
    {
      "id": "way:405573442",
      "name": "Laghetto del Tritone Crestato",
      "lat": 42.7928407,
      "lon": 13.5839436,
      "type": "core",
      "visibility": "chicca",
      "tags": [
        "ele=1303",
        "name=Laghetto del Tritone Crestato",
        "natural=water",
        "water=lake"
      ],
      "score": 32
    },
    {
      "id": "way:420899434",
      "name": "Lago",
      "lat": 42.4048276,
      "lon": 13.587409,
      "type": "core",
      "visibility": "chicca",
      "tags": [
        "name=Lago",
        "natural=water",
        "water=lake"
      ],
      "score": 32
    },
    {
      "id": "way:420899439",
      "name": "Lago",
      "lat": 42.4055066,
      "lon": 13.5869501,
      "type": "core",
      "visibility": "chicca",
      "tags": [
        "name=Lago",
        "natural=water",
        "water=lake"
      ],
      "score": 32
    },
    {
      "id": "way:420904726",
      "name": "Lago",
      "lat": 42.4132836,
      "lon": 13.5955802,
      "type": "core",
      "visibility": "chicca",
      "tags": [
        "ele=1680",
        "name=Lago",
        "natural=water",
        "water=lake"
      ],
      "score": 32
    },
    {
      "id": "way:490582233",
      "name": "La Laghetta di Cima Alta",
      "lat": 42.5005011,
      "lon": 13.5827312,
      "type": "core",
      "visibility": "chicca",
      "tags": [
        "intermittent=yes",
        "name=La Laghetta di Cima Alta",
        "natural=water",
        "tidal=no",
        "water=lake"
      ],
      "score": 32
    },
    {
      "id": "way:568475792",
      "name": "Lago di San Giovanni",
      "lat": 42.2996385,
      "lon": 13.4486671,
      "type": "core",
      "visibility": "chicca",
      "tags": [
        "name=Lago di San Giovanni",
        "natural=water",
        "water=lake"
      ],
      "score": 32
    },
    {
      "id": "way:585447571",
      "name": "Vecchio Lago Cardelli",
      "lat": 42.6702291,
      "lon": 13.7555366,
      "type": "core",
      "visibility": "chicca",
      "tags": [
        "name=Vecchio Lago Cardelli",
        "natural=water",
        "water=lake"
      ],
      "score": 32
    },
    {
      "id": "way:660902394",
      "name": "Lago Acquaviva",
      "lat": 41.9239776,
      "lon": 14.4332269,
      "type": "core",
      "visibility": "chicca",
      "tags": [
        "intermittent=yes",
        "name=Lago Acquaviva",
        "natural=water",
        "water=lake"
      ],
      "score": 32
    },
    {
      "id": "way:661200475",
      "name": "Lago di Don Giorgio",
      "lat": 42.024373,
      "lon": 14.7196497,
      "type": "core",
      "visibility": "chicca",
      "tags": [
        "intermittent=yes",
        "name=Lago di Don Giorgio",
        "natural=water",
        "salt=no",
        "tidal=no",
        "water=lake"
      ],
      "score": 32
    },
    {
      "id": "way:676777033",
      "name": "Lago delle Mandrelle",
      "lat": 42.1352103,
      "lon": 14.5293,
      "type": "core",
      "visibility": "chicca",
      "tags": [
        "intermittent=no",
        "name=Lago delle Mandrelle",
        "natural=water",
        "salt=no",
        "tidal=no",
        "water=lake"
      ],
      "score": 32
    },
    {
      "id": "way:723701915",
      "name": "Lago di Filetto",
      "lat": 42.3927884,
      "lon": 13.5524718,
      "type": "core",
      "visibility": "chicca",
      "tags": [
        "ele=1371",
        "fishing=no",
        "name=Lago di Filetto",
        "natural=water",
        "salt=no",
        "water=lake"
      ],
      "score": 32
    },
    {
      "id": "way:763928704",
      "name": "Lago del Moro",
      "lat": 42.6698624,
      "lon": 13.8941062,
      "type": "core",
      "visibility": "chicca",
      "tags": [
        "name=Lago del Moro",
        "natural=water",
        "water=lake"
      ],
      "score": 32
    },
    {
      "id": "way:787553753",
      "name": "Laghetto di Casali D'Aschi",
      "lat": 41.9606455,
      "lon": 13.6772899,
      "type": "core",
      "visibility": "chicca",
      "tags": [
        "intermittent=yes",
        "name=Laghetto di Casali D'Aschi",
        "natural=water",
        "salt=no",
        "water=lake"
      ],
      "score": 32
    },
    {
      "id": "way:845669470",
      "name": "Lago di Navelli",
      "lat": 42.2343724,
      "lon": 13.7485494,
      "type": "core",
      "visibility": "chicca",
      "tags": [
        "intermittent=yes",
        "name=Lago di Navelli",
        "natural=water",
        "water=lake"
      ],
      "score": 32
    },
    {
      "id": "way:851437651",
      "name": "Lago di Capestrano",
      "lat": 42.2755367,
      "lon": 13.7712284,
      "type": "core",
      "visibility": "chicca",
      "tags": [
        "name=Lago di Capestrano",
        "natural=water",
        "water=lake"
      ],
      "score": 32
    },
    {
      "id": "way:884192829",
      "name": "Il Laghetto",
      "lat": 42.0655559,
      "lon": 14.0922957,
      "type": "core",
      "visibility": "chicca",
      "tags": [
        "name=Il Laghetto",
        "natural=water",
        "water=lake"
      ],
      "score": 32
    },
    {
      "id": "way:930153709",
      "name": "Lago di Caporciano",
      "lat": 42.2479288,
      "lon": 13.6834201,
      "type": "core",
      "visibility": "chicca",
      "tags": [
        "name=Lago di Caporciano",
        "natural=water",
        "water=lake"
      ],
      "score": 32
    },
    {
      "id": "way:1316465577",
      "name": "Lago sportivo Valleverdi",
      "lat": 42.0550233,
      "lon": 13.2365778,
      "type": "core",
      "visibility": "chicca",
      "tags": [
        "description=Lago per pesca sportiva denominato \"lago Valleverdi\" situato in località Piccola Svizzera - Tagliacozzo",
        "fishing=private",
        "intermittent=no",
        "name=Lago sportivo Valleverdi",
        "natural=water",
        "salt=no",
        "tidal=no",
        "water=lake"
      ],
      "score": 32
    },
    {
      "id": "way:1346031431",
      "name": "Laghetto della Montagnola",
      "lat": 42.5679221,
      "lon": 13.4129527,
      "type": "core",
      "visibility": "chicca",
      "tags": [
        "name=Laghetto della Montagnola",
        "natural=water",
        "water=lake"
      ],
      "score": 32
    },
    {
      "id": "relation:6897290",
      "name": "Laghetto di Ortucchio",
      "lat": 41.9544241,
      "lon": 13.6405091,
      "type": "core",
      "visibility": "chicca",
      "tags": [
        "name=Laghetto di Ortucchio",
        "natural=water",
        "type=multipolygon",
        "water=lake"
      ],
      "score": 32
    },
    {
      "id": "relation:9396235",
      "name": "Laghi di Basélice",
      "lat": 41.9841011,
      "lon": 14.4415873,
      "type": "core",
      "visibility": "chicca",
      "tags": [
        "name=Laghi di Basélice",
        "natural=water",
        "type=multipolygon",
        "water=lake"
      ],
      "score": 32
    },
    {
      "id": "relation:12834123",
      "name": "Lago di Serranella",
      "lat": 42.1205744,
      "lon": 14.3749079,
      "type": "core",
      "visibility": "chicca",
      "tags": [
        "name=Lago di Serranella",
        "natural=water",
        "salt=no",
        "tidal=no",
        "type=multipolygon",
        "water=lake",
        "wetland=marsh"
      ],
      "score": 32
    },
    {
      "id": "node:70990208",
      "name": "Chieti",
      "lat": 42.3446529,
      "lon": 14.1659738,
      "type": "core",
      "visibility": "chicca",
      "tags": [
        "capital=6",
        "gfoss_id=5930",
        "name=Chieti",
        "name:ar=كييتي",
        "name:el=Κιέτι",
        "name:en=Chieti",
        "name:ko=키에티",
        "name:ru=Кьети",
        "name:uk=К'єті",
        "name:zh=基耶蒂",
        "place=city",
        "population=51815",
        "source=geodati.gfoss.it",
        "website=https://www.comune.chieti.it/",
        "wikidata=Q13138",
        "wikimedia_commons=Category:Chieti",
        "wikipedia=it:Chieti"
      ],
      "score": 30
    },
    {
      "id": "node:1778115456",
      "name": "Pescara",
      "lat": 42.469613,
      "lon": 14.2059269,
      "type": "core",
      "visibility": "chicca",
      "tags": [
        "admin_level=8",
        "capital=6",
        "contact:facebook=https://www.facebook.com/comunedipescara/",
        "contact:instagram=https://www.instagram.com/comunepescara/",
        "contact:youtube=https://www.youtube.com/channel/UCY3SM7iISEafkDUSzYuaRhQ",
        "gfoss_id=5890",
        "name=Pescara",
        "name:ar=بسكارا",
        "name:el=Πεσκάρα",
        "name:en=Pescara",
        "name:eo=Peskaro",
        "name:ko=페스카라",
        "name:ml=പെസ്കാറ",
        "name:ru=Пескара",
        "name:uk=Пескара",
        "name:zh=佩斯卡拉",
        "name:zh-Hant=佩斯卡拉",
        "place=city",
        "population=116286",
        "source=geodati.gfoss.it",
        "website=https://www.comune.pescara.it/",
        "wikidata=Q2704",
        "wikimedia_commons=Category:Pescara",
        "wikipedia=it:Pescara"
      ],
      "score": 30
    },
    {
      "id": "node:2427292466",
      "name": "Borgo Faraone",
      "lat": 42.80484,
      "lon": 13.6811451,
      "type": "core",
      "visibility": "chicca",
      "tags": [
        "historic=ruins",
        "name=Borgo Faraone",
        "place=hamlet",
        "wikidata=Q17280261",
        "wikipedia=it:Faraone (Sant'Egidio alla Vibrata)"
      ],
      "score": 30
    },
    {
      "id": "way:235747351",
      "name": "Teatro romano di Teramo",
      "lat": 42.6579371,
      "lon": 13.7042445,
      "type": "core",
      "visibility": "chicca",
      "tags": [
        "alt_name=Teatro Romano di Interamnia",
        "archaeological_site=theatre",
        "historic=archaeological_site",
        "historic:civilization=ancient_roman",
        "name=Teatro romano di Teramo",
        "ruins=theatre",
        "tourism=attraction",
        "wikidata=Q3982372",
        "wikipedia=it:Teatro romano di Teramo"
      ],
      "score": 30
    },
    {
      "id": "way:243869580",
      "name": "Fortezza di Civitella del Tronto",
      "lat": 42.7725628,
      "lon": 13.6664932,
      "type": "core",
      "visibility": "chicca",
      "tags": [
        "historic=fort",
        "name=Fortezza di Civitella del Tronto",
        "tourism=attraction",
        "wikidata=Q19271670",
        "wikipedia=it:Fortezza di Civitella del Tronto"
      ],
      "score": 30
    },
    {
      "id": "way:415934348",
      "name": "Castello Cantelmo",
      "lat": 41.9715331,
      "lon": 13.9609945,
      "type": "core",
      "visibility": "chicca",
      "tags": [
        "building=yes",
        "castle_type=defensive",
        "description:it=Castello di epoca angioina attorno al XI secolo",
        "historic=castle",
        "name=Castello Cantelmo",
        "tourism=attraction",
        "wikidata=Q23893814",
        "wikipedia=it:Castello Cantelmo (Pettorano sul Gizio)"
      ],
      "score": 30
    },
    {
      "id": "way:450295603",
      "name": "Torretta Dannunziana",
      "lat": 42.448212,
      "lon": 14.1911663,
      "type": "core",
      "visibility": "chicca",
      "tags": [
        "abandoned:building=yes",
        "addr:city=Pescara",
        "addr:housenumber=141",
        "addr:postcode=65128",
        "addr:street=Via Raiale",
        "building=historic",
        "historic=ruins",
        "inscription=Iannessa Costruzione",
        "man_made=tower",
        "name=Torretta Dannunziana",
        "tourism=attraction",
        "tower:type=observation",
        "website=https://www.mondimedievali.net/Castelli/Abruzzo/pescara/pescara.htm"
      ],
      "score": 30
    },
    {
      "id": "way:533801257",
      "name": "Torre di Sperone",
      "lat": 41.9418224,
      "lon": 13.7288619,
      "type": "core",
      "visibility": "chicca",
      "tags": [
        "addr:country=IT",
        "addr:postcode=67055",
        "addr:subdistrict=Gioia dei Marsi AQ",
        "archaeological_site=tower",
        "building=yes",
        "ele=1265",
        "historic=archaeological_site",
        "historic:civilization=middle-ages",
        "man_made=tower",
        "name=Torre di Sperone",
        "tourism=attraction",
        "tower:construction=stone",
        "tower:type=defensive",
        "wikidata=Q50356362"
      ],
      "score": 30
    },
    {
      "id": "way:562746034",
      "name": "Palazzo dell'Emiciclo",
      "lat": 42.3448392,
      "lon": 13.3985896,
      "type": "core",
      "visibility": "chicca",
      "tags": [
        "access=yes",
        "alt_name=Palazzo dell'Esposizione",
        "building=public",
        "castle_type=stately",
        "historic=castle",
        "name=Palazzo dell'Emiciclo",
        "short_name=Emiciclo",
        "tourism=attraction",
        "wikidata=Q3891403",
        "wikipedia=it:Emiciclo (L'Aquila)"
      ],
      "score": 30
    },
    {
      "id": "relation:1450244",
      "name": "Forte spagnolo",
      "lat": 42.3539246,
      "lon": 13.4047169,
      "type": "core",
      "visibility": "chicca",
      "tags": [
        "access=no",
        "building=yes",
        "building:material=stone",
        "castle_type=fortress",
        "height=12",
        "historic=castle",
        "historic:civilization=medieval",
        "name=Forte spagnolo",
        "name:es=Fuerte Español",
        "tourism=attraction",
        "type=multipolygon",
        "wikidata=Q1438933",
        "wikipedia=it:Forte spagnolo"
      ],
      "score": 30
    },
    {
      "id": "relation:3011069",
      "name": "Palazzo D'Avalos",
      "lat": 42.1114849,
      "lon": 14.7106457,
      "type": "core",
      "visibility": "chicca",
      "tags": [
        "building=yes",
        "building:levels=3",
        "castle_type=palace",
        "heritage=yes",
        "historic=castle",
        "name=Palazzo D'Avalos",
        "tourism=attraction",
        "type=multipolygon",
        "wikidata=Q3891149",
        "wikipedia=it:Palazzo d'Avalos"
      ],
      "score": 30
    },
    {
      "id": "relation:4154769",
      "name": "Castel Menardo",
      "lat": 42.2403367,
      "lon": 14.0862538,
      "type": "core",
      "visibility": "chicca",
      "tags": [
        "alt_name=Castello Menardo",
        "historic=ruins",
        "name=Castel Menardo",
        "ruins=castle",
        "tourism=attraction",
        "type=multipolygon",
        "wikidata=Q3662110",
        "wikipedia=en:Castel Menardo"
      ],
      "score": 30
    },
    {
      "id": "relation:7355156",
      "name": "Palazzo Pica Alfieri",
      "lat": 42.3518554,
      "lon": 13.3979108,
      "type": "core",
      "visibility": "chicca",
      "tags": [
        "building=yes",
        "castle_type=stately",
        "historic=castle",
        "name=Palazzo Pica Alfieri",
        "tourism=attraction",
        "type=multipolygon",
        "wikidata=Q3890651",
        "wikipedia=it:Palazzo Pica Alfieri"
      ],
      "score": 30
    },
    {
      "id": "relation:9400051",
      "name": "Palazzo Ardinghelli",
      "lat": 42.3530021,
      "lon": 13.3998604,
      "type": "core",
      "visibility": "chicca",
      "tags": [
        "addr:city=L'Aquila",
        "addr:housenumber=15",
        "addr:postcode=67100",
        "addr:street=Piazza Santa Maria Paganica",
        "building=yes",
        "castle_type=stately",
        "historic=castle",
        "name=Palazzo Ardinghelli",
        "tourism=attraction",
        "type=multipolygon",
        "wikidata=Q3889557",
        "wikipedia=it:Palazzo Ardinghelli"
      ],
      "score": 30
    },
    {
      "id": "relation:10172672",
      "name": "Palazzetto dei Nobili",
      "lat": 42.3512909,
      "lon": 13.3974289,
      "type": "core",
      "visibility": "chicca",
      "tags": [
        "alt_name=Palazzo della Congregazione dei Nobili",
        "building=yes",
        "castle_type=stately",
        "historic=castle",
        "name=Palazzetto dei Nobili",
        "old_name=Oratorio dei Nobili",
        "tourism=attraction",
        "type=multipolygon",
        "wikidata=Q3889420",
        "wikipedia=it:Palazzetto dei Nobili"
      ],
      "score": 30
    },
    {
      "id": "relation:11062042",
      "name": "Castello di San Pio delle Camere",
      "lat": 42.2870965,
      "lon": 13.6599539,
      "type": "core",
      "visibility": "chicca",
      "tags": [
        "access=yes",
        "castle_type=defensive",
        "description=Castello recinto le cui prime notizie risalgono al 1173",
        "historic=castle",
        "historic:civilization=medieval",
        "name=Castello di San Pio delle Camere",
        "ruins=yes",
        "tourism=attraction",
        "type=multipolygon",
        "wikidata=Q18543207",
        "wikipedia=it:Castello di San Pio delle Camere"
      ],
      "score": 30
    },
    {
      "id": "relation:11147763",
      "name": "Castello di Sant'Eusanio Forconese",
      "lat": 42.2939046,
      "lon": 13.5209105,
      "type": "core",
      "visibility": "chicca",
      "tags": [
        "castle_type=defensive",
        "historic=castle",
        "name=Castello di Sant'Eusanio Forconese",
        "tourism=attraction",
        "type=multipolygon",
        "wikidata=Q18524019",
        "wikipedia=it:Castello di Sant'Eusanio Forconese"
      ],
      "score": 30
    },
    {
      "id": "relation:11180988",
      "name": "Castello di Barisciano",
      "lat": 42.3254209,
      "lon": 13.6001477,
      "type": "core",
      "visibility": "chicca",
      "tags": [
        "description=Ruderi della torre pentagonale e delle mura perimetrali di un tipico castello-recinto",
        "historic=castle",
        "name=Castello di Barisciano",
        "ruins=yes",
        "tourism=attraction",
        "type=multipolygon",
        "wikidata=Q18543212",
        "wikipedia=it:Castello di Barisciano"
      ],
      "score": 30
    },
    {
      "id": "relation:11701596",
      "name": "Castello Cantelmo",
      "lat": 42.1731218,
      "lon": 13.8386677,
      "type": "core",
      "visibility": "chicca",
      "tags": [
        "castle_type=fortress",
        "description=Tipico castello-recinto edificato tra il 1000 ed il 1015",
        "historic=castle",
        "name=Castello Cantelmo",
        "tourism=attraction",
        "type=multipolygon",
        "wikidata=Q23638921",
        "wikipedia=it:Castello ducale Cantelmo"
      ],
      "score": 30
    },
    {
      "id": "relation:11929879",
      "name": "Castello di Bominaco",
      "lat": 42.2457473,
      "lon": 13.6603979,
      "type": "core",
      "visibility": "chicca",
      "tags": [
        "castle_type=defensive",
        "historic=castle",
        "historic:civilization=medieval",
        "name=Castello di Bominaco",
        "ruins=yes",
        "tourism=attraction",
        "type=multipolygon",
        "wikidata=Q18543165",
        "wikipedia=it:Castello di Bominaco"
      ],
      "score": 30
    },
    {
      "id": "relation:12099795",
      "name": "Castello Piccolomini",
      "lat": 42.267968,
      "lon": 13.7692246,
      "type": "core",
      "visibility": "chicca",
      "tags": [
        "building=yes",
        "historic=castle",
        "name=Castello Piccolomini",
        "start_date=1485",
        "tourism=attraction",
        "type=multipolygon",
        "wikidata=Q15712465",
        "wikipedia=it:Castello Piccolomini (Capestrano)"
      ],
      "score": 30
    },
    {
      "id": "way:130678724",
      "name": "Acqualand del Vasto",
      "lat": 42.1500605,
      "lon": 14.6965756,
      "type": "core",
      "visibility": "chicca",
      "tags": [
        "contact:email=info@aqualandvasto.com",
        "contact:facebook=https://www.facebook.com/AqualandVasto/",
        "contact:instagram=https://www.instagram.com/aqualandvasto/",
        "contact:phone=+39 0873 310130;+39 0873 310709",
        "contact:youtube=https://www.youtube.com/c/aqualandvasto",
        "leisure=water_park",
        "mobile=+39 329 393 9358",
        "name=Acqualand del Vasto",
        "opening_hours=PH,Mo-Su 10:00-18:00",
        "start_date=1995-07-15",
        "website=https://aqualandvasto.com/",
        "wikidata=Q3621088",
        "wikipedia=it:Aqualand del Vasto"
      ],
      "score": 28
    },
    {
      "id": "way:183567197",
      "name": "Porto Turistico Portorose",
      "lat": 42.6558814,
      "lon": 14.0360466,
      "type": "core",
      "visibility": "chicca",
      "tags": [
        "addr:city=Roseto degli Abruzzi",
        "addr:housenumber=1",
        "addr:postcode=64026",
        "addr:street=Via Tamigi",
        "capacity=150",
        "fee=yes",
        "leisure=marina",
        "name=Porto Turistico Portorose",
        "natural=water",
        "phone:mobile=+39 329 803 4310",
        "power_supply=yes",
        "seamark:harbour:category=marina",
        "seamark:name=Porto Turistico Portorose",
        "seamark:type=harbour",
        "toilets=yes",
        "website=https://abruzzoturismo.it/en/harbour-portorose-roseto-degli-abruzzi-te"
      ],
      "score": 28
    },
    {
      "id": "way:349526452",
      "name": "Fontana Luminosa",
      "lat": 42.3538189,
      "lon": 13.4013574,
      "type": "core",
      "visibility": "chicca",
      "tags": [
        "amenity=fountain",
        "barrier=retaining_wall",
        "name=Fontana Luminosa",
        "natural=water",
        "tourism=attraction",
        "wikidata=Q3747448",
        "wikipedia=it:Fontana luminosa"
      ],
      "score": 28
    },
    {
      "id": "way:610049494",
      "name": "Fontana dei due leoni",
      "lat": 42.6588651,
      "lon": 13.70397,
      "type": "core",
      "visibility": "chicca",
      "tags": [
        "amenity=fountain",
        "name=Fontana dei due leoni",
        "natural=water",
        "tourism=attraction",
        "wikipedia=it:Pasquale Morganti (scultore)#La Fontana dei Due Leoni"
      ],
      "score": 28
    },
    {
      "id": "relation:9400054",
      "name": "Fontana del Nettuno",
      "lat": 42.3527566,
      "lon": 13.4011938,
      "type": "core",
      "visibility": "chicca",
      "tags": [
        "alt_name=Fontana del Tritone",
        "amenity=fountain",
        "name=Fontana del Nettuno",
        "natural=water",
        "tourism=attraction",
        "type=multipolygon",
        "wikidata=Q3747359",
        "wikipedia=it:Fontana del Nettuno (L'Aquila)"
      ],
      "score": 28
    },
    {
      "id": "node:70990193",
      "name": "L'Aquila",
      "lat": 42.3489203,
      "lon": 13.3979672,
      "type": "core",
      "visibility": "chicca",
      "tags": [
        "capital=4",
        "gfoss_id=5756",
        "name=L'Aquila",
        "name:ar=لاكويلا",
        "name:el=Λ' Άκουιλα",
        "name:en=L'Aquila",
        "name:eo=La-Aglo",
        "name:fa=لاکوئیلا",
        "name:ko=라퀼라",
        "name:ml=ലാക്വില",
        "name:ru=Л'Акуила",
        "name:uk=Л'Акуїла",
        "name:zh=拉奎拉",
        "old_name=Aquila degli Abruzzi",
        "place=city",
        "population=69753",
        "source=geodati.gfoss.it",
        "wikidata=Q3476",
        "wikipedia=it:L'Aquila"
      ],
      "score": 26
    },
    {
      "id": "node:70990245",
      "name": "Teramo",
      "lat": 42.6612893,
      "lon": 13.6983524,
      "type": "core",
      "visibility": "chicca",
      "tags": [
        "capital=6",
        "gfoss_id=5856",
        "name=Teramo",
        "name:ar=ترامة",
        "name:el=Τέραμο",
        "name:it=Teramo",
        "name:ko=테라모",
        "name:ml=ടെറാമോ",
        "name:ru=Терамо",
        "name:uk=Терамо",
        "name:zh=泰拉莫",
        "place=city",
        "population=54892",
        "source=geodati.gfoss.it",
        "wikidata=Q13137"
      ],
      "score": 26
    },
    {
      "id": "node:70992107",
      "name": "Vasto",
      "lat": 42.12434,
      "lon": 14.705923,
      "type": "core",
      "visibility": "chicca",
      "tags": [
        "gfoss_id=6007",
        "name=Vasto",
        "place=town",
        "population=41087",
        "source=geodati.gfoss.it",
        "website=http://www.comune.vasto.ch.it/",
        "wikidata=Q51313",
        "wikimedia_commons=Category:Vasto",
        "wikipedia=it:Vasto"
      ],
      "score": 26
    },
    {
      "id": "node:70992342",
      "name": "Castel di Sangro",
      "lat": 41.7842727,
      "lon": 14.1080639,
      "type": "core",
      "visibility": "chicca",
      "tags": [
        "gfoss_id=5735",
        "name=Castel di Sangro",
        "place=town",
        "population=6538",
        "source=geodati.gfoss.it",
        "website=https://www.comune.casteldisangro.aq.it",
        "wikidata=Q30024110",
        "wikimedia_commons=Category:Castel di Sangro",
        "wikipedia=it:Castel di Sangro"
      ],
      "score": 26
    },
    {
      "id": "node:70992946",
      "name": "Sulmona",
      "lat": 42.0474231,
      "lon": 13.927011,
      "type": "core",
      "visibility": "chicca",
      "tags": [
        "gfoss_id=5805",
        "name=Sulmona",
        "place=town",
        "population=24557",
        "source=geodati.gfoss.it",
        "website=https://www.comune.sulmona.aq.it/",
        "wikidata=Q50157",
        "wikimedia_commons=Category:Sulmona",
        "wikipedia=it:Sulmona"
      ],
      "score": 26
    },
    {
      "id": "node:70993342",
      "name": "Montesilvano",
      "lat": 42.5136032,
      "lon": 14.1516203,
      "type": "core",
      "visibility": "chicca",
      "tags": [
        "check_date=2024-01-01",
        "contact:facebook=https://www.facebook.com/ComunediMontesilvano/",
        "contact:youtube=https://www.youtube.com/channel/UCr6Nup5a8M-KabFvpZJ_Zfg",
        "gfoss_id=5886",
        "name=Montesilvano",
        "name:ru=Монтесильвано",
        "place=town",
        "population=53565",
        "source=ISTAT",
        "source:date=2024",
        "website=https://www.comune.montesilvano.pe.it/",
        "wikidata=Q51372",
        "wikimedia_commons=Category:Montesilvano",
        "wikipedia=it:Montesilvano"
      ],
      "score": 26
    },
    {
      "id": "node:70993833",
      "name": "Atri",
      "lat": 42.5797836,
      "lon": 13.97535,
      "type": "core",
      "visibility": "chicca",
      "tags": [
        "facebook=https://www.facebook.com/comune.atri",
        "gfoss_id=5819",
        "name=Atri",
        "place=town",
        "population=10772",
        "source=geodati.gfoss.it",
        "website=https://www.comune.atri.te.it",
        "wikidata=Q51420",
        "wikipedia=it:Atri"
      ],
      "score": 26
    },
    {
      "id": "node:70993908",
      "name": "Roseto degli Abruzzi",
      "lat": 42.677577,
      "lon": 14.0144636,
      "type": "core",
      "visibility": "chicca",
      "tags": [
        "check_date=2023-01-01",
        "gfoss_id=5852",
        "name=Roseto degli Abruzzi",
        "place=town",
        "population=25501",
        "postal_code=64026",
        "source=geodati.gfoss.it",
        "website=https://www.comune.roseto.te.it/",
        "wikidata=Q2081",
        "wikimedia_commons=Category:Roseto degli Abruzzi",
        "wikipedia=it:Roseto degli Abruzzi"
      ],
      "score": 26
    },
    {
      "id": "way:46795024",
      "name": "Spiaggia di Vasto Marina",
      "lat": 42.0941985,
      "lon": 14.7350138,
      "type": "core",
      "visibility": "chicca",
      "tags": [
        "name=Spiaggia di Vasto Marina",
        "natural=beach",
        "surface=sand",
        "tourism=attraction"
      ],
      "score": 26
    },
    {
      "id": "way:232017989",
      "name": "Castello di Roccascalegna",
      "lat": 42.0624796,
      "lon": 14.3046992,
      "type": "core",
      "visibility": "chicca",
      "tags": [
        "building=yes",
        "castle_type=defensive",
        "email=castellomedievaleroccascalegna@gmail.com",
        "historic=castle",
        "historic:period=medieval",
        "name=Castello di Roccascalegna",
        "name:en=Roccascalegna Castle",
        "opening_hours=Jul-Aug: Mo-Su 10:00-13:00, 15:00-19:00; Sep-Jun: Sa-Su 10:00-13:00, 15:00-18:00; Mo-Fr off",
        "phone=+39 335 8767589",
        "website=https://www.castelloroccascalegna.com",
        "wikidata=Q3662840",
        "wikipedia=it:Castello di Roccascalegna"
      ],
      "score": 26
    },
    {
      "id": "way:247257998",
      "name": "Castello Piccolomini",
      "lat": 42.0847056,
      "lon": 13.545274,
      "type": "core",
      "visibility": "chicca",
      "tags": [
        "facebook=https://www.facebook.com/Castello-Piccolomini-Celano-119138175428977",
        "fixme=geometry",
        "historic=castle",
        "name=Castello Piccolomini",
        "opening_hours=Tu-Su 08:30-19:30",
        "phone=+39 0863 793730",
        "website=https://www.beniculturali.it/mibac/opencms/MiBAC/sito-MiBAC/Luogo/MibacUnif/Luoghi-della-Cultura/visualizza_asset.html?id=150264&pagename=157031",
        "wikidata=Q3662360",
        "wikipedia=it:Castello Piccolomini (Celano)"
      ],
      "score": 26
    },
    {
      "id": "way:439443665",
      "name": "Strada consolare Cecilia",
      "lat": 42.4892895,
      "lon": 13.3695356,
      "type": "core",
      "visibility": "chicca",
      "tags": [
        "historic=ruins",
        "historic:civilization=ancient_roman",
        "name=Strada consolare Cecilia",
        "old_name=Via Crepedines",
        "tourism=attraction"
      ],
      "score": 26
    },
    {
      "id": "way:498933147",
      "name": "Torre degli Acquaviva",
      "lat": 42.7149551,
      "lon": 13.8326376,
      "type": "core",
      "visibility": "chicca",
      "tags": [
        "building=yes",
        "historic=castle",
        "name=Torre degli Acquaviva",
        "tourism=attraction"
      ],
      "score": 26
    },
    {
      "id": "way:605355387",
      "name": "Zoo d'Abruzzo",
      "lat": 42.2739477,
      "lon": 14.4476545,
      "type": "core",
      "visibility": "chicca",
      "tags": [
        "addr:city=Rocca San Giovanni",
        "addr:housenumber=27e",
        "addr:street=Contrada Scalzino",
        "alt_name=Area Faunistica di Rocca San Giovanni",
        "contact:email=info@zooabruzzo.it",
        "contact:mobile=+39 329 0664622",
        "contact:phone=+39 0872 618012",
        "name=Zoo d'Abruzzo",
        "ref:vatin=IT02330550696",
        "tourism=zoo",
        "website=https://www.zooabruzzo.it/",
        "wikidata=Q20010227",
        "wikipedia=it:Zoo d'Abruzzo"
      ],
      "score": 26
    },
    {
      "id": "node:11112187691",
      "name": "Acquapark Parco del Sangro",
      "lat": 41.7751925,
      "lon": 14.097138,
      "type": "core",
      "visibility": "chicca",
      "tags": [
        "addr:city=Castel di Sangro",
        "addr:postcode=67031",
        "addr:street=Piazza del Mezzogiorno",
        "leisure=water_park",
        "name=Acquapark Parco del Sangro",
        "opening_hours=Mo-Su 09:30-18:00",
        "website=https://www.parcodelsangro.it/lacquapark"
      ],
      "score": 24
    },
    {
      "id": "way:99581742",
      "name": "Onda Blu",
      "lat": 42.7819954,
      "lon": 13.9383054,
      "type": "core",
      "visibility": "chicca",
      "tags": [
        "addr:city=Tortoreto",
        "addr:housenumber=14",
        "addr:postcode=64018",
        "addr:street=Via dell'Industria",
        "contact:email=info@acquaparkondablu.it",
        "contact:fax=+39 0861 779219",
        "contact:phone=+39 0861 7791",
        "facebook=https://www.facebook.com/acquaparkondablu",
        "instagram=https://www.instagram.com/acquaparkondablu/",
        "leisure=water_park",
        "name=Onda Blu",
        "opening_hours=Jun 22-Sep 1: Mo-Su 10:00-18:30",
        "seasonal=yes",
        "sport=swimming",
        "tourism=theme_park",
        "website=https://www.acquaparkondablu.it/",
        "youtube=https://www.youtube.com/channel/UCwIUeXb16IPsjIr2ZhAiFQw"
      ],
      "score": 24
    },
    {
      "id": "way:317293294",
      "name": "Castello di Oricola",
      "lat": 42.0494774,
      "lon": 13.0391833,
      "type": "core",
      "visibility": "chicca",
      "tags": [
        "addr:city=Oricola",
        "addr:postcode=67063",
        "addr:street=Via Castello",
        "historic=castle",
        "name=Castello di Oricola",
        "website=https://www.comune.oricola.aq.it/hh/index.php",
        "wikidata=Q23671483",
        "wikipedia=en:Castello di Oricola"
      ],
      "score": 24
    },
    {
      "id": "way:330100723",
      "name": "Parco Avventura Majella",
      "lat": 42.1769644,
      "lon": 14.1705937,
      "type": "core",
      "visibility": "chicca",
      "tags": [
        "charge=30 EUR",
        "contact:facebook=https://www.facebook.com/parcoavventuramajella/?locale=it_IT",
        "contact:instagram=https://www.instagram.com/parcoavventuramajella",
        "email=info@parconaturalemajella.it",
        "fax=+39 0871 335 544",
        "fee=yes",
        "leisure=sports_centre",
        "mobile=+39 392 857 6831",
        "name=Parco Avventura Majella",
        "opening_hours=Mar-Jun Sa,Su 10:00-19:00; Apr 01,Apr 25,Apr 26 10:00-19:00; Jun 17-Sep 22 10:00-19:00; Sep 28,Sep 29 10:00-19:00; Jul-Aug 10:00-20:00; Oct 10:00-18:00; Nov 01,Nov 10:00-17:00",
        "phone=+39 0871 335 544",
        "ref:vatin=IT02528110691",
        "reservation=recommended",
        "sport=climbing_adventure",
        "tourism=theme_park",
        "website=https://www.parconaturalemajella.it/parco-avventura"
      ],
      "score": 24
    },
    {
      "id": "way:342148091",
      "name": "Castel Mancino",
      "lat": 41.8129821,
      "lon": 13.7869103,
      "type": "core",
      "visibility": "chicca",
      "tags": [
        "alt_name=Castello di Pescasseroli",
        "historic=castle",
        "historic:civilization=medieval",
        "name=Castel Mancino",
        "ruins=yes",
        "website=https://www.pescasserolandia.it/index.php/i-nostri-servizi/conoscere-il-territorio/il-territorio/castel-mancino",
        "wikidata=Q101670276",
        "wikimedia_commons=Category:Ruderi Castel Mancino",
        "wikipedia=it:Castello di Pescasseroli"
      ],
      "score": 24
    },
    {
      "id": "way:380092454",
      "name": "Castello Caldora",
      "lat": 42.0515424,
      "lon": 13.9953572,
      "type": "core",
      "visibility": "chicca",
      "tags": [
        "building=yes",
        "height=10 m",
        "historic=castle",
        "historic:civilization=medieval",
        "name=Castello Caldora",
        "website=https://fondoambiente.it/luoghi/castello-dei-cantelmo-e-borgo?ldc",
        "wheelchair=limited",
        "wikidata=Q3662312",
        "wikimedia_commons=Category:Castello Caldora (Pacentro)",
        "wikipedia=it:Castello Caldora (Pacentro)"
      ],
      "score": 24
    },
    {
      "id": "way:475443541",
      "name": "Castello di Pereto",
      "lat": 42.0600654,
      "lon": 13.1020417,
      "type": "core",
      "visibility": "chicca",
      "tags": [
        "addr:city=Pereto",
        "addr:postcode=67064",
        "addr:street=Largo Castello",
        "building=yes",
        "historic=castle",
        "name=Castello di Pereto",
        "website=https://www.webmarsica.it/castello-di-pereto/",
        "wikidata=Q23662338",
        "wikimedia_commons=Category:Castello di Pereto",
        "wikipedia=it:Castello di Pereto"
      ],
      "score": 24
    },
    {
      "id": "relation:12891373",
      "name": "Paperopoli",
      "lat": 42.458475,
      "lon": 14.1923423,
      "type": "core",
      "visibility": "chicca",
      "tags": [
        "access=yes",
        "addr:city=Pescara",
        "addr:housenumber=430",
        "addr:postcode=65124",
        "addr:street=Via del Circuito",
        "fee=yes",
        "leisure=playground",
        "name=Paperopoli",
        "opening_hours=Mo-Su 19:30-24:00; Sa-Su 10:00-13:00",
        "phone:mobile=+39 339 146 4639",
        "tourism=attraction",
        "type=multipolygon",
        "website=https://www.paperopoli.eu"
      ],
      "score": 24
    },
    {
      "id": "node:70990414",
      "name": "Canosa Sannita",
      "lat": 42.2954608,
      "lon": 14.300705,
      "type": "core",
      "visibility": "chicca",
      "tags": [
        "gfoss_id=5918",
        "name=Canosa Sannita",
        "place=village",
        "population=1510",
        "source=geodati.gfoss.it",
        "website=https://www.comunecanosasannita.it/",
        "wikidata=Q30023604"
      ],
      "score": 22
    },
    {
      "id": "node:70990636",
      "name": "Francavilla al Mare",
      "lat": 42.4168011,
      "lon": 14.2914819,
      "type": "core",
      "visibility": "chicca",
      "tags": [
        "gfoss_id=5943",
        "name=Francavilla al Mare",
        "place=town",
        "population=25422",
        "source=geodati.gfoss.it",
        "wikidata=Q51225"
      ],
      "score": 22
    },
    {
      "id": "node:70990834",
      "name": "Ortona",
      "lat": 42.349643,
      "lon": 14.403913,
      "type": "core",
      "visibility": "chicca",
      "tags": [
        "gfoss_id=5966",
        "name=Ortona",
        "place=town",
        "population=23446",
        "source=geodati.gfoss.it",
        "wikidata=Q51256"
      ],
      "score": 22
    },
    {
      "id": "node:70991066",
      "name": "San Salvo",
      "lat": 42.0433265,
      "lon": 14.7272302,
      "type": "core",
      "visibility": "chicca",
      "tags": [
        "gfoss_id=5991",
        "name=San Salvo",
        "place=town",
        "population=20016",
        "source=geodati.gfoss.it",
        "wikidata=Q51288"
      ],
      "score": 22
    },
    {
      "id": "node:70991733",
      "name": "Filetto",
      "lat": 42.2282241,
      "lon": 14.2450948,
      "type": "core",
      "visibility": "chicca",
      "tags": [
        "check_date=2022-12-31",
        "ele=403",
        "gfoss_id=5940",
        "name=Filetto",
        "place=village",
        "population=854",
        "source=geodati.gfoss.it",
        "website=http://www.comune.filetto.ch.it/hh/index.php",
        "wikidata=Q51222",
        "wikipedia=it:Filetto (Italia)"
      ],
      "score": 22
    },
    {
      "id": "node:70991744",
      "name": "Fara Filiorum Petri",
      "lat": 42.2490311,
      "lon": 14.1861364,
      "type": "core",
      "visibility": "chicca",
      "tags": [
        "ele=227",
        "gfoss_id=5938",
        "name=Fara Filiorum Petri",
        "place=village",
        "population=1976",
        "website=http://www.comunefarafiliorumpetri.it/",
        "wikidata=Q51218",
        "wikipedia=it:Fara Filiorum Petri"
      ],
      "score": 22
    },
    {
      "id": "node:70991800",
      "name": "Lanciano",
      "lat": 42.2305316,
      "lon": 14.3907794,
      "type": "core",
      "visibility": "chicca",
      "tags": [
        "gfoss_id=5954",
        "name=Lanciano",
        "name:it=Lanciano",
        "name:la=Anxsanum",
        "name:pronunciation=laŋ̩ˈt͡ʃaːno",
        "place=town",
        "population=35444",
        "source=geodati.gfoss.it",
        "wikidata=Q8645"
      ],
      "score": 22
    },
    {
      "id": "node:70992240",
      "name": "Avezzano",
      "lat": 42.0347963,
      "lon": 13.4265048,
      "type": "core",
      "visibility": "chicca",
      "tags": [
        "description=Comune abruzzese di oltre 42000 abitanti situato in provincia dell'Aquila.",
        "gfoss_id=5713",
        "name=Avezzano",
        "place=town",
        "population=42515",
        "source=geodati.gfoss.it",
        "wikidata=Q30022445",
        "wikimedia_commons=Category:Avezzano",
        "wikipedia=it:Avezzano"
      ],
      "score": 22
    },
    {
      "id": "node:70992281",
      "name": "Aielli",
      "lat": 42.0802826,
      "lon": 13.5905433,
      "type": "core",
      "visibility": "chicca",
      "tags": [
        "gfoss_id=5709",
        "name=Aielli",
        "place=village",
        "population=1477",
        "source=geodati.gfoss.it",
        "website=https://comunediaielli.it",
        "wikidata=Q30022029",
        "wikimedia_commons=Category:Aielli",
        "wikipedia=it:Aielli"
      ],
      "score": 22
    },
    {
      "id": "node:70992294",
      "name": "Acciano",
      "lat": 42.1765004,
      "lon": 13.7178999,
      "type": "core",
      "visibility": "chicca",
      "tags": [
        "gfoss_id=5708",
        "name=Acciano",
        "place=village",
        "population=401",
        "source=geodati.gfoss.it",
        "website=https://www.comune.acciano.aq.it/",
        "wikidata=Q30021918",
        "wikipedia=it:Acciano"
      ],
      "score": 22
    },
    {
      "id": "node:70992371",
      "name": "Carsoli",
      "lat": 42.098927,
      "lon": 13.084888,
      "type": "core",
      "visibility": "chicca",
      "tags": [
        "gfoss_id=5732",
        "name=Carsoli",
        "place=town",
        "population=5086",
        "source=geodati.gfoss.it",
        "wikidata=Q30023852",
        "wikimedia_commons=Category:Carsoli",
        "wikipedia=it:Carsoli"
      ],
      "score": 22
    },
    {
      "id": "node:70992419",
      "name": "Luco dei Marsi",
      "lat": 41.957027,
      "lon": 13.473598,
      "type": "core",
      "visibility": "chicca",
      "tags": [
        "gfoss_id=5758",
        "name=Luco dei Marsi",
        "place=village",
        "population=5541",
        "source=geodati.gfoss.it",
        "website=http://www.comune.lucodeimarsi.aq.it",
        "wikidata=Q18426793",
        "wikimedia_commons=Category:Luco dei Marsi",
        "wikipedia=it:Luco dei Marsi"
      ],
      "score": 22
    },
    {
      "id": "node:70992482",
      "name": "Opi",
      "lat": 41.7808732,
      "lon": 13.8295241,
      "type": "core",
      "visibility": "chicca",
      "tags": [
        "gfoss_id=5768",
        "name=Opi",
        "place=village",
        "population=462",
        "source=geodati.gfoss.it",
        "website=https://www.comune.opi.aq.it/",
        "wikidata=Q30028360",
        "wikimedia_commons=Category:Opi",
        "wikipedia=it:Opi (comune)"
      ],
      "score": 22
    },
    {
      "id": "node:70992527",
      "name": "Celano",
      "lat": 42.0843238,
      "lon": 13.5462069,
      "type": "core",
      "visibility": "chicca",
      "tags": [
        "gfoss_id=5739",
        "name=Celano",
        "place=town",
        "population=11017",
        "source=geodati.gfoss.it",
        "wikidata=Q50079",
        "wikipedia=it:Celano"
      ],
      "score": 22
    },
    {
      "id": "node:70992608",
      "name": "Rocca di Botte",
      "lat": 42.026225,
      "lon": 13.067688,
      "type": "core",
      "visibility": "chicca",
      "tags": [
        "gfoss_id=5787",
        "name=Rocca di Botte",
        "place=village",
        "population=522",
        "source=geodati.gfoss.it",
        "website=http://www.comune.roccadibotte.aq.it",
        "wikidata=Q50134",
        "wikimedia_commons=Category:Rocca di Botte",
        "wikipedia=it:Rocca di Botte"
      ],
      "score": 22
    },
    {
      "id": "node:70992630",
      "name": "Rocca di Mezzo",
      "lat": 42.2051312,
      "lon": 13.5192689,
      "type": "core",
      "visibility": "chicca",
      "tags": [
        "ele=1329",
        "gfoss_id=5789",
        "name=Rocca di Mezzo",
        "place=town",
        "population=1426",
        "source=geodati.gfoss.it",
        "wikidata=Q30029441"
      ],
      "score": 22
    },
    {
      "id": "node:70992685",
      "name": "Pescasseroli",
      "lat": 41.808401,
      "lon": 13.789282,
      "type": "core",
      "visibility": "chicca",
      "tags": [
        "gfoss_id=5775",
        "name=Pescasseroli",
        "place=town",
        "population=2130",
        "source=geodati.gfoss.it",
        "wikidata=Q30028737",
        "wikimedia_commons=Category:Pescasseroli",
        "wikipedia=it:Pescasseroli"
      ],
      "score": 22
    },
    {
      "id": "node:70992731",
      "name": "Pratola Peligna",
      "lat": 42.098314,
      "lon": 13.8739802,
      "type": "core",
      "visibility": "chicca",
      "tags": [
        "ele=342",
        "loc_name=Pratëlë",
        "name=Pratola Peligna",
        "name:nap=Pratëlë",
        "place=town",
        "population=7000",
        "wikidata=Q30029153",
        "wikimedia_commons=Category:Pratola Peligna",
        "wikipedia=it:Pratola Peligna"
      ],
      "score": 22
    },
    {
      "id": "node:70992775",
      "name": "Villetta Barrea",
      "lat": 41.775827,
      "lon": 13.938511,
      "type": "core",
      "visibility": "chicca",
      "tags": [
        "gfoss_id=5814",
        "name=Villetta Barrea",
        "place=village",
        "population=595",
        "source=geodati.gfoss.it",
        "website=http://www.comune.villettabarrea.aq.it",
        "wikidata=Q30031885",
        "wikimedia_commons=Category:Villetta Barrea",
        "wikipedia=it:Villetta Barrea"
      ],
      "score": 22
    },
    {
      "id": "node:70992789",
      "name": "Villavallelonga",
      "lat": 41.8674804,
      "lon": 13.6245426,
      "type": "core",
      "visibility": "chicca",
      "tags": [
        "gfoss_id=5813",
        "name=Villavallelonga",
        "place=village",
        "population=1004",
        "source=geodati.gfoss.it",
        "website=https://comune.villavallelonga.aq.it",
        "wikidata=Q30031880",
        "wikimedia_commons=Category:Villavallelonga",
        "wikipedia=it:Villavallelonga"
      ],
      "score": 22
    },
    {
      "id": "node:70992860",
      "name": "Scurcola Marsicana",
      "lat": 42.063128,
      "lon": 13.339194,
      "type": "core",
      "visibility": "chicca",
      "tags": [
        "gfoss_id=5803",
        "name=Scurcola Marsicana",
        "place=village",
        "population=2501",
        "source=geodati.gfoss.it",
        "website=https://comune.scurcolamarsicana.aq.it/",
        "wikidata=Q50155",
        "wikimedia_commons=Category:Scurcola Marsicana",
        "wikipedia=it:Scurcola Marsicana"
      ],
      "score": 22
    },
    {
      "id": "node:70992910",
      "name": "Trasacco",
      "lat": 41.9579027,
      "lon": 13.5383358,
      "type": "core",
      "visibility": "chicca",
      "tags": [
        "contact:facebook=https://www.facebook.com/comunediTrasacco/",
        "contact:instagram=https://www.instagram.com/comuneditrasacco/",
        "gfoss_id=5809",
        "name=Trasacco",
        "place=village",
        "population=5998",
        "source=geodati.gfoss.it",
        "website=https://comune.trasacco.aq.it",
        "wikidata=Q30031258",
        "wikimedia_commons=Category:Trasacco",
        "wikipedia=it:Trasacco"
      ],
      "score": 22
    },
    {
      "id": "node:70992933",
      "name": "Tagliacozzo",
      "lat": 42.069327,
      "lon": 13.254692,
      "type": "core",
      "visibility": "chicca",
      "tags": [
        "gfoss_id=5806",
        "name=Tagliacozzo",
        "place=town",
        "population=6532",
        "source=geodati.gfoss.it",
        "wikidata=Q30030985",
        "wikimedia_commons=Category:Tagliacozzo",
        "wikipedia=it:Tagliacozzo"
      ],
      "score": 22
    },
    {
      "id": "node:70993202",
      "name": "Pettorano sul Gizio",
      "lat": 41.9732586,
      "lon": 13.9600517,
      "type": "core",
      "visibility": "chicca",
      "tags": [
        "ele=656",
        "gfoss_id=5778",
        "name=Pettorano sul Gizio",
        "place=village",
        "population=1255",
        "source=geodati.gfoss.it",
        "website=https://comune.pettorano.aq.it/",
        "wikidata=Q30028773",
        "wikimedia_commons=Category:Pettorano sul Gizio",
        "wikipedia=it:Pettorano sul Gizio"
      ],
      "score": 22
    },
    {
      "id": "node:70993229",
      "name": "Molina Aterno",
      "lat": 42.149033,
      "lon": 13.735401,
      "type": "core",
      "visibility": "chicca",
      "tags": [
        "gfoss_id=5762",
        "name=Molina Aterno",
        "place=village",
        "population=463",
        "source=geodati.gfoss.it",
        "website=https://comune.molinaaterno.aq.it/",
        "wikidata=Q30027613",
        "wikipedia=it:Molina Aterno"
      ],
      "score": 22
    },
    {
      "id": "node:70993237",
      "name": "Oricola",
      "lat": 42.049225,
      "lon": 13.039387,
      "type": "core",
      "visibility": "chicca",
      "tags": [
        "gfoss_id=5769",
        "name=Oricola",
        "place=village",
        "population=950",
        "source=geodati.gfoss.it",
        "website=https://www.comune.oricola.aq.it/",
        "wikidata=Q33704120",
        "wikimedia_commons=Category:Oricola",
        "wikipedia=it:Oricola"
      ],
      "score": 22
    },
    {
      "id": "node:70993266",
      "name": "Magliano de' Marsi",
      "lat": 42.091529,
      "lon": 13.363794,
      "type": "core",
      "visibility": "chicca",
      "tags": [
        "contact:facebook=https://www.facebook.com/comunemaglianodm",
        "contact:instagram=https://www.instagram.com/comunedimaglianodemarsi",
        "gfoss_id=5760",
        "name=Magliano de' Marsi",
        "place=village",
        "population=3540",
        "source=geodati.gfoss.it",
        "website=https://comune.maglianodemarsi.aq.it/",
        "wikidata=Q50106",
        "wikimedia_commons=Category:Magliano de' Marsi",
        "wikipedia=it:Magliano de' Marsi"
      ],
      "score": 22
    },
    {
      "id": "node:70993279",
      "name": "Città Sant'Angelo",
      "lat": 42.518144,
      "lon": 14.059203,
      "type": "core",
      "visibility": "chicca",
      "tags": [
        "ele=317",
        "gfoss_id=5874",
        "name=Città Sant'Angelo",
        "place=town",
        "population=14969",
        "source=geodati.gfoss.it",
        "source:ele=guidepost",
        "twin_town=Nicolosi (Catania)",
        "wikidata=Q51356",
        "wikipedia=it:Città Sant'Angelo"
      ],
      "score": 22
    },
    {
      "id": "node:70993297",
      "name": "Loreto Aprutino",
      "lat": 42.434634,
      "lon": 13.9832322,
      "type": "core",
      "visibility": "chicca",
      "tags": [
        "gfoss_id=5883",
        "name=Loreto Aprutino",
        "place=town",
        "population=7123",
        "source=geodati.gfoss.it",
        "source:population=ISTAT",
        "wikidata=Q51369",
        "wikipedia=it:Loreto Aprutino"
      ],
      "score": 22
    },
    {
      "id": "node:70993325",
      "name": "Cepagatti",
      "lat": 42.3643016,
      "lon": 14.0717952,
      "type": "core",
      "visibility": "chicca",
      "tags": [
        "gfoss_id=5873",
        "name=Cepagatti",
        "place=town",
        "population=10887",
        "source=geodati.gfoss.it",
        "wikidata=Q51355",
        "wikipedia=it:Cepagatti"
      ],
      "score": 22
    },
    {
      "id": "node:70993435",
      "name": "Popoli Terme",
      "lat": 42.1713106,
      "lon": 13.832817,
      "type": "core",
      "visibility": "chicca",
      "tags": [
        "gfoss_id=5895",
        "name=Popoli Terme",
        "old_name=Popoli",
        "place=town",
        "population=5566",
        "source=geodati.gfoss.it",
        "source:name=Legge Regionale Abruzzo n. 32 del 10/7/2023",
        "wikidata=Q30029064"
      ],
      "score": 22
    },
    {
      "id": "node:70993449",
      "name": "Pianella",
      "lat": 42.3960111,
      "lon": 14.0462697,
      "type": "core",
      "visibility": "chicca",
      "tags": [
        "gfoss_id=5892",
        "name=Pianella",
        "place=town",
        "population=8633",
        "source=geodati.gfoss.it",
        "twin_town=Donnas (Aosta)",
        "wikidata=Q51378",
        "wikipedia=it:Pianella"
      ],
      "score": 22
    },
    {
      "id": "node:70993456",
      "name": "Penne",
      "lat": 42.4582153,
      "lon": 13.9273256,
      "type": "core",
      "visibility": "chicca",
      "tags": [
        "gfoss_id=5889",
        "name=Penne",
        "note=coordinates by geodati.gfoss.it",
        "place=town",
        "population=11972",
        "source=https://dati.istat.it/",
        "source:date=2021-01-01",
        "wikidata=Q51376",
        "wikipedia=it:Penne (Italia)"
      ],
      "score": 22
    },
    {
      "id": "node:70993479",
      "name": "Spoltore",
      "lat": 42.4552037,
      "lon": 14.1406198,
      "type": "core",
      "visibility": "chicca",
      "tags": [
        "gfoss_id=5903",
        "name=Spoltore",
        "place=town",
        "population=19366",
        "source=geodati.gfoss.it",
        "wikidata=Q51400"
      ],
      "score": 22
    },
    {
      "id": "node:70993483",
      "name": "Tocco da Casauria",
      "lat": 42.2142923,
      "lon": 13.9135727,
      "type": "core",
      "visibility": "chicca",
      "tags": [
        "addr:postcode=65028",
        "gfoss_id=5904",
        "name=Tocco da Casauria",
        "place=village",
        "population=2767",
        "source=geodati.gfoss.it",
        "website=https://comune.toccodacasauria.pe.it/",
        "wikidata=Q30031132",
        "wikipedia=it:Tocco da Casauria"
      ],
      "score": 22
    },
    {
      "id": "node:70993494",
      "name": "Serramonacesca",
      "lat": 42.2479944,
      "lon": 14.0934448,
      "type": "core",
      "visibility": "chicca",
      "tags": [
        "facebook=https://www.facebook.com/GFOSS.it/",
        "gfoss_id=5902",
        "name=Serramonacesca",
        "place=village",
        "population=530",
        "ref:ISTAT=068040",
        "source=ISTAT",
        "source:date=2022-01-01",
        "website=https://www.tuttitalia.it/abruzzo/38-serramonacesca/",
        "wikidata=Q51398",
        "wikipedia=it:Serramonacesca"
      ],
      "score": 22
    },
    {
      "id": "node:70993620",
      "name": "Montorio al Vomano",
      "lat": 42.5827062,
      "lon": 13.6325193,
      "type": "core",
      "visibility": "chicca",
      "tags": [
        "gfoss_id=5843",
        "name=Montorio al Vomano",
        "place=town",
        "population=8048",
        "source=geodati.gfoss.it",
        "wikidata=Q51454",
        "wikipedia=it:Montorio al Vomano"
      ],
      "score": 22
    },
    {
      "id": "node:70993632",
      "name": "Giulianova",
      "lat": 42.7535708,
      "lon": 13.9667861,
      "type": "core",
      "visibility": "chicca",
      "tags": [
        "gfoss_id=5840",
        "name=Giulianova",
        "place=town",
        "population=24050",
        "source=geodati.gfoss.it",
        "wikidata=Q51450",
        "wikipedia=it:Giulianova"
      ],
      "score": 22
    },
    {
      "id": "node:70993644",
      "name": "Silvi Marina",
      "lat": 42.5527448,
      "lon": 14.1173634,
      "type": "core",
      "visibility": "chicca",
      "tags": [
        "gfoss_id=5855",
        "name=Silvi Marina",
        "place=town",
        "source=geodati.gfoss.it",
        "twin_town=Dulcigno (Ulcinj - ME)",
        "wikidata=Q51467",
        "wikimedia_commons=Category:Silvi",
        "wikipedia=it:Silvi"
      ],
      "score": 22
    },
    {
      "id": "node:70993666",
      "name": "Martinsicuro",
      "lat": 42.8851442,
      "lon": 13.9155354,
      "type": "core",
      "visibility": "chicca",
      "tags": [
        "gfoss_id=5862",
        "name=Martinsicuro",
        "place=town",
        "population=16033",
        "source=geodati.gfoss.it",
        "wikidata=Q51452"
      ],
      "score": 22
    },
    {
      "id": "node:70993765",
      "name": "Civitella del Tronto",
      "lat": 42.773446,
      "lon": 13.672291,
      "type": "core",
      "visibility": "chicca",
      "tags": [
        "gfoss_id=5832",
        "name=Civitella del Tronto",
        "place=town",
        "population=5244",
        "source=geodati.gfoss.it",
        "wikidata=Q51440",
        "wikipedia=it:Civitella del Tronto"
      ],
      "score": 22
    },
    {
      "id": "node:70993774",
      "name": "Colledara",
      "lat": 42.5408678,
      "lon": 13.6789376,
      "type": "core",
      "visibility": "chicca",
      "tags": [
        "ele=430",
        "gfoss_id=5833",
        "name=Colledara",
        "place=village",
        "population=2199",
        "postal_code=64042",
        "source=geodati.gfoss.it",
        "website=https://italia.indettaglio.it/ita/abruzzo/colledara.html",
        "wikidata=Q51442"
      ],
      "score": 22
    },
    {
      "id": "node:70993788",
      "name": "Castelli",
      "lat": 42.48794,
      "lon": 13.711696,
      "type": "core",
      "visibility": "chicca",
      "tags": [
        "gfoss_id=5827",
        "name=Castelli",
        "place=village",
        "population=976",
        "source=geodati.gfoss.it",
        "website=https://italia.indettaglio.it/ita/abruzzo/castelli.html",
        "wikidata=Q51433",
        "wikipedia=it:Castelli (comune italiano)"
      ],
      "score": 22
    },
    {
      "id": "node:70993872",
      "name": "Cermignano",
      "lat": 42.5929123,
      "lon": 13.7973984,
      "type": "core",
      "visibility": "chicca",
      "tags": [
        "ele=563",
        "gfoss_id=5831",
        "name=Cermignano",
        "place=village",
        "population=1459",
        "source=geodati.gfoss.it",
        "website=https://italia.indettaglio.it/ita/abruzzo/cermignano.html",
        "wikidata=Q51439",
        "wikipedia=it:Cermignano"
      ],
      "score": 22
    },
    {
      "id": "node:70993880",
      "name": "Isola del Gran Sasso d'Italia",
      "lat": 42.5028216,
      "lon": 13.662039,
      "type": "core",
      "visibility": "chicca",
      "tags": [
        "check_date=2021-12-31",
        "ele=415",
        "gfoss_id=5841",
        "name=Isola del Gran Sasso d'Italia",
        "place=village",
        "population=4472",
        "source=geodati.gfoss.it",
        "website=https://www.tuttitalia.it/abruzzo/29-isola-del-gran-sasso-d-italia/statistiche/popolazione-andamento-demografico/",
        "wikidata=Q51451",
        "wikipedia=it:Isola del Gran Sasso d'Italia"
      ],
      "score": 22
    },
    {
      "id": "node:70993885",
      "name": "Mosciano Sant'Angelo",
      "lat": 42.7493491,
      "lon": 13.8880309,
      "type": "core",
      "visibility": "chicca",
      "tags": [
        "gfoss_id=5845",
        "name=Mosciano Sant'Angelo",
        "name:uk=Мошано-Сант'Анджело",
        "place=town",
        "population=9308",
        "source=geodati.gfoss.it",
        "wikidata=Q51456",
        "wikipedia=it:Mosciano Sant'Angelo"
      ],
      "score": 22
    },
    {
      "id": "node:70993891",
      "name": "Nereto",
      "lat": 42.8189452,
      "lon": 13.8160547,
      "type": "core",
      "visibility": "chicca",
      "tags": [
        "gfoss_id=5846",
        "name=Nereto",
        "place=town",
        "population=4425",
        "source=geodati.gfoss.it",
        "wikidata=Q51457",
        "wikipedia=it:Nereto"
      ],
      "score": 22
    },
    {
      "id": "node:70993912",
      "name": "Sant'Egidio alla Vibrata",
      "lat": 42.821048,
      "lon": 13.717891,
      "type": "core",
      "visibility": "chicca",
      "tags": [
        "gfoss_id=5853",
        "name=Sant'Egidio alla Vibrata",
        "place=town",
        "population=9811",
        "source=geodati.gfoss.it",
        "wikidata=Q51464",
        "wikipedia=it:Sant'Egidio alla Vibrata"
      ],
      "score": 22
    },
    {
      "id": "node:314970768",
      "name": "Val Vomano",
      "lat": 42.6074911,
      "lon": 13.7552271,
      "type": "core",
      "visibility": "chicca",
      "tags": [
        "ele=152",
        "gfoss_id=58716",
        "istat_id=6703310003",
        "name=Val Vomano",
        "place=village",
        "population=939",
        "source=Istat 2001 - geodati.gfoss.it",
        "website=https://italia.indettaglio.it/ita/abruzzo/teramo_pennasantandrea_valvomano.html",
        "wikidata=Q1895726",
        "wikipedia=it:Val Vomano"
      ],
      "score": 22
    },
    {
      "id": "node:1767923012",
      "name": "Cortino",
      "lat": 42.6223968,
      "lon": 13.5088146,
      "type": "core",
      "visibility": "chicca",
      "tags": [
        "addr:postcode=64040",
        "name=Cortino",
        "place=village",
        "population=709",
        "website=https://rete.comuni-italiani.it/wiki/Cortino",
        "wikidata=Q30025185"
      ],
      "score": 22
    },
    {
      "id": "node:3715237646",
      "name": "Pineto",
      "lat": 42.6077714,
      "lon": 14.0671028,
      "type": "core",
      "visibility": "chicca",
      "tags": [
        "name=Pineto",
        "place=town",
        "population=14904",
        "wikidata=Q51462",
        "wikipedia=it:Pineto"
      ],
      "score": 22
    },
    {
      "id": "node:3924034646",
      "name": "Scerne",
      "lat": 42.6483079,
      "lon": 14.0382574,
      "type": "core",
      "visibility": "chicca",
      "tags": [
        "check_date=2023-01-01",
        "ele=4",
        "gfoss_id=58727",
        "istat_id=6703510004",
        "name=Scerne",
        "place=village",
        "population=1982",
        "source=Istat 2001 - geodati.gfoss.it",
        "website=https://italia.indettaglio.it/ita/abruzzo/teramo_pineto_scerne.html#:~:text=Nella%20frazione%20o%20localit%C3%A0%20di,maschi%20e%20i%20restanti%20milledodici%20femmine.",
        "wikidata=Q3951830",
        "wikipedia=it:Scerne"
      ],
      "score": 22
    },
    {
      "id": "node:10768552153",
      "name": "Cusciano",
      "lat": 42.5698115,
      "lon": 13.5856032,
      "type": "core",
      "visibility": "chicca",
      "tags": [
        "ele=640",
        "name=Cusciano",
        "place=village",
        "population=127",
        "postal_code=64046",
        "website=https://italia.indettaglio.it/ita/abruzzo/teramo_montorioalvomano_cusciano.html#",
        "wikipedia=sh:Cusciano, Teramo"
      ],
      "score": 22
    },
    {
      "id": "node:12846533482",
      "name": "Centro visita del lupo",
      "lat": 42.16765,
      "lon": 13.8645476,
      "type": "core",
      "visibility": "chicca",
      "tags": [
        "addr:place=Impianezza",
        "contact:email=info@ilbosso.com",
        "contact:facebook=lupoilbosso",
        "contact:phone=+390859808009",
        "contact:website=https://www.ilbosso.com/centro-visita-del-lupo/",
        "fee=yes",
        "name=Centro visita del lupo",
        "operator=Cooperativa Il Bosso",
        "reservation=required",
        "tourism=zoo",
        "zoo=wildlife_park"
      ],
      "score": 22
    },
    {
      "id": "way:340302510",
      "name": "Domus romana",
      "lat": 42.0060342,
      "lon": 13.6251939,
      "type": "core",
      "visibility": "chicca",
      "tags": [
        "building=yes",
        "historic=archaeological_site",
        "name=Domus romana",
        "tourism=museum"
      ],
      "score": 22
    },
    {
      "id": "way:660906459",
      "name": "Bioparco Faunistico d'Abruzzo",
      "lat": 41.7317161,
      "lon": 14.0965561,
      "type": "core",
      "visibility": "chicca",
      "tags": [
        "alt_name=Zoo d'Abruzzo",
        "contact:phone=+39 0864 843162",
        "name=Bioparco Faunistico d'Abruzzo",
        "tourism=zoo",
        "wikidata=Q20008740",
        "wikipedia=it:Bioparco faunistico d'Abruzzo"
      ],
      "score": 22
    },
    {
      "id": "way:879183638",
      "name": "La Contea Gentile",
      "lat": 42.2731087,
      "lon": 14.1912706,
      "type": "core",
      "visibility": "chicca",
      "tags": [
        "contact:facebook=https://www.facebook.com/MyH0bbitLife/",
        "contact:instagram=https://www.instagram.com/laconteagentile/",
        "contact:youtube=https://www.youtube.com/channel/UCby1ZsrqKynKaUD090Lro8g",
        "email=nicolasgentile84@libero.it",
        "mobile=+39 333 257 3112",
        "name=La Contea Gentile",
        "old_name=Hobbiville",
        "operator=Nicolas Gentile",
        "tourism=theme_park",
        "website=https://www.laconteagentile.it/"
      ],
      "score": 22
    },
    {
      "id": "way:909125100",
      "name": "Il Regno dei Mazzamurelli",
      "lat": 42.2942899,
      "lon": 13.6510579,
      "type": "core",
      "visibility": "chicca",
      "tags": [
        "addr:city=San Pio delle Camere",
        "addr:postcode=67020",
        "addr:street=Strada Provinciale 8 Peltuinate",
        "name=Il Regno dei Mazzamurelli",
        "tourism=theme_park",
        "website=https://www.ilregnodeimazzamurelli.it/"
      ],
      "score": 22
    },
    {
      "id": "relation:12949872",
      "name": "Area faunistica del Lupo Appenninico (lato nord)",
      "lat": 42.2115636,
      "lon": 14.1343349,
      "type": "core",
      "visibility": "chicca",
      "tags": [
        "landcover=wood",
        "leisure=nature_reserve",
        "name=Area faunistica del Lupo Appenninico (lato nord)",
        "tourism=zoo",
        "type=multipolygon",
        "website=https://www.parcomajella.it/visita-il-parco/giardini-botanici-musei-e-aree-faunistiche/area-faunistica-lupo/"
      ],
      "score": 22
    },
    {
      "id": "relation:13022312",
      "name": "Area faunistica del Lupo Appenninico (lato sud)",
      "lat": 42.2111011,
      "lon": 14.1335855,
      "type": "core",
      "visibility": "chicca",
      "tags": [
        "landcover=wood",
        "leisure=nature_reserve",
        "name=Area faunistica del Lupo Appenninico (lato sud)",
        "tourism=zoo",
        "type=multipolygon",
        "website=https://www.parcomajella.it/visita-il-parco/giardini-botanici-musei-e-aree-faunistiche/area-faunistica-lupo/"
      ],
      "score": 22
    },
    {
      "id": "way:764637248",
      "name": "Rifugio Terraegna",
      "lat": 41.8883546,
      "lon": 13.8156764,
      "type": "core",
      "visibility": "classica",
      "tags": [
        "amenity=shelter",
        "building=yes",
        "ele=1780",
        "email=info@wildlifeadventures.it",
        "name=Rifugio Terraegna",
        "phone=+39 0863 399696",
        "reservation=required",
        "shower=yes",
        "tourism=alpine_hut",
        "website=https://www.wildlifeadventures.it",
        "winter_room=no"
      ],
      "score": 21
    },
    {
      "id": "node:1518885364",
      "name": "S. Maria della Croce",
      "lat": 42.4301637,
      "lon": 13.4824263,
      "type": "core",
      "visibility": "classica",
      "tags": [
        "historic=archaeological_site",
        "name=S. Maria della Croce",
        "wikidata=Q86580789"
      ],
      "score": 20
    },
    {
      "id": "node:2167307400",
      "name": "Ruderi dell'abbazia di Santa Maria della Vittoria",
      "lat": 42.0721126,
      "lon": 13.3570726,
      "type": "core",
      "visibility": "classica",
      "tags": [
        "historic=archaeological_site",
        "name=Ruderi dell'abbazia di Santa Maria della Vittoria",
        "wikidata=Q1775963",
        "wikipedia=it:Abbazia di Santa Maria della Vittoria"
      ],
      "score": 20
    },
    {
      "id": "node:4425522427",
      "name": "Catedrale Sanata Sabina",
      "lat": 42.005466,
      "lon": 13.6246857,
      "type": "core",
      "visibility": "classica",
      "tags": [
        "historic=ruins",
        "name=Catedrale Sanata Sabina",
        "wikidata=Q22915214"
      ],
      "score": 20
    },
    {
      "id": "node:4427484089",
      "name": "Ruderi del Castello Medievale",
      "lat": 41.7903341,
      "lon": 14.1134465,
      "type": "core",
      "visibility": "classica",
      "tags": [
        "historic=castle",
        "name=Ruderi del Castello Medievale",
        "name:it=Ruderi del Castello Medievale",
        "wikidata=Q113356516"
      ],
      "score": 20
    },
    {
      "id": "node:4493235744",
      "name": "Spiaggia dei Libertini",
      "lat": 42.1781074,
      "lon": 14.6891225,
      "type": "core",
      "visibility": "classica",
      "tags": [
        "addr:city=Vasto",
        "addr:postcode=66054",
        "addr:street=Riserva Naturale Punta Aderci",
        "name=Spiaggia dei Libertini",
        "natural=beach",
        "surface=unpaved",
        "website=https://www.puntaderci.it/la-riserva.html"
      ],
      "score": 20
    },
    {
      "id": "node:4699907209",
      "name": "Acquedotto romano di Alba Fucens",
      "lat": 42.0922594,
      "lon": 13.4246866,
      "type": "core",
      "visibility": "classica",
      "tags": [
        "historic=ruins",
        "name=Acquedotto romano di Alba Fucens",
        "wikidata=Q118558965",
        "wikipedia=it:Acquedotto romano di Alba Fucens"
      ],
      "score": 20
    },
    {
      "id": "node:4782603124",
      "name": "Palazzo Ducale",
      "lat": 42.0685564,
      "lon": 13.2503103,
      "type": "core",
      "visibility": "classica",
      "tags": [
        "historic=castle",
        "name=Palazzo Ducale",
        "wikidata=Q41030464"
      ],
      "score": 20
    },
    {
      "id": "node:5370561220",
      "name": "cartello cima Macirenelle",
      "lat": 42.1151335,
      "lon": 14.18381,
      "type": "core",
      "visibility": "classica",
      "tags": [
        "ele=1896",
        "name=cartello cima Macirenelle",
        "tourism=viewpoint",
        "website=http://www.trekking2000.it/escursioni6/Cima_delle_Macirenelle_03-11-18.htm"
      ],
      "score": 20
    },
    {
      "id": "node:6306882805",
      "name": "Cascina",
      "lat": 42.4349321,
      "lon": 13.1861355,
      "type": "core",
      "visibility": "classica",
      "tags": [
        "historic=archaeological_site",
        "name=Cascina",
        "wikidata=Q61905232",
        "wikipedia=it:Cascina (L'Aquila)"
      ],
      "score": 20
    },
    {
      "id": "node:6709828169",
      "name": "Torre e Palazzo De Felice",
      "lat": 42.3210801,
      "lon": 14.0435255,
      "type": "core",
      "visibility": "classica",
      "tags": [
        "historic=castle",
        "name=Torre e Palazzo De Felice",
        "wikidata=Q24724686",
        "wikipedia=it:Palazzo De Felice"
      ],
      "score": 20
    },
    {
      "id": "node:6805170517",
      "name": "Castello di Camarda",
      "lat": 42.3925686,
      "lon": 13.4950827,
      "type": "core",
      "visibility": "classica",
      "tags": [
        "castle_type=defensive",
        "historic=castle",
        "name=Castello di Camarda",
        "wikidata=Q50330836"
      ],
      "score": 20
    },
    {
      "id": "node:6913884158",
      "name": "Aufinum",
      "lat": 42.2817298,
      "lon": 13.7718891,
      "type": "core",
      "visibility": "classica",
      "tags": [
        "archaeological_site=settlement",
        "historic=archaeological_site",
        "historic:civilization=ancient_roman",
        "name=Aufinum",
        "wikidata=Q4820323",
        "wikipedia=it:Aufinum"
      ],
      "score": 20
    },
    {
      "id": "node:7929219960",
      "name": "Morroni di Corfinium",
      "lat": 42.1173902,
      "lon": 13.8352065,
      "type": "core",
      "visibility": "classica",
      "tags": [
        "archaeological_site=tumulus",
        "historic=archaeological_site",
        "historic:civilization=ancient_roman",
        "name=Morroni di Corfinium",
        "wikidata=Q72684238"
      ],
      "score": 20
    },
    {
      "id": "node:8111721545",
      "name": "Palazzo Farnese",
      "lat": 42.2335597,
      "lon": 13.9864869,
      "type": "core",
      "visibility": "classica",
      "tags": [
        "castle_type=palace",
        "historic=castle",
        "name=Palazzo Farnese",
        "start_date=1507",
        "website=https://www.tesoridabruzzo.com/palazzo-farnese-a-san-valentino-in-abruzzo-citeriore/"
      ],
      "score": 20
    },
    {
      "id": "node:8567945878",
      "name": "Rovine della chiesa di Santa Maria di Forfona",
      "lat": 42.3102935,
      "lon": 13.5758979,
      "type": "core",
      "visibility": "classica",
      "tags": [
        "historic=ruins",
        "historic:civilization=medieval",
        "name=Rovine della chiesa di Santa Maria di Forfona",
        "ruins=church",
        "wikidata=Q125689243"
      ],
      "score": 20
    },
    {
      "id": "node:8595090297",
      "name": "Tempio di Ercole",
      "lat": 42.5784399,
      "lon": 13.5942773,
      "type": "core",
      "visibility": "classica",
      "tags": [
        "access=no",
        "historic=ruins",
        "historic:civilization=ancient_roman",
        "name=Tempio di Ercole",
        "ruins=chapel",
        "wikidata=Q26220411",
        "wikipedia=it:Tempio di Ercole (Montorio al Vomano)"
      ],
      "score": 20
    },
    {
      "id": "node:8653327696",
      "name": "Palazzo Di Rienzo",
      "lat": 41.9039668,
      "lon": 13.8821576,
      "type": "core",
      "visibility": "classica",
      "tags": [
        "castle_type=palace",
        "historic=castle",
        "name=Palazzo Di Rienzo",
        "wikidata=Q3891601"
      ],
      "score": 20
    },
    {
      "id": "node:9351186099",
      "name": "Ruderi del castello Orsini",
      "lat": 42.0931283,
      "lon": 13.1941168,
      "type": "core",
      "visibility": "classica",
      "tags": [
        "historic=ruins",
        "historic:civilization=medieval",
        "name=Ruderi del castello Orsini",
        "ruins=castle",
        "wikidata=Q55185610"
      ],
      "score": 20
    },
    {
      "id": "node:9945133360",
      "name": "Castello di Cesura",
      "lat": 42.4146042,
      "lon": 13.2411093,
      "type": "core",
      "visibility": "classica",
      "tags": [
        "historic=ruins",
        "historic:civilization=medieval",
        "name=Castello di Cesura",
        "ruins=castle",
        "wikidata=Q106542491"
      ],
      "score": 20
    },
    {
      "id": "node:9975078106",
      "name": "Belvedere Teofilo Patini",
      "lat": 42.3256479,
      "lon": 13.6977606,
      "type": "core",
      "visibility": "classica",
      "tags": [
        "direction=153",
        "name=Belvedere Teofilo Patini",
        "name:etymology:wikipedia=it:Teofilo Patini",
        "tourism=viewpoint",
        "wikidata=Q21552346"
      ],
      "score": 20
    },
    {
      "id": "node:11123476445",
      "name": "Necropoli di Comino",
      "lat": 42.1872517,
      "lon": 14.1907029,
      "type": "core",
      "visibility": "classica",
      "tags": [
        "archaeological_site=necropolis",
        "historic=archaeological_site",
        "name=Necropoli di Comino",
        "website=https://www.viviguardiagrele.it/la-storia-e-l-arte/la-necropoli-di-comino.html"
      ],
      "score": 20
    },
    {
      "id": "node:11872736932",
      "name": "Torre di Roccapreturo",
      "lat": 42.1971717,
      "lon": 13.7020311,
      "type": "core",
      "visibility": "classica",
      "tags": [
        "castle_type=defensive",
        "description=Rovine di un antico complesso castello-recinto con torre a pianta pentagonale alta circa dieci metri",
        "historic=castle",
        "historic:civilization=medieval",
        "man_made=tower",
        "name=Torre di Roccapreturo",
        "tower:type=defensive",
        "wikidata=Q50330978"
      ],
      "score": 20
    },
    {
      "id": "node:12120045077",
      "name": "Castello di Bacucco",
      "lat": 42.5020344,
      "lon": 13.7825453,
      "type": "core",
      "visibility": "classica",
      "tags": [
        "alt_name=Castello di Arsita",
        "historic=castle",
        "historic:civilization=medieval",
        "name=Castello di Bacucco",
        "ruins=castle",
        "wikidata=Q113358964"
      ],
      "score": 20
    },
    {
      "id": "way:46792317",
      "name": "Castello Caldoresco",
      "lat": 42.1118252,
      "lon": 14.7081024,
      "type": "core",
      "visibility": "classica",
      "tags": [
        "access=private",
        "building=castle",
        "historic=castle",
        "historic:civilization=medieval",
        "layer=1",
        "name=Castello Caldoresco",
        "start_date=1427",
        "wikidata=Q3662316",
        "wikipedia=it:Castello Caldoresco"
      ],
      "score": 20
    },
    {
      "id": "way:126705553",
      "name": "Rifugio Duca degli Abruzzi",
      "lat": 42.4481251,
      "lon": 13.5519708,
      "type": "core",
      "visibility": "classica",
      "tags": [
        "addr:place=Monte Portella",
        "beds=15",
        "building=yes",
        "capacity=15",
        "check_date=2024-05-17",
        "ele=2388",
        "email=info@rifugioducadegliabruzzi.it",
        "internet_access=yes",
        "internet_access:fee=yes",
        "name=Rifugio Duca degli Abruzzi",
        "note=Alpine hut and winter emergency room closed for renovation",
        "note:it=Rifugio e locale invernale di emergenza chiusi per ristrutturazione",
        "opening_hours=Jun 01-Sep 30",
        "operator=CAI Roma",
        "phone=+39 347 5255250",
        "tourism=alpine_hut",
        "website=http://www.rifugioducadegliabruzzi.it",
        "wikidata=Q16596611",
        "wikipedia=it:Rifugio Duca degli Abruzzi (Gran Sasso)",
        "winter_room=yes"
      ],
      "score": 20
    },
    {
      "id": "way:155555045",
      "name": "Castello Ducale De Riseis - D'Aragona",
      "lat": 42.2966721,
      "lon": 14.3265797,
      "type": "core",
      "visibility": "classica",
      "tags": [
        "building=yes",
        "historic=castle",
        "name=Castello Ducale De Riseis - D'Aragona",
        "wikidata=Q3662320",
        "wikipedia=it:Castello ducale di Crecchio"
      ],
      "score": 20
    },
    {
      "id": "way:205006833",
      "name": "Castello di Salle",
      "lat": 42.1668937,
      "lon": 13.9587119,
      "type": "core",
      "visibility": "classica",
      "tags": [
        "access=private",
        "alt_name=Castello dei Conti di Genova",
        "building=yes",
        "castle_type=manor",
        "historic=castle",
        "historic:civilization=medieval",
        "name=Castello di Salle",
        "wikidata=Q3662855",
        "wikipedia=it:Castello di Salle"
      ],
      "score": 20
    },
    {
      "id": "way:230875050",
      "name": "Rocca Orsini",
      "lat": 42.0842694,
      "lon": 13.4123152,
      "type": "core",
      "visibility": "classica",
      "tags": [
        "building=ruins",
        "historic=castle",
        "name=Rocca Orsini",
        "wikidata=Q23702078"
      ],
      "score": 20
    },
    {
      "id": "way:246796782",
      "name": "Castello Don Mario del Turco",
      "lat": 42.1210169,
      "lon": 13.5177466,
      "type": "core",
      "visibility": "classica",
      "tags": [
        "historic=castle",
        "name=Castello Don Mario del Turco",
        "ruins=yes",
        "wikidata=Q124749926"
      ],
      "score": 20
    },
    {
      "id": "way:269050889",
      "name": "Palazzo de Petris Fraggianni",
      "lat": 42.2364271,
      "lon": 13.8952284,
      "type": "core",
      "visibility": "classica",
      "tags": [
        "building=historic",
        "historic=castle",
        "name=Palazzo de Petris Fraggianni",
        "wikidata=Q72694753"
      ],
      "score": 20
    },
    {
      "id": "way:333123276",
      "name": "Castello di Pagliara",
      "lat": 42.4795126,
      "lon": 13.6837408,
      "type": "core",
      "visibility": "classica",
      "tags": [
        "building=yes",
        "description=Rudere medioevale, rappresenta un importante riferimento insieme all'omonimo lago asciutto nei pressi",
        "historic=castle",
        "name=Castello di Pagliara",
        "ruins=yes",
        "wikidata=Q55185694"
      ],
      "score": 20
    },
    {
      "id": "way:336121182",
      "name": "Torre di Tione",
      "lat": 42.2030999,
      "lon": 13.6351933,
      "type": "core",
      "visibility": "classica",
      "tags": [
        "addr:city=Tione degli Abruzzi",
        "building=yes",
        "castle_type=fortress",
        "description=Torre del XIV secolo con funzione di avvistamento e difesa. Ha pianta quadrata ed è alta circa 20m. Attualmente ha funzione civica e ospita un orologio funzionante.",
        "historic=castle",
        "historic:civilization=medieval",
        "man_made=tower",
        "name=Torre di Tione",
        "tower:type=defensive",
        "wikidata=Q81514450"
      ],
      "score": 20
    },
    {
      "id": "way:336613981",
      "name": "Torre di Goriano Valli",
      "lat": 42.1895661,
      "lon": 13.6689934,
      "type": "core",
      "visibility": "classica",
      "tags": [
        "building=yes",
        "castle_type=defensive",
        "description=Torre fortificata di avvistamento e difesa. Di origine medioevale è alta circa 23m e ha pianta circolare.",
        "historic=castle",
        "man_made=tower",
        "name=Torre di Goriano Valli",
        "tower:type=defensive",
        "wikidata=Q55161533"
      ],
      "score": 20
    },
    {
      "id": "way:369553112",
      "name": "Castello Monumentale",
      "lat": 41.7583246,
      "lon": 13.9921035,
      "type": "core",
      "visibility": "classica",
      "tags": [
        "building=yes",
        "historic=castle",
        "name=Castello Monumentale",
        "wikidata=Q46259331"
      ],
      "score": 20
    },
    {
      "id": "way:438379600",
      "name": "Castello di Pescina",
      "lat": 42.0280335,
      "lon": 13.6668715,
      "type": "core",
      "visibility": "classica",
      "tags": [
        "building=yes",
        "historic=castle",
        "name=Castello di Pescina",
        "ruins=yes",
        "wikidata=Q23907590",
        "wikipedia=it:Pescina"
      ],
      "score": 20
    },
    {
      "id": "way:460359148",
      "name": "Castel Manfrino",
      "lat": 42.7474766,
      "lon": 13.589611,
      "type": "core",
      "visibility": "classica",
      "tags": [
        "access=yes",
        "building=yes",
        "castle_type=defensive",
        "historic=castle",
        "historic:civilization=medieval",
        "layer=1",
        "name=Castel Manfrino",
        "ruins=yes",
        "wikidata=Q3662108",
        "wikipedia=it:Castel Manfrino"
      ],
      "score": 20
    },
    {
      "id": "way:471891097",
      "name": "Castello Orsini-Colonna",
      "lat": 42.027584,
      "lon": 13.4258553,
      "type": "core",
      "visibility": "classica",
      "tags": [
        "addr:city=Avezzano",
        "addr:postcode=67051",
        "addr:street=Piazza Castello",
        "building=yes",
        "building:levels=2",
        "historic=castle",
        "historic:civilization=medieval",
        "name=Castello Orsini-Colonna",
        "wikidata=Q3662348",
        "wikipedia=it:Castello Orsini-Colonna"
      ],
      "score": 20
    },
    {
      "id": "way:475520958",
      "name": "Castello di Morrea",
      "lat": 41.8529791,
      "lon": 13.5130067,
      "type": "core",
      "visibility": "classica",
      "tags": [
        "addr:city=Morrea",
        "addr:postcode=67050",
        "addr:street=Via Castello",
        "building=yes",
        "historic=castle",
        "name=Castello di Morrea",
        "wikidata=Q46262234"
      ],
      "score": 20
    },
    {
      "id": "way:496333427",
      "name": "Palazzo Cricchi",
      "lat": 42.3524235,
      "lon": 13.4003403,
      "type": "core",
      "visibility": "classica",
      "tags": [
        "access=yes",
        "addr:city=L'Aquila",
        "addr:housenumber=158",
        "addr:postcode=67100",
        "addr:street=Corso Vittorio Emanuele",
        "alt_name=Palazzo Cricchi-Ciuffini-Volpe",
        "alt_name_1=Palazzo Rosati",
        "building=yes",
        "castle_type=stately",
        "historic=castle",
        "name=Palazzo Cricchi",
        "wikidata=Q24942474",
        "wikipedia=it:Palazzo Cricchi"
      ],
      "score": 20
    },
    {
      "id": "way:496701969",
      "name": "Palazzo Branconio",
      "lat": 42.3540413,
      "lon": 13.3966066,
      "type": "core",
      "visibility": "classica",
      "tags": [
        "addr:city=L'Aquila",
        "addr:postcode=67100",
        "addr:street=Piazza San Silvestro",
        "building=yes",
        "castle_type=stately",
        "historic=castle",
        "name=Palazzo Branconio",
        "wikidata=Q47508989",
        "wikipedia=it:Palazzo Branconio"
      ],
      "score": 20
    },
    {
      "id": "way:501738250",
      "name": "Palazzo Persichetti",
      "lat": 42.3499115,
      "lon": 13.3948496,
      "type": "core",
      "visibility": "classica",
      "tags": [
        "access=yes",
        "building=yes",
        "castle_type=stately",
        "historic=castle",
        "name=Palazzo Persichetti",
        "wikidata=Q55165774",
        "wikipedia=it:Palazzo Persichetti"
      ],
      "score": 20
    },
    {
      "id": "way:503172319",
      "name": "Palazzo Pietropaoli",
      "lat": 42.3512879,
      "lon": 13.3954369,
      "type": "core",
      "visibility": "classica",
      "tags": [
        "building=yes",
        "castle_type=stately",
        "historic=castle",
        "name=Palazzo Pietropaoli",
        "wikidata=Q65029014"
      ],
      "score": 20
    },
    {
      "id": "way:584335005",
      "name": "Palazzo Farnese",
      "lat": 42.3554253,
      "lon": 14.404129,
      "type": "core",
      "visibility": "classica",
      "tags": [
        "building=yes",
        "castle_type=palace",
        "historic=castle",
        "name=Palazzo Farnese",
        "start_date=1586",
        "wikidata=Q3890087",
        "wikipedia=it:Palazzo Farnese (Ortona)"
      ],
      "score": 20
    },
    {
      "id": "way:659770639",
      "name": "Castello Ducale Bassi-D'Alanno",
      "lat": 42.01037,
      "lon": 14.5031241,
      "type": "core",
      "visibility": "classica",
      "tags": [
        "addr:city=Carpineto Sinello",
        "building=yes",
        "historic=castle",
        "name=Castello Ducale Bassi-D'Alanno",
        "wikidata=Q3662974",
        "wikipedia=it:Castello ducale di Carpineto Sinello"
      ],
      "score": 20
    },
    {
      "id": "way:741244884",
      "name": "Palazzo Sidoni",
      "lat": 42.2942106,
      "lon": 13.6304174,
      "type": "core",
      "visibility": "classica",
      "tags": [
        "building=yes",
        "castle_type=stately",
        "historic=castle",
        "name=Palazzo Sidoni",
        "start_date=C18",
        "wikidata=Q98703272"
      ],
      "score": 20
    },
    {
      "id": "way:758086443",
      "name": "Palazzo baronale",
      "lat": 42.0915004,
      "lon": 14.3808424,
      "type": "core",
      "visibility": "classica",
      "tags": [
        "alt_name=Castello Lannutti",
        "building=historic",
        "castle_type=defensive",
        "historic=castle",
        "name=Palazzo baronale",
        "ruins=yes",
        "wikidata=Q3891136",
        "wikipedia=it:Palazzo baronale (Archi)"
      ],
      "score": 20
    },
    {
      "id": "way:823872916",
      "name": "Castello di Monteodorisio",
      "lat": 42.0862252,
      "lon": 14.6508317,
      "type": "core",
      "visibility": "classica",
      "tags": [
        "building=yes",
        "historic=castle",
        "name=Castello di Monteodorisio",
        "wikidata=Q3662739",
        "wikipedia=it:Castello di Monteodorisio"
      ],
      "score": 20
    },
    {
      "id": "way:839959247",
      "name": "Palazzo Fanzago",
      "lat": 41.8900232,
      "lon": 14.0656895,
      "type": "core",
      "visibility": "classica",
      "tags": [
        "building=yes",
        "castle_type=palace",
        "historic=castle",
        "name=Palazzo Fanzago",
        "wikidata=Q3890079"
      ],
      "score": 20
    },
    {
      "id": "way:844611715",
      "name": "Spiaggia Libera Tutti",
      "lat": 42.4451674,
      "lon": 14.2533587,
      "type": "core",
      "visibility": "classica",
      "tags": [
        "lifeguard=yes",
        "name=Spiaggia Libera Tutti",
        "natural=beach",
        "supervised=yes",
        "surface=sand",
        "website=https://www.arcipescara.org/spiaggia-libera-tutti/"
      ],
      "score": 20
    },