{
  "region_id": "it-basilicata",
  "label_it": "Basilicata • core",
  "generated_at": "2026-01-15T08:16:19.606Z",
  "places": [
    {
      "id": "way:23603347",
      "name": "Lago Grande",
      "lat": 40.9311946,
      "lon": 15.6050974,
      "type": "core",
      "visibility": "chicca",
      "tags": [
        "alt_name=Laghi di Monticchio (Lago Grande)",
        "name=Lago Grande",
        "natural=water",
        "water=lake",
        "wikidata=Q56258568"
      ],
      "score": 36
    },
    {
      "id": "way:23603348",
      "name": "Lago Piccolo",
      "lat": 40.9329238,
      "lon": 15.6129573,
      "type": "core",
      "visibility": "chicca",
      "tags": [
        "alt_name=Laghi di Monticchio (Lago Piccolo)",
        "name=Lago Piccolo",
        "natural=water",
        "water=lake",
        "wikidata=Q56258569"
      ],
      "score": 36
    },
    {
      "id": "way:69488894",
      "name": "Lago del Pertusillo",
      "lat": 40.2821697,
      "lon": 15.9546409,
      "type": "core",
      "visibility": "chicca",
      "tags": [
        "name=Lago del Pertusillo",
        "natural=water",
        "source=Portale Cartografico Nazionale",
        "water=lake",
        "wikidata=Q3826016",
        "wikipedia=it:Lago di Pietra del Pertusillo"
      ],
      "score": 36
    },
    {
      "id": "way:70083562",
      "name": "Parco archeologico Metaponto",
      "lat": 40.3834016,
      "lon": 16.8247397,
      "type": "core",
      "visibility": "chicca",
      "tags": [
        "access=yes",
        "archaeological_site=city",
        "email=sba-bas.metapontomuseo@beniculturali.it",
        "historic=archaeological_site",
        "historic:civilization=ancient_greek",
        "historic:period=archaic_greece",
        "name=Parco archeologico Metaponto",
        "name:el=Μεταπόντιο",
        "opening_hours=Mo 14:00-(sunset-1:00); Tu-Su 09:00-(sunset-1:00)",
        "phone=+39 0835 745327",
        "start_date=700 BC",
        "tourism=attraction",
        "website=http://musei.beniculturali.it/musei?mid=325&nome=parco-archeologico-dellarea-urbana",
        "wikidata=Q1058770",
        "wikipedia=it:Metaponto (sito archeologico)"
      ],
      "score": 36
    },
    {
      "id": "way:70417051",
      "name": "Lago del Pantano di Pignola",
      "lat": 40.5887462,
      "lon": 15.7474763,
      "type": "core",
      "visibility": "chicca",
      "tags": [
        "alt_name=Lago Pantano di Pignola",
        "name=Lago del Pantano di Pignola",
        "natural=water",
        "water=lake",
        "wikidata=Q55423214"
      ],
      "score": 36
    },
    {
      "id": "way:107829170",
      "name": "Sito archeologico \"Torre di Satriano\"",
      "lat": 40.5688832,
      "lon": 15.6383083,
      "type": "core",
      "visibility": "chicca",
      "tags": [
        "archaeological_site=settlement",
        "email=associazionememoria@gmail.com",
        "historic=archaeological_site",
        "historic:civilization=medieval",
        "name=Sito archeologico \"Torre di Satriano\"",
        "opening_hours=Sa-Su 10:00-13:00,17:00-19:00",
        "phone=+393294588795",
        "tourism=attraction",
        "website=http://www.torresatriano.it/",
        "wikidata=Q3950804",
        "wikipedia=it:Satrianum"
      ],
      "score": 36
    },
    {
      "id": "way:144699890",
      "name": "Lago Sirino",
      "lat": 40.0924511,
      "lon": 15.808333,
      "type": "core",
      "visibility": "chicca",
      "tags": [
        "name=Lago Sirino",
        "natural=water",
        "water=lake",
        "wikidata=Q3825790",
        "wikipedia=it:Lago Sirino"
      ],
      "score": 36
    },
    {
      "id": "way:165076913",
      "name": "Lago Remmo (Lago Laudemio)",
      "lat": 40.1432722,
      "lon": 15.8367168,
      "type": "core",
      "visibility": "chicca",
      "tags": [
        "name=Lago Remmo (Lago Laudemio)",
        "natural=water",
        "water=lake",
        "wikidata=Q3825765",
        "wikipedia=it:Lago Remmo"
      ],
      "score": 36
    },
    {
      "id": "way:235601585",
      "name": "Lago Moretta",
      "lat": 40.6727695,
      "lon": 15.6744993,
      "type": "core",
      "visibility": "chicca",
      "tags": [
        "alt_name=Lago Scuro",
        "name=Lago Moretta",
        "natural=water",
        "water=lake",
        "wikidata=Q56479911"
      ],
      "score": 36
    },
    {
      "id": "relation:14561416",
      "name": "Castel Lagopesole",
      "lat": 40.8072119,
      "lon": 15.7331126,
      "type": "core",
      "visibility": "chicca",
      "tags": [
        "building=yes",
        "historic=castle",
        "name=Castel Lagopesole",
        "opening_hours=May 01-Sep 30: Mo-Su 09:30-13:00,16:00-19:00; Oct 01-Apr 30: Mo-Su 09:30-13:00,15:00-17:00; Jan 01,02,Dec 24-26,31 off",
        "phone=+39 0971 86083",
        "source=bing",
        "tourism=attraction",
        "type=multipolygon",
        "website=https://www.castellodilagopesole.com/",
        "wikidata=Q3662646",
        "wikimedia_commons=Category:Castello di Lagopesole",
        "wikipedia=it:Castello di Lagopesole"
      ],
      "score": 36
    },
    {
      "id": "relation:16146640",
      "name": "Invaso del Locone",
      "lat": 41.0769426,
      "lon": 15.9966936,
      "type": "core",
      "visibility": "chicca",
      "tags": [
        "name=Invaso del Locone",
        "natural=water",
        "type=multipolygon",
        "water=lake",
        "wikidata=Q3825719",
        "wikipedia=it:Lago Locone"
      ],
      "score": 36
    },
    {
      "id": "node:3989955325",
      "name": "Cripta del Peccato Originale",
      "lat": 40.6206668,
      "lon": 16.5634234,
      "type": "core",
      "visibility": "chicca",
      "tags": [
        "building=cave",
        "historic=archaeological_site",
        "name=Cripta del Peccato Originale",
        "tourism=attraction",
        "website=https://www.criptadelpeccatooriginale.it/",
        "wikidata=Q50880532",
        "wikipedia=it:Cripta del Peccato Originale"
      ],
      "score": 34
    },
    {
      "id": "way:33887449",
      "name": "Santuario di Hera (Tavole Palatine)",
      "lat": 40.4160624,
      "lon": 16.8167302,
      "type": "core",
      "visibility": "chicca",
      "tags": [
        "access=yes",
        "alt_name=Tavole Palatine",
        "archaeological_site=temple",
        "building=temple",
        "fee=no",
        "historic=archaeological_site",
        "historic:civilization=ancient_greek",
        "historic:period=classical_greece",
        "name=Santuario di Hera (Tavole Palatine)",
        "name:el=Ναός της Ήρας",
        "start_date=C5 BC",
        "tourism=attraction",
        "website=https://museometaponto.beniculturali.it/tempio-delle-tavole-palatine/",
        "wikidata=Q3981620",
        "wikipedia=it:Tavole Palatine"
      ],
      "score": 34
    },
    {
      "id": "way:184405903",
      "name": "Castello di Monteserico",
      "lat": 40.8546305,
      "lon": 16.1514146,
      "type": "core",
      "visibility": "chicca",
      "tags": [
        "access=permissive",
        "building=yes",
        "historic=castle",
        "historic:civilization=medieval",
        "name=Castello di Monteserico",
        "tourism=attraction",
        "website=https://www.beniculturali.it/mibac/export/MiBAC/sito-MiBAC/Contenuti/MibacUnif/Eventi/visualizza_asset.html_2113907389.html",
        "wikidata=Q21545987",
        "wikipedia=it:Castello di Monteserico"
      ],
      "score": 34
    },
    {
      "id": "relation:10951071",
      "name": "Palatium Regium",
      "lat": 40.932633,
      "lon": 15.9894418,
      "type": "core",
      "visibility": "chicca",
      "tags": [
        "building=yes",
        "castle_type=manor",
        "historic=castle",
        "name=Palatium Regium",
        "tourism=attraction",
        "type=multipolygon",
        "website=https://fondoambiente.it/luoghi/castello-marchesale-di-palazzo-san-gervasio?ldc",
        "wikidata=Q67130928",
        "wikipedia=it:Castello marchesale (Palazzo San Gervasio)"
      ],
      "score": 34
    },
    {
      "id": "way:71257153",
      "name": "Lago di Gannano",
      "lat": 40.2972088,
      "lon": 16.4567827,
      "type": "core",
      "visibility": "chicca",
      "tags": [
        "name=Lago di Gannano",
        "natural=water",
        "water=lake"
      ],
      "score": 32
    },
    {
      "id": "way:235601586",
      "name": "Lago Romito",
      "lat": 40.6659393,
      "lon": 15.6923071,
      "type": "core",
      "visibility": "chicca",
      "tags": [
        "name=Lago Romito",
        "natural=water",
        "water=lake"
      ],
      "score": 32
    },
    {
      "id": "way:328674178",
      "name": "da definire - stagno?",
      "lat": 40.0293956,
      "lon": 15.8582908,
      "type": "core",
      "visibility": "chicca",
      "tags": [
        "name=da definire - stagno?",
        "natural=water",
        "water=lake"
      ],
      "score": 32
    },
    {
      "id": "way:513260774",
      "name": "Lago Ricciardule",
      "lat": 39.9529159,
      "lon": 16.2387736,
      "type": "core",
      "visibility": "chicca",
      "tags": [
        "name=Lago Ricciardule",
        "natural=water",
        "water=lake"
      ],
      "score": 32
    },
    {
      "id": "way:1069855961",
      "name": "Lago Araneo",
      "lat": 41.01525,
      "lon": 15.6062541,
      "type": "core",
      "visibility": "chicca",
      "tags": [
        "intermittent=no",
        "name=Lago Araneo",
        "natural=water",
        "salt=no",
        "tidal=no",
        "water=lake"
      ],
      "score": 32
    },
    {
      "id": "node:508495669",
      "name": "Rovine Abbazia di Sant'Ippolito",
      "lat": 40.9332772,
      "lon": 15.6096491,
      "type": "core",
      "visibility": "chicca",
      "tags": [
        "historic=ruins",
        "historic:civilization=medieval",
        "name=Rovine Abbazia di Sant'Ippolito",
        "religion=christian",
        "ruins=monastery",
        "tourism=attraction",
        "website=https://www.parcovulture.it/it/turismo/architettura-storica/255-la-badia-di-sant-ippolito.html#:~:text=Sull'istmo%2C%20tra%20il%20Lago,periodo%20successivo%2C%20la%20torre%20campanaria."
      ],
      "score": 30
    },
    {
      "id": "node:9887520834",
      "name": "Matera",
      "lat": 40.667029,
      "lon": 16.6063265,
      "type": "core",
      "visibility": "chicca",
      "tags": [
        "capital=6",
        "name=Matera",
        "name:ar=ماتيرا",
        "name:el=Ματέρα",
        "name:fa=ماترا",
        "name:ko=마테라",
        "name:mk=Матера",
        "name:ru=Матера",
        "name:uk=Матера",
        "name:ur=ماتیرا",
        "name:zh=马泰拉",
        "photo=https://www.flickr.com/gp/190390436@N05/5vKu57E8X7",
        "place=city",
        "population=59607",
        "postal_code=75100",
        "website=https://www.comune.matera.it/",
        "wikidata=Q13616",
        "wikipedia=it:Matera"
      ],
      "score": 30
    },
    {
      "id": "way:243684879",
      "name": "Villaggio Saraceno",
      "lat": 40.6167064,
      "lon": 16.6553218,
      "type": "core",
      "visibility": "chicca",
      "tags": [
        "historic=ruins",
        "name=Villaggio Saraceno",
        "tourism=attraction",
        "wheelchair=no",
        "wikidata=Q16621650",
        "wikipedia=it:Villaggio Saraceno"
      ],
      "score": 30
    },
    {
      "id": "way:434332005",
      "name": "Pomarico Vecchio",
      "lat": 40.4652758,
      "lon": 16.5770213,
      "type": "core",
      "visibility": "chicca",
      "tags": [
        "archaeological_site=settlement",
        "historic=archaeological_site",
        "landuse=grass",
        "name=Pomarico Vecchio",
        "ric:civilization=ancient_greek",
        "tourism=attraction",
        "wikidata=Q124213352"
      ],
      "score": 30
    },
    {
      "id": "way:1445839167",
      "name": "Castello di Moliterno",
      "lat": 40.2409586,
      "lon": 15.8715052,
      "type": "core",
      "visibility": "chicca",
      "tags": [
        "barrier=wall",
        "castle_type=fortress",
        "historic=castle",
        "name=Castello di Moliterno",
        "tourism=attraction",
        "wikidata=Q108139066"
      ],
      "score": 30
    },
    {
      "id": "relation:6459788",
      "name": "Castello",
      "lat": 40.4031428,
      "lon": 16.6880222,
      "type": "core",
      "visibility": "chicca",
      "tags": [
        "castle_type=defensive",
        "historic=castle",
        "name=Castello",
        "tourism=attraction",
        "type=multipolygon",
        "wikidata=Q3662486"
      ],
      "score": 30
    },
    {
      "id": "node:67280322",
      "name": "Potenza",
      "lat": 40.6384046,
      "lon": 15.8022077,
      "type": "core",
      "visibility": "chicca",
      "tags": [
        "capital=4",
        "gfoss_id=6417",
        "name=Potenza",
        "name:ar=بوتنسا",
        "name:el=Ποτέντσα",
        "name:fa=پوتنزا",
        "name:ko=포텐차",
        "name:ml=പൊറ്റെൻസ",
        "name:ru=Потенца",
        "name:uk=Потенца",
        "name:zh=波坦察",
        "place=city",
        "population=67122",
        "source=geodati.gfoss.it",
        "wikidata=Q3543",
        "wikipedia=it:Potenza (Italia)"
      ],
      "score": 26
    },
    {
      "id": "node:67281259",
      "name": "Rionero in Vulture",
      "lat": 40.9261881,
      "lon": 15.6694407,
      "type": "core",
      "visibility": "chicca",
      "tags": [
        "contact:facebook=https://www.facebook.com/comunedirioneroinvulture/",
        "gfoss_id=6420",
        "name=Rionero in Vulture",
        "place=town",
        "population=13230",
        "source=geodati.gfoss.it",
        "website=http://www.comune.rioneroinvulture.pz.it/",
        "wikidata=Q52646",
        "wikimedia_commons=Category:Rionero in Vulture",
        "wikipedia=it:Rionero in Vulture"
      ],
      "score": 26
    },
    {
      "id": "node:2511270027",
      "name": "San Nicola all'Ofra",
      "lat": 40.6403032,
      "lon": 16.6348206,
      "type": "core",
      "visibility": "chicca",
      "tags": [
        "historic=archaeological_site",
        "name=San Nicola all'Ofra",
        "tourism=attraction"
      ],
      "score": 26
    },
    {
      "id": "node:8002530452",
      "name": "Melfi",
      "lat": 40.9961268,
      "lon": 15.6556545,
      "type": "core",
      "visibility": "chicca",
      "tags": [
        "contact:facebook=https://it-it.facebook.com/comunemelfi/",
        "contact:telegram=https://t.me/ComuneMelfiBot",
        "contact:youtube=https://www.youtube.com/channel/UCVjSnGg4bIBFBRYkn5g3k9Q",
        "gfoss_id=6402",
        "name=Melfi",
        "name:it=Melfi",
        "name:la=Melphis",
        "place=town",
        "population=17767",
        "website=https://www.comune.melfi.pz.it",
        "wikidata=Q30565",
        "wikimedia_commons=Category:Melfi",
        "wikipedia=it:Melfi"
      ],
      "score": 26
    },
    {
      "id": "way:386531213",
      "name": "Palazzo Ducale",
      "lat": 40.7476528,
      "lon": 15.8812607,
      "type": "core",
      "visibility": "chicca",
      "tags": [
        "building=yes",
        "historic=castle",
        "name=Palazzo Ducale",
        "tourism=attraction"
      ],
      "score": 26
    },
    {
      "id": "way:435106070",
      "name": "Altojanni",
      "lat": 40.6602483,
      "lon": 16.3497243,
      "type": "core",
      "visibility": "chicca",
      "tags": [
        "historic=archaeological_site",
        "landuse=grass",
        "name=Altojanni",
        "tourism=attraction"
      ],
      "score": 26
    },
    {
      "id": "way:967609909",
      "name": "Ruderi del Castello Normanno",
      "lat": 40.5278615,
      "lon": 16.3158757,
      "type": "core",
      "visibility": "chicca",
      "tags": [
        "building=yes",
        "historic=ruins",
        "name=Ruderi del Castello Normanno",
        "tourism=attraction"
      ],
      "score": 26
    },
    {
      "id": "relation:6441853",
      "name": "Palazzo Marchesale Donnaperna",
      "lat": 40.5169853,
      "lon": 16.5473523,
      "type": "core",
      "visibility": "chicca",
      "tags": [
        "building=yes",
        "castle_type=stately",
        "historic=castle",
        "name=Palazzo Marchesale Donnaperna",
        "tourism=attraction",
        "type=multipolygon"
      ],
      "score": 26
    },
    {
      "id": "node:2510639051",
      "name": "Chiesa Rupestre Madonna di Monteverde",
      "lat": 40.6700792,
      "lon": 16.6153605,
      "type": "core",
      "visibility": "chicca",
      "tags": [
        "archaeological_site=church",
        "building=cave",
        "denomination=catholic",
        "historic=archaeological_site",
        "historic:civilization=medieval",
        "name=Chiesa Rupestre Madonna di Monteverde",
        "website=https://www.basilicataturistica.it/scopri-la-basilicata/matera-patrimonio-mondiale-dellumanita/le-chiese-di-matera/le-chiese-rupestri-di-matera/?privacy=updated",
        "wikidata=Q16481798",
        "wikimedia_commons=Category:Cave churches in Matera",
        "wikipedia=it:Chiese rupestri di Matera"
      ],
      "score": 24
    },
    {
      "id": "node:2648242439",
      "name": "Chisa ruprestre santuario Madonna delle Tre Porte",
      "lat": 40.663199,
      "lon": 16.6170312,
      "type": "core",
      "visibility": "chicca",
      "tags": [
        "access=no",
        "archaeological_site=church",
        "historic=archaeological_site",
        "historic:civilization=medieval",
        "name=Chisa ruprestre santuario Madonna delle Tre Porte",
        "website=https://www.parcomurgia.it/",
        "wikidata=Q16600429",
        "wikipedia=it:Santuario della Madonna delle Tre Porte"
      ],
      "score": 24
    },
    {
      "id": "node:4435891347",
      "name": "Chiesa Rupestre Madonna degli Angeli",
      "lat": 40.6698683,
      "lon": 16.6132183,
      "type": "core",
      "visibility": "chicca",
      "tags": [
        "archaeological_site=church",
        "building=cave",
        "denomination=catholic",
        "historic=archaeological_site",
        "historic:civilization=medieval",
        "name=Chiesa Rupestre Madonna degli Angeli",
        "website=https://www.isassidimatera.com/cosa-vedere/chiese-rupestri/madonna-degli-angeli/",
        "wikidata=Q17624778",
        "wikipedia=it:Chiesa della Madonna degli Angeli (Matera)"
      ],
      "score": 24
    },
    {
      "id": "way:88078191",
      "name": "Castello Pirro del Balzo Orsini",
      "lat": 40.9610983,
      "lon": 15.8182578,
      "type": "core",
      "visibility": "chicca",
      "tags": [
        "alt_name=Castello Aragonese",
        "building=yes",
        "castle_type=defensive",
        "historic=castle",
        "name=Castello Pirro del Balzo Orsini",
        "website=https://www.basilicataturistica.it/scopri-la-basilicata/arte-e-cultura-in-basilicata/castelli-della-basilicata/il-castello-di-venosa/",
        "wikidata=Q3662305",
        "wikimedia_commons=Category:Castello di Venosa",
        "wikipedia=it:Castello Aragonese (Venosa)"
      ],
      "score": 24
    },
    {
      "id": "way:216895891",
      "name": "Castello Tramontano",
      "lat": 40.6639291,
      "lon": 16.6059173,
      "type": "core",
      "visibility": "chicca",
      "tags": [
        "access=no",
        "addr:postcode=75100",
        "addr:street=Via Castello",
        "building=yes",
        "building:colour=#d6bd94",
        "building:levels=3",
        "building:material=gravel",
        "castle_type=defensive",
        "historic=castle",
        "name=Castello Tramontano",
        "roof:colour=#c9be93",
        "roof:material=roof_tiles",
        "start_date=1501",
        "website=https://www.isassidimatera.com/cosa-vedere/nelle-vicinanze/castello-tramontano/",
        "wheelchair=no",
        "wikidata=Q2968007",
        "wikimedia_commons=Category:Castello Tramontano in Matera",
        "wikipedia=it:Castello Tramontano"
      ],
      "score": 24
    },
    {
      "id": "way:260316838",
      "name": "Castello di Pietrapertosa",
      "lat": 40.5210802,
      "lon": 16.0611889,
      "type": "core",
      "visibility": "chicca",
      "tags": [
        "historic=castle",
        "name=Castello di Pietrapertosa",
        "note:it=Non correggere in base alle foto Bing, perchè sono deformate",
        "website=https://www.comune.pietrapertosa.pz.it/it/item.asp?nav=castello",
        "wikidata=Q34492414"
      ],
      "score": 24
    },
    {
      "id": "node:67280349",
      "name": "Montescaglioso",
      "lat": 40.552221,
      "lon": 16.666887,
      "type": "core",
      "visibility": "chicca",
      "tags": [
        "gfoss_id=6471",
        "name=Montescaglioso",
        "place=village",
        "population=9940",
        "postal_code=75024",
        "source=geodati.gfoss.it",
        "website=http://www.comune.montescaglioso.mt.it/",
        "wikipedia=it:Montescaglioso"
      ],
      "score": 22
    },
    {
      "id": "node:67280360",
      "name": "Pisticci",
      "lat": 40.3905273,
      "lon": 16.5567323,
      "type": "core",
      "visibility": "chicca",
      "tags": [
        "gfoss_id=6474",
        "name=Pisticci",
        "name:ru=Пистиччи",
        "place=town",
        "population=17768",
        "wikidata=Q52326"
      ],
      "score": 22
    },
    {
      "id": "node:67280416",
      "name": "Policoro",
      "lat": 40.2104595,
      "lon": 16.6763759,
      "type": "core",
      "visibility": "chicca",
      "tags": [
        "gfoss_id=6475",
        "name=Policoro",
        "place=town",
        "population=17313",
        "source=geodati.gfoss.it",
        "wikidata=Q52327"
      ],
      "score": 22
    },
    {
      "id": "node:67280505",
      "name": "Barile",
      "lat": 40.946322,
      "lon": 15.67266,
      "type": "core",
      "visibility": "chicca",
      "tags": [
        "gfoss_id=6365",
        "name=Barile",
        "name:aae=Barilli",
        "name:it=Barile",
        "place=village",
        "population=3229",
        "source=geodati.gfoss.it",
        "website=http://www.comune.barile.pz.it",
        "wikidata=Q52530",
        "wikimedia_commons=Category:Barile",
        "wikipedia=it:Barile (Italia)"
      ],
      "score": 22
    },
    {
      "id": "node:67280519",
      "name": "Avigliano",
      "lat": 40.7314363,
      "lon": 15.71743,
      "type": "core",
      "visibility": "chicca",
      "tags": [
        "gfoss_id=6361",
        "name=Avigliano",
        "place=town",
        "population=11577",
        "source=geodati.gfoss.it",
        "wikidata=Q52519",
        "wikipedia=it:Avigliano"
      ],
      "score": 22
    },
    {
      "id": "node:67280603",
      "name": "Fardella",
      "lat": 40.113809,
      "lon": 16.169782,
      "type": "core",
      "visibility": "chicca",
      "tags": [
        "ele=745",
        "fax=+39 0973 572003",
        "gfoss_id=6385",
        "name=Fardella",
        "phone=+39 0973 572051",
        "place=village",
        "population=576",
        "population:date=2025-09-30",
        "postal_code=85030",
        "source=geodati.gfoss.it",
        "source:population=wikipedia",
        "website=https://www.comune.fardella.pz.it/",
        "wikidata=Q52568",
        "wikipedia=it:Fardella"
      ],
      "score": 22
    },
    {
      "id": "node:67280745",
      "name": "Rapolla",
      "lat": 40.975723,
      "lon": 15.67126,
      "type": "core",
      "visibility": "chicca",
      "tags": [
        "contact:facebook=https://www.facebook.com/ComuneRapolla/",
        "contact:youtube=https://www.youtube.com/channel/UCCR8EuuqrnEXSHtSX6DqIjg",
        "gfoss_id=6418",
        "name=Rapolla",
        "place=village",
        "population=4648",
        "source=geodati.gfoss.it",
        "website=https://www.comune.rapolla.pz.it/",
        "wikidata=Q52644",
        "wikimedia_commons=Category:Rapolla",
        "wikipedia=it:Rapolla"
      ],
      "score": 22
    },
    {
      "id": "node:2655228149",
      "name": "Area archeologica di Rossano di Vaglio",
      "lat": 40.6909945,
      "lon": 15.9478131,
      "type": "core",
      "visibility": "chicca",
      "tags": [
        "access=yes",
        "archaeological_site=sanctuary",
        "historic=archaeological_site",
        "historic:civilization=ancient_roman",
        "name=Area archeologica di Rossano di Vaglio",
        "opening_hours=Jun-Aug: Mo-Su 09:30-13:30,15:30-18:30",
        "phone=+39 347 2736594",
        "website=https://www.beniculturali.it/mibac/opencms/MiBAC/sito-MiBAC/Luogo/MibacUnif/Luoghi-della-Cultura/visualizza_asset.html?id=154929&pagename=57"
      ],
      "score": 22
    },
    {
      "id": "node:2663786391",
      "name": "Abriola",
      "lat": 40.5074284,
      "lon": 15.8147487,
      "type": "core",
      "visibility": "chicca",
      "tags": [
        "gfoss_id=6355",
        "name=Abriola",
        "place=village",
        "population=1542",
        "source=geodati.gfoss.it",
        "website=http://www.abriola.eu/",
        "wikidata=Q52510",
        "wikipedia=it:Abriola"
      ],
      "score": 22
    },
    {
      "id": "node:2678811360",
      "name": "Micromondo, parco tematico sulla geologia",
      "lat": 40.0920452,
      "lon": 15.8073709,
      "type": "core",
      "visibility": "chicca",
      "tags": [
        "name=Micromondo, parco tematico sulla geologia",
        "tourism=theme_park",
        "website=https://ilmicromondo.com/"
      ],
      "score": 22
    },
    {
      "id": "way:1230382101",
      "name": "Acquazzurra",
      "lat": 40.3764465,
      "lon": 16.7846266,
      "type": "core",
      "visibility": "chicca",
      "tags": [
        "contact:facebook=https://www.facebook.com/acquazzurrapark/",
        "contact:instagram=https://www.instagram.com/acquapark_acquazzurra/",
        "contact:whatsapp=+39 3668096318",
        "contact:youtube=https://youtube.com/@AcquazzurraAcquapark?si=2ixNtqCXkFv810cm",
        "email=acquazzurrapark@hotmail.it",
        "leisure=water_park",
        "name=Acquazzurra",
        "phone=+39 0835 745640",
        "website=https://www.acquazzurrapark.net/"
      ],
      "score": 22
    },
    {
      "id": "node:304848354",
      "name": "Belvedere di Murgia Timone",
      "lat": 40.6640264,
      "lon": 16.6177932,
      "type": "core",
      "visibility": "classica",
      "tags": [
        "description=Panorama sui Sassi di Matera",
        "name=Belvedere di Murgia Timone",
        "tourism=viewpoint",
        "wikidata=Q3895535",
        "wikipedia=it:Parco della Murgia Materana"
      ],
      "score": 20
    },
    {
      "id": "node:1590376398",
      "name": "Punto Panoramico \"Piazza Duomo\"",
      "lat": 40.6666653,
      "lon": 16.6108288,
      "type": "core",
      "visibility": "classica",
      "tags": [
        "addr:street=Piazza Duomo",
        "description=Il punto panoramico si trova in piena piazza \"Duomo\" in cima alla città è il più importante delle stessa.",
        "name=Punto Panoramico \"Piazza Duomo\"",
        "phone=+39 0835 680254",
        "tourism=viewpoint",
        "website=https://it.m.wikipedia.org/wiki/Cattedrale_di_Matera"
      ],
      "score": 20
    },
    {
      "id": "node:1745861398",
      "name": "Catacombe ebraiche di Venosa",
      "lat": 40.9788332,
      "lon": 15.839903,
      "type": "core",
      "visibility": "classica",
      "tags": [
        "historic=archaeological_site",
        "name=Catacombe ebraiche di Venosa",
        "wikidata=Q6657726",
        "wikipedia=it:Catacombe ebraiche di Venosa"
      ],
      "score": 20
    },
    {
      "id": "node:1826363731",
      "name": "Area Archeologica Timmari \"San Salvatore\"",
      "lat": 40.6551473,
      "lon": 16.491983,
      "type": "core",
      "visibility": "classica",
      "tags": [
        "historic=archaeological_site",
        "name=Area Archeologica Timmari \"San Salvatore\"",
        "website=http://www.basilicata.beniculturali.it/index.php?option=com_k2&view=item&id=454:matera-area-archeologica-di-timmari-%E2%80%93-san-salvatore-restauro-e-manutenzione-strutture-aggiudicazione-definitiva&Itemid=609"
      ],
      "score": 20
    },
    {
      "id": "node:2518271411",
      "name": "Tomba a grotticella a Doppio Cerchio di Murgia Timone",
      "lat": 40.6731982,
      "lon": 16.6319202,
      "type": "core",
      "visibility": "classica",
      "tags": [
        "archaeological_site=tomb",
        "historic=archaeological_site",
        "historic:civilization=bronze-age",
        "name=Tomba a grotticella a Doppio Cerchio di Murgia Timone",
        "tomb=tumulus",
        "website=https://www.basilicatanet.com/ita/web/item.asp?nav=luce_natale_neolitico"
      ],
      "score": 20
    },
    {
      "id": "node:2655193282",
      "name": "Villa di Masseria Ciccotti",
      "lat": 40.7560387,
      "lon": 16.0830673,
      "type": "core",
      "visibility": "classica",
      "tags": [
        "historic=archaeological_site",
        "name=Villa di Masseria Ciccotti",
        "wikidata=Q4012746",
        "wikipedia=it:Villa di Masseria Ciccotti"
      ],
      "score": 20
    },
    {
      "id": "node:2667364213",
      "name": "Chiesa Rupestre di San Falcione",
      "lat": 40.6671745,
      "lon": 16.6208628,
      "type": "core",
      "visibility": "classica",
      "tags": [
        "access=permit",
        "archaeological_site=church",
        "building=cave",
        "historic=archaeological_site",
        "historic:civilization=medieval",
        "name=Chiesa Rupestre di San Falcione",
        "wikidata=Q88807272",
        "wikipedia=it:Chiesa di San Falcione"
      ],
      "score": 20
    },
    {
      "id": "node:2667364219",
      "name": "Chiesa ruprestre di San Pietro in Principibus",
      "lat": 40.6763423,
      "lon": 16.6281737,
      "type": "core",
      "visibility": "classica",
      "tags": [
        "access=no",
        "archaeological_site=church",
        "building=cave",
        "historic=archaeological_site",
        "historic:civilization=medieval",
        "name=Chiesa ruprestre di San Pietro in Principibus",
        "wikidata=Q16481798",
        "wikipedia=it:Chiese rupestri di Matera"
      ],
      "score": 20
    },
    {
      "id": "node:2697080072",
      "name": "Civita di Tricarico",
      "lat": 40.6376134,
      "lon": 16.0586717,
      "type": "core",
      "visibility": "classica",
      "tags": [
        "historic=archaeological_site",
        "name=Civita di Tricarico",
        "wikidata=Q2974903",
        "wikipedia=fr:Civita di Tricarico"
      ],
      "score": 20
    },
    {
      "id": "node:3950119661",
      "name": "Area archeologica dell’Isola di Santo Janni",
      "lat": 39.9673358,
      "lon": 15.715784,
      "type": "core",
      "visibility": "classica",
      "tags": [
        "historic=archaeological_site",
        "name=Area archeologica dell’Isola di Santo Janni",
        "wikidata=Q3621966",
        "wikipedia=it:Area archeologica dell'isola di Santo Janni"
      ],
      "score": 20
    },
    {
      "id": "node:4435940470",
      "name": "Chiesa Rupestre Acito San Campo",
      "lat": 40.6589344,
      "lon": 16.6207061,
      "type": "core",
      "visibility": "classica",
      "tags": [
        "archaeological_site=church",
        "building=cave",
        "denomination=catholic",
        "historic=archaeological_site",
        "historic:civilization=medieval",
        "name=Chiesa Rupestre Acito San Campo",
        "wikidata=Q16481798",
        "wikipedia=it:Chiese rupestri di Matera"
      ],
      "score": 20
    },
    {
      "id": "node:4435940471",
      "name": "Chiesa Rupestre Madonna della Croce",
      "lat": 40.6594642,
      "lon": 16.6207677,
      "type": "core",
      "visibility": "classica",
      "tags": [
        "addr:city=Matera",
        "addr:postcode=75100",
        "archaeological_site=church",
        "building=cave",
        "denomination=catholic",
        "historic=archaeological_site",
        "historic:civilization=medieval",
        "name=Chiesa Rupestre Madonna della Croce",
        "phone=+39 0835 336166",
        "wikidata=Q24807658",
        "wikipedia=it:Chiesa della Madonna della Croce (Matera)"
      ],
      "score": 20
    },
    {
      "id": "node:6283996389",
      "name": "Chiesa ruprestre di Sant'Agnese",
      "lat": 40.6634409,
      "lon": 16.6155513,
      "type": "core",
      "visibility": "classica",
      "tags": [
        "access=no",
        "archaeological_site=church",
        "building=cave",
        "historic=archaeological_site",
        "historic:civilization=medieval",
        "name=Chiesa ruprestre di Sant'Agnese",
        "wikidata=Q16540461",
        "wikipedia=it:Chiesa di Sant'Agnese (Matera)"
      ],
      "score": 20
    },
    {
      "id": "node:8850626805",
      "name": "Raccolta delle acque",
      "lat": 40.6633837,
      "lon": 16.611352,
      "type": "core",
      "visibility": "classica",
      "tags": [
        "access=customers",
        "addr:city=Matera",
        "addr:housenumber=12",
        "addr:postcode=75100",
        "addr:street=Via Purgatorio Vecchio",
        "alt_name=Chiesa San Giovanni da Matera",
        "alt_name_1=Casa di San Giovanni da Matera",
        "alt_name_2=Chiesa del Purgatorio Vecchio",
        "contact:website=http://www.laraccoltadelleacquematera.it/",
        "denomination=catholic",
        "historic=archaeological_site",
        "historic:civilization=medieval",
        "name=Raccolta delle acque",
        "phone=+393282099219",
        "religion=christian"
      ],
      "score": 20
    },
    {
      "id": "node:8947234696",
      "name": "Chiesa rupestre di San Vito",
      "lat": 40.6670546,
      "lon": 16.6182088,
      "type": "core",
      "visibility": "classica",
      "tags": [
        "access=no",
        "archaeological_site=church",
        "building=cave",
        "historic=archaeological_site",
        "historic:civilization=medieval",
        "name=Chiesa rupestre di San Vito",
        "old_name=Cappella di San Biagio",
        "wikidata=Q16481798",
        "wikipedia=it:Chiese rupestri di Matera"
      ],
      "score": 20
    },
    {
      "id": "node:8968587736",
      "name": "Anfiteatro romano",
      "lat": 40.9696714,
      "lon": 15.8263372,
      "type": "core",
      "visibility": "classica",
      "tags": [
        "archaeological_site=amphitheatre",
        "historic=archaeological_site",
        "historic:civilization=ancient_roman",
        "name=Anfiteatro romano",
        "wikidata=Q28978106"
      ],
      "score": 20
    },
    {
      "id": "node:9957436377",
      "name": "Monte dell'impiso",
      "lat": 40.4857567,
      "lon": 16.0953884,
      "type": "core",
      "visibility": "classica",
      "tags": [
        "direction=S",
        "name=Monte dell'impiso",
        "tourism=viewpoint",
        "website=https://www.viaggiarenelpollino.it/hike/pietrapertosa/"
      ],
      "score": 20
    },
    {
      "id": "node:12637368623",
      "name": "Incoronata",
      "lat": 40.3712069,
      "lon": 16.7375864,
      "type": "core",
      "visibility": "classica",
      "tags": [
        "access=private",
        "historic=archaeological_site",
        "historic:civilization=iron-age",
        "name=Incoronata",
        "wikidata=Q56304157"
      ],
      "score": 20
    },
    {
      "id": "way:71360391",
      "name": "Castello di Muro Lucano",
      "lat": 40.7535812,
      "lon": 15.4871136,
      "type": "core",
      "visibility": "classica",
      "tags": [
        "building=yes",
        "historic=castle",
        "name=Castello di Muro Lucano",
        "wikidata=Q3662759"
      ],
      "score": 20
    },
    {
      "id": "way:83053186",
      "name": "Castello Caracciolo",
      "lat": 40.4810207,
      "lon": 15.6259231,
      "type": "core",
      "visibility": "classica",
      "tags": [
        "historic=castle",
        "name=Castello Caracciolo",
        "wikidata=Q52534",
        "wikipedia=it:Brienza#Castello Caracciolo"
      ],
      "score": 20
    },
    {
      "id": "way:108670013",
      "name": "Spiaggia nera",
      "lat": 39.9717548,
      "lon": 15.7230093,
      "type": "core",
      "visibility": "classica",
      "tags": [
        "name=Spiaggia nera",
        "natural=beach",
        "wikidata=Q124398780"
      ],
      "score": 20
    },
    {
      "id": "way:145667236",
      "name": "Cattedrale della Madonna della Bruna e di Sant'Eustachio",
      "lat": 40.666804,
      "lon": 16.6113289,
      "type": "core",
      "visibility": "classica",
      "tags": [
        "addr:city=Matera",
        "addr:postcode=75100",
        "addr:street=Piazza del Duomo",
        "alt_name=Cattedrale di Maria Santissima della Bruna e di Sant'Eustachio",
        "amenity=place_of_worship",
        "basilica=minor",
        "building=cathedral",
        "contact:phone=+39 0835 332908",
        "denomination=catholic",
        "fee=3,5",
        "height=30",
        "historic=yes",
        "material=stone",
        "name=Cattedrale della Madonna della Bruna e di Sant'Eustachio",
        "opening_hours=Mo-Sa 09:00-17:30; Su 09:00-10:00, 12:30-17:30",
        "phone=+39 0835 332 908",
        "religion=christian",
        "roof:shape=gabled",
        "start_date=1230",
        "tourism=attraction",
        "website=http://www.matera-irsina.chiesacattolica.it/",
        "wheelchair=limited",
        "wheelchair:description=accesso da via del riscatto dall'annesso museo diocesano. avvisare personale interno",
        "wikidata=Q2942710",
        "wikimedia_commons=Category:Cathedral (Matera)",
        "wikipedia=it:Cattedrale di Matera"
      ],
      "score": 20
    },
    {
      "id": "way:260090159",
      "name": "Castello di Cancellara",
      "lat": 40.732172,
      "lon": 15.9223822,
      "type": "core",
      "visibility": "classica",
      "tags": [
        "building=yes",
        "castle_type=palace",
        "historic=castle",
        "name=Castello di Cancellara",
        "wikidata=Q30888719",
        "wikipedia=it:Castello di Cancellara"
      ],
      "score": 20
    },
    {
      "id": "way:260286059",
      "name": "Castello del Malconsiglio",
      "lat": 40.5676956,
      "lon": 16.4997855,
      "type": "core",
      "visibility": "classica",
      "tags": [
        "building=yes",
        "castle_type=defensive",
        "historic=castle",
        "name=Castello del Malconsiglio",
        "wikidata=Q3662424",
        "wikipedia=it:Castello del Malconsiglio"
      ],
      "score": 20
    },
    {
      "id": "way:260482019",
      "name": "Castello Carafa-Ruffo",
      "lat": 40.476668,
      "lon": 15.8497011,
      "type": "core",
      "visibility": "classica",
      "tags": [
        "building=yes",
        "historic=castle",
        "name=Castello Carafa-Ruffo",
        "wikidata=Q68662755"
      ],
      "score": 20
    },
    {
      "id": "way:279549062",
      "name": "Castello Normanno",
      "lat": 40.7650761,
      "lon": 15.9922861,
      "type": "core",
      "visibility": "classica",
      "tags": [
        "historic=castle",
        "name=Castello Normanno",
        "wikidata=Q3662770",
        "wikipedia=it:Castello di Oppido"
      ],
      "score": 20
    },
    {
      "id": "way:302819983",
      "name": "Palazzo Baronale La Marra Formica",
      "lat": 40.3921896,
      "lon": 16.1719895,
      "type": "core",
      "visibility": "classica",
      "tags": [
        "building=yes",
        "historic=castle",
        "name=Palazzo Baronale La Marra Formica",
        "website=https://www.comune.cirigliano.mt.it/?page_id=7475"
      ],
      "score": 20
    },
    {
      "id": "way:663853265",
      "name": "Castello Carafa",
      "lat": 40.1880894,
      "lon": 16.4266529,
      "type": "core",
      "visibility": "classica",
      "tags": [
        "building=yes",
        "historic=castle",
        "name=Castello Carafa",
        "ruins=yes",
        "wikidata=Q56703145"
      ],
      "score": 20
    },
    {
      "id": "node:26863490",
      "name": "Monte la Spina",
      "lat": 40.0435741,
      "lon": 15.9168093,
      "type": "core",
      "visibility": "classica",
      "tags": [
        "ele=1652",
        "name=Monte la Spina",
        "natural=peak",
        "wikidata=Q3862477",
        "wikipedia=it:Monti la Spina - Zaccana"
      ],
      "score": 18
    },
    {
      "id": "node:26863831",
      "name": "Monte Coccovello",
      "lat": 40.0482521,
      "lon": 15.717685,
      "type": "core",
      "visibility": "classica",
      "tags": [
        "ele=1511",
        "name=Monte Coccovello",
        "natural=peak",
        "wikidata=Q3861460",
        "wikipedia=it:Monte Coccovello"
      ],
      "score": 18
    },
    {
      "id": "node:26863841",
      "name": "Monte Crivo",
      "lat": 40.0165396,
      "lon": 15.743463,
      "type": "core",
      "visibility": "classica",
      "tags": [
        "ele=1277",
        "name=Monte Crivo",
        "natural=peak",
        "wikidata=Q63523527"
      ],
      "score": 18
    },
    {
      "id": "node:26863943",
      "name": "Monte Raparo",
      "lat": 40.201926,
      "lon": 15.9780475,
      "type": "core",
      "visibility": "classica",
      "tags": [
        "ele=1764",
        "name=Monte Raparo",
        "natural=peak",
        "wikidata=Q31615606"
      ],
      "score": 18
    },
    {
      "id": "node:26864005",
      "name": "Monte Volturino",
      "lat": 40.4123185,
      "lon": 15.8095757,
      "type": "core",
      "visibility": "classica",
      "tags": [
        "ele=1835",
        "name=Monte Volturino",
        "natural=peak",
        "wikidata=Q3862131",
        "wikipedia=it:Monte Volturino"
      ],
      "score": 18
    },
    {
      "id": "node:67280332",
      "name": "Bernalda",
      "lat": 40.4129181,
      "lon": 16.6910968,
      "type": "core",
      "visibility": "classica",
      "tags": [
        "gfoss_id=6457",
        "name=Bernalda",
        "place=town",
        "population=12453",
        "source=geodati.gfoss.it"
      ],
      "score": 18
    },
    {
      "id": "node:67280340",
      "name": "Garaguso",
      "lat": 40.548418,
      "lon": 16.227178,
      "type": "core",
      "visibility": "classica",
      "tags": [
        "gfoss_id=6463",
        "name=Garaguso",
        "place=village",
        "population=1193",
        "source=geodati.gfoss.it",
        "wikipedia=it:Garaguso"
      ],
      "score": 18
    },
    {
      "id": "node:67280345",
      "name": "Miglionico",
      "lat": 40.5693922,
      "lon": 16.5009658,
      "type": "core",
      "visibility": "classica",
      "tags": [
        "gfoss_id=6469",
        "name=Miglionico",
        "place=village",
        "population=2630",
        "source=geodati.gfoss.it",
        "wikipedia=it:Miglionico"
      ],
      "score": 18
    },
    {
      "id": "node:67280364",
      "name": "Salandra",
      "lat": 40.527518,
      "lon": 16.31918,
      "type": "core",
      "visibility": "classica",
      "tags": [
        "gfoss_id=6478",
        "name=Salandra",
        "place=village",
        "population=3109",
        "source=geodati.gfoss.it",
        "wikipedia=it:Salandra"
      ],
      "score": 18
    },
    {
      "id": "node:67280386",
      "name": "Accettura",
      "lat": 40.491016,
      "lon": 16.157977,
      "type": "core",
      "visibility": "classica",
      "tags": [
        "gfoss_id=6455",
        "name=Accettura",
        "place=village",
        "population=2436",
        "source=geodati.gfoss.it",
        "wikidata=Q30021917"
      ],
      "score": 18
    },
    {
      "id": "node:67280389",
      "name": "Calciano",
      "lat": 40.588018,
      "lon": 16.192376,
      "type": "core",
      "visibility": "classica",
      "tags": [
        "gfoss_id=6458",
        "name=Calciano",
        "place=village",
        "population=893",
        "source=geodati.gfoss.it",
        "wikidata=Q30023346"
      ],
      "score": 18
    },
    {
      "id": "node:67280397",
      "name": "Grassano",
      "lat": 40.6326231,
      "lon": 16.2828135,
      "type": "core",
      "visibility": "classica",
      "tags": [
        "gfoss_id=6465",
        "name=Grassano",
        "place=village",
        "population=5792",
        "source=geodati.gfoss.it",
        "wikipedia=it:Grassano"
      ],
      "score": 18
    },
    {
      "id": "node:67280426",
      "name": "Rotondella",
      "lat": 40.171312,
      "lon": 16.525589,
      "type": "core",
      "visibility": "classica",
      "tags": [
        "gfoss_id=6477",
        "name=Rotondella",
        "name:ru=Ротонделла",
        "place=village",
        "population=3233",
        "source=geodati.gfoss.it",
        "wikidata=Q30029620"
      ],
      "score": 18
    },
    {
      "id": "node:67280451",
      "name": "San Mauro Forte",
      "lat": 40.4872765,
      "lon": 16.2482488,
      "type": "core",
      "visibility": "classica",
      "tags": [
        "gfoss_id=6480",
        "name=San Mauro Forte",
        "place=village",
        "population=2306",
        "source=geodati.gfoss.it",
        "wikipedia=it:San Mauro Forte"
      ],
      "score": 18
    },
    {
      "id": "node:67280472",
      "name": "Anzi",
      "lat": 40.516615,
      "lon": 15.924571,
      "type": "core",
      "visibility": "classica",
      "tags": [
        "gfoss_id=6358",
        "name=Anzi",
        "place=village",
        "population=1949",
        "source=geodati.gfoss.it",
        "wikidata=Q52513",
        "wikipedia=it:Anzi (Italia)"
      ],
      "score": 18
    },
    {
      "id": "node:67280536",
      "name": "Calvera",
      "lat": 40.149509,
      "lon": 16.143881,
      "type": "core",
      "visibility": "classica",
      "tags": [
        "ele=630",
        "gfoss_id=6370",
        "name=Calvera",
        "place=village",
        "population=348",
        "population:date=2025-09-30",
        "source=geodati.gfoss.it",
        "source:population=wikipedia",
        "wikidata=Q52545",
        "wikipedia=it:Calvera"
      ],
      "score": 18
    },
    {
      "id": "node:67280544",
      "name": "Brienza",
      "lat": 40.4778488,
      "lon": 15.6301506,
      "type": "core",
      "visibility": "classica",
      "tags": [
        "gfoss_id=6367",
        "name=Brienza",
        "name:ru=Бриенца",
        "place=village",
        "population=4067",
        "postal_code=85050",
        "source=geodati.gfoss.it",
        "wikidata=Q52534",
        "wikipedia=it:Brienza"
      ],
      "score": 18
    },
    {
      "id": "node:67280556",
      "name": "Brindisi Montagna",
      "lat": 40.609517,
      "lon": 15.939771,
      "type": "core",
      "visibility": "classica",
      "tags": [
        "gfoss_id=6368",
        "name=Brindisi Montagna",
        "place=village",
        "population=905",
        "source=geodati.gfoss.it",
        "wikidata=Q30023151"
      ],
      "score": 18
    },
    {
      "id": "node:67280587",
      "name": "San Paolo Albanese",
      "lat": 40.0365521,
      "lon": 16.3349364,
      "type": "core",
      "visibility": "classica",
      "tags": [
        "gfoss_id=6374",
        "name=San Paolo Albanese",
        "name:sq=Shën Pali Arbëreshëve",
        "place=village",
        "population=416",
        "source=geodati.gfoss.it",
        "wikidata=Q52664",
        "wikipedia=en:San Paolo Albanese"
      ],
      "score": 18
    },
    {
      "id": "node:67280597",
      "name": "Castelluccio Superiore",
      "lat": 40.010305,
      "lon": 15.975079,
      "type": "core",
      "visibility": "classica",
      "tags": [
        "ele=680",
        "gfoss_id=6377",
        "name=Castelluccio Superiore",
        "place=village",
        "population=711",
        "population:date=2025-09-30",
        "source=geodati.gfoss.it",
        "source:population=wikipedia",
        "wikidata=Q52553",
        "wikipedia=it:Castelluccio Superiore"
      ],
      "score": 18
    },
    {
      "id": "node:67280613",
      "name": "Episcopia",
      "lat": 40.074807,
      "lon": 16.098181,
      "type": "core",
      "visibility": "classica",
      "tags": [
        "ele=530",
        "gfoss_id=6384",
        "name=Episcopia",
        "place=village",
        "population=1210",
        "population:date=2025-09-30",
        "source=geodati.gfoss.it",
        "source:population=wikipedia",
        "wikidata=Q52567",
        "wikipedia=it:Episcopia"
      ],
      "score": 18
    },
    {
      "id": "node:67280621",
      "name": "Corleto Perticara",
      "lat": 40.383513,
      "lon": 16.040676,
      "type": "core",
      "visibility": "classica",
      "tags": [
        "addr:postcode=85012",
        "gfoss_id=6383",
        "name=Corleto Perticara",
        "place=village",
        "population=3018",
        "source=geodati.gfoss.it",
        "wikipedia=it:Corleto Perticara"
      ],
      "score": 18
    },
    {
      "id": "node:67280638",
      "name": "Grumento Nova",
      "lat": 40.28281,
      "lon": 15.888773,
      "type": "core",
      "visibility": "classica",
      "tags": [
        "gfoss_id=6391",
        "name=Grumento Nova",
        "place=village",
        "population=1839",
        "source=geodati.gfoss.it",
        "wikidata=Q30026258"
      ],
      "score": 18
    },
    {
      "id": "node:67280656",
      "name": "Filiano",
      "lat": 40.810719,
      "lon": 15.706163,
      "type": "core",
      "visibility": "classica",
      "tags": [
        "gfoss_id=6386",
        "name=Filiano",
        "place=village",
        "population=3298",
        "source=geodati.gfoss.it",
        "wikidata=Q52569",
        "wikipedia=it:Filiano"
      ],
      "score": 18
    },
    {
      "id": "node:67280660",
      "name": "Lavello",
      "lat": 41.045625,
      "lon": 15.790762,
      "type": "core",
      "visibility": "classica",
      "tags": [
        "gfoss_id=6397",
        "name=Lavello",
        "place=town",
        "population=13626",
        "source=geodati.gfoss.it"
      ],
      "score": 18
    },
    {
      "id": "node:67280671",
      "name": "Lauria",
      "lat": 40.0472814,
      "lon": 15.8354339,
      "type": "core",
      "visibility": "classica",
      "tags": [
        "gfoss_id=6396",
        "name=Lauria",
        "place=town",
        "population=12919",
        "source=geodati.gfoss.it"
      ],
      "score": 18
    },
    {
      "id": "node:67280678",
      "name": "Lagonegro",
      "lat": 40.1239212,
      "lon": 15.7666084,
      "type": "core",
      "visibility": "classica",
      "tags": [
        "gfoss_id=6393",
        "name=Lagonegro",
        "place=town",
        "population=6146",
        "source=geodati.gfoss.it"
      ],
      "score": 18
    },
    {
      "id": "node:67280683",
      "name": "Guardia Perticara",
      "lat": 40.360513,
      "lon": 16.098877,
      "type": "core",
      "visibility": "classica",
      "tags": [
        "gfoss_id=6392",
        "name=Guardia Perticara",
        "place=village",
        "population=758",
        "source=geodati.gfoss.it",
        "wikidata=Q52577",
        "wikipedia=it:Guardia Perticara"
      ],
      "score": 18
    },
    {
      "id": "node:67280695",
      "name": "Maschito",
      "lat": 40.908922,
      "lon": 15.829464,
      "type": "core",
      "visibility": "classica",
      "tags": [
        "gfoss_id=6401",
        "name=Maschito",
        "name:aae=Mashqiti",
        "place=village",
        "population=1864",
        "source=geodati.gfoss.it",
        "wikidata=Q30027328"
      ],
      "score": 18
    },
    {
      "id": "node:67280708",
      "name": "Marsico Nuovo",
      "lat": 40.423012,
      "lon": 15.734868,
      "type": "core",
      "visibility": "classica",
      "tags": [
        "ele=865",
        "gfoss_id=6399",
        "name=Marsico Nuovo",
        "place=village",
        "population=4010",
        "postal_code=85052",
        "source=geodati.gfoss.it;https://esploradati.censimentopopolazione.istat.it;https://www.comune.marsiconuovo.pz.it/it-it/vivere-il-comune/scheda",
        "website=https://www.comune.marsiconuovo.pz.it/"
      ],
      "score": 18
    },
    {
      "id": "node:67280713",
      "name": "Picerno",
      "lat": 40.6384561,
      "lon": 15.6358739,
      "type": "core",
      "visibility": "classica",
      "tags": [
        "gfoss_id=6413",
        "name=Picerno",
        "place=village",
        "population=6186",
        "postal_code=85055",
        "source=geodati.gfoss.it",
        "wikidata=Q52634",
        "wikipedia=it:Picerno"
      ],
      "score": 18
    },
    {
      "id": "node:67280748",
      "name": "Ripacandida",
      "lat": 40.9117813,
      "lon": 15.7247832,
      "type": "core",
      "visibility": "classica",
      "tags": [
        "addr:postcode=85020",
        "elevation=620 m",
        "gfoss_id=6421",
        "name=Ripacandida",
        "place=village",
        "population=1767",
        "source=geodati.gfoss.it",
        "wikidata=Q52647",
        "wikipedia=it:Ripacandida"
      ],
      "score": 18
    },
    {
      "id": "node:67280761",
      "name": "Missanello",
      "lat": 40.2819547,
      "lon": 16.1663126,
      "type": "core",
      "visibility": "classica",
      "tags": [
        "gfoss_id=6403",
        "name=Missanello",
        "place=village",
        "population=604",
        "source=geodati.gfoss.it",
        "wikipedia=it:Missanello"
      ],
      "score": 18
    },
    {
      "id": "node:67280806",
      "name": "Satriano di Lucania",
      "lat": 40.543914,
      "lon": 15.638265,
      "type": "core",
      "visibility": "classica",
      "tags": [
        "gfoss_id=6437",
        "name=Satriano di Lucania",
        "place=village",
        "population=2353",
        "postal_code=85050",
        "source=geodati.gfoss.it",
        "wikidata=Q52673",
        "wikipedia=it:Satriano di Lucania"
      ],
      "score": 18
    },
    {
      "id": "node:67280847",
      "name": "Ruoti",
      "lat": 40.7178788,
      "lon": 15.6790066,
      "type": "core",
      "visibility": "classica",
      "tags": [
        "gfoss_id=6425",
        "name=Ruoti",
        "place=village",
        "population=3687",
        "source=geodati.gfoss.it",
        "wikidata=Q30029660"
      ],
      "score": 18
    },
    {
      "id": "node:67280857",
      "name": "San Chirico Nuovo",
      "lat": 40.6767472,
      "lon": 16.0785338,
      "type": "core",
      "visibility": "classica",
      "tags": [
        "gfoss_id=6427",
        "name=San Chirico Nuovo",
        "place=village",
        "population=1632",
        "source=geodati.gfoss.it",
        "wikipedia=it:San Chirico Nuovo"
      ],
      "score": 18
    },
    {
      "id": "node:67280865",
      "name": "San Costantino Albanese",
      "lat": 40.035808,
      "lon": 16.304686,
      "type": "core",
      "visibility": "classica",
      "tags": [
        "gfoss_id=6429",
        "name=San Costantino Albanese",
        "name:sq=Shën Kostandinit i Arbëreshëve",
        "place=village",
        "population=884",
        "source=geodati.gfoss.it",
        "wikidata=Q52661",
        "wikipedia=en:San Costantino Albanese"
      ],
      "score": 18
    },
    {
      "id": "node:67280889",
      "name": "Venosa",
      "lat": 40.961323,
      "lon": 15.814863,
      "type": "core",
      "visibility": "classica",
      "tags": [
        "gfoss_id=6449",
        "name=Venosa",
        "place=town",
        "population=11863",
        "source=geodati.gfoss.it"
      ],
      "score": 18
    },
    {
      "id": "node:67280899",
      "name": "Viggianello",
      "lat": 39.9731948,
      "lon": 16.0853528,
      "type": "core",
      "visibility": "classica",
      "tags": [
        "ele=500",
        "gfoss_id=6451",
        "name=Viggianello",
        "place=village",
        "population=2586",
        "population:date=2025-09-30",
        "source=geodati.gfoss.it",
        "source:population=wikipedia",
        "wikidata=Q52693",
        "wikipedia=it:Viggianello (Italia)"
      ],
      "score": 18
    },
    {
      "id": "node:67280905",
      "name": "Tito",
      "lat": 40.583615,
      "lon": 15.675465,
      "type": "core",
      "visibility": "classica",
      "tags": [
        "gfoss_id=6443",
        "name=Tito",
        "place=village",
        "population=6387",
        "postal_code=85050",
        "source=geodati.gfoss.it",
        "wikidata=Q52683",
        "wikipedia=it:Tito (Italia)"
      ],
      "score": 18
    },
    {
      "id": "node:67280909",
      "name": "Teana",
      "lat": 40.126872,
      "lon": 16.1549542,
      "type": "core",
      "visibility": "classica",
      "tags": [
        "ele=806",
        "gfoss_id=6441",
        "name=Teana",
        "place=village",
        "population=500",
        "population:date=2025-09-30",
        "source=geodati.gfoss.it",
        "source:population=wikipedia",
        "wikidata=Q52681",
        "wikipedia=it:Teana"
      ],
      "score": 18
    },
    {
      "id": "node:67280916",
      "name": "Tolve",
      "lat": 40.694219,
      "lon": 16.016271,
      "type": "core",
      "visibility": "classica",
      "tags": [
        "gfoss_id=6444",
        "name=Tolve",
        "place=village",
        "population=3620",
        "source=geodati.gfoss.it",
        "wikidata=Q30031145"
      ],
      "score": 18
    },
    {
      "id": "node:67280956",
      "name": "Armento",
      "lat": 40.307712,
      "lon": 16.064977,
      "type": "core",
      "visibility": "classica",
      "tags": [
        "gfoss_id=6359",
        "name=Armento",
        "place=village",
        "population=800",
        "source=geodati.gfoss.it",
        "wikipedia=it:Armento"
      ],
      "score": 18
    },
    {
      "id": "node:67281029",
      "name": "Gallicchio",
      "lat": 40.289012,
      "lon": 16.139079,
      "type": "core",
      "visibility": "classica",
      "tags": [
        "gfoss_id=6389",
        "name=Gallicchio",
        "place=village",
        "population=1018",
        "source=geodati.gfoss.it",
        "wikipedia=it:Gallicchio"
      ],
      "score": 18
    },
    {
      "id": "node:67281048",
      "name": "Chiaromonte",
      "lat": 40.1240088,
      "lon": 16.2138347,
      "type": "core",
      "visibility": "classica",
      "tags": [
        "ele=794",
        "gfoss_id=6382",
        "name=Chiaromonte",
        "place=village",
        "population=1688",
        "population:date=2025-09-30",
        "source:population=wikipedia",
        "wikidata=Q52561",
        "wikipedia=it:Chiaromonte"
      ],
      "score": 18
    },
    {
      "id": "node:67281068",
      "name": "Castelluccio Inferiore",
      "lat": 40.003905,
      "lon": 15.980879,
      "type": "core",
      "visibility": "classica",
      "tags": [
        "ele=495",
        "gfoss_id=6376",
        "name=Castelluccio Inferiore",
        "place=village",
        "population=1863",
        "population:date=2025-09-30",
        "source=geodati.gfoss.it",
        "source:population=wikipedia",
        "wikidata=Q52552",
        "wikipedia=it:Castelluccio Inferiore"
      ],
      "score": 18
    },
    {
      "id": "node:67281138",
      "name": "Maratea",
      "lat": 39.9931029,
      "lon": 15.723124,
      "type": "core",
      "visibility": "classica",
      "tags": [
        "gfoss_id=6398",
        "name=Maratea",
        "place=town",
        "population=5261",
        "source=geodati.gfoss.it"
      ],
      "score": 18
    },
    {
      "id": "node:67281288",
      "name": "Pietrapertosa",
      "lat": 40.5180167,
      "lon": 16.0632073,
      "type": "core",
      "visibility": "classica",
      "tags": [
        "gfoss_id=6415",
        "name=Pietrapertosa",
        "place=village",
        "population=1312",
        "source=geodati.gfoss.it",
        "wikidata=Q52638",
        "wikipedia=it:Pietrapertosa"
      ],
      "score": 18
    },
    {
      "id": "node:67281314",
      "name": "Sasso di Castalda",
      "lat": 40.488266,
      "lon": 15.6779633,
      "type": "core",
      "visibility": "classica",
      "tags": [
        "gfoss_id=6436",
        "name=Sasso di Castalda",
        "place=village",
        "population=871",
        "postal_code=85050",
        "source=geodati.gfoss.it",
        "wikidata=Q52672",
        "wikipedia=it:Sasso di Castalda"
      ],
      "score": 18
    },
    {
      "id": "node:67281326",
      "name": "Sant'Arcangelo",
      "lat": 40.2466257,
      "lon": 16.2746186,
      "type": "core",
      "visibility": "classica",
      "tags": [
        "gfoss_id=6434",
        "name=Sant'Arcangelo",
        "name:ru=Сант-Арканджело",
        "place=village",
        "population=6637",
        "source=geodati.gfoss.it",
        "wikipedia=it:Sant'Arcangelo"
      ],
      "score": 18
    },
    {
      "id": "node:67281353",
      "name": "Ginestra",
      "lat": 40.9301437,
      "lon": 15.7344896,
      "type": "core",
      "visibility": "classica",
      "tags": [
        "gfoss_id=6453",
        "name=Ginestra",
        "name:aae=Xhura",
        "place=village",
        "population=726",
        "source=geodati.gfoss.it",
        "wikidata=Q33675918"
      ],
      "score": 18
    },
    {
      "id": "node:295970099",
      "name": "Leonessa di Melfi",
      "lat": 41.0770081,
      "lon": 15.6040779,
      "type": "core",
      "visibility": "classica",
      "tags": [
        "name=Leonessa di Melfi",
        "place=village",
        "wikidata=Q3830591",
        "wikipedia=it:Leonessa di Melfi"
      ],
      "score": 18
    },
    {
      "id": "node:388272310",
      "name": "Serra delle Ciavole",
      "lat": 39.9158945,
      "lon": 16.2190967,
      "type": "core",
      "visibility": "classica",
      "tags": [
        "ele=2130",
        "name=Serra delle Ciavole",
        "natural=peak",
        "wikidata=Q31666263"
      ],
      "score": 18
    },
    {
      "id": "node:508495959",
      "name": "Monticchio Bagni",
      "lat": 40.9490145,
      "lon": 15.5698591,
      "type": "core",
      "visibility": "classica",
      "tags": [
        "name=Monticchio Bagni",
        "place=village",
        "wikidata=Q593338",
        "wikipedia=it:Monticchio (Rionero in Vulture)"
      ],
      "score": 18
    },
    {
      "id": "node:881602516",
      "name": "Monte Santa Croce",
      "lat": 40.7793756,
      "lon": 15.5867975,
      "type": "core",
      "visibility": "classica",
      "tags": [
        "ele=1407",
        "name=Monte Santa Croce",
        "natural=peak",
        "wikidata=Q31614322"
      ],
      "score": 18
    },
    {
      "id": "node:1594361806",
      "name": "Marconia",
      "lat": 40.3627952,
      "lon": 16.6876457,
      "type": "core",
      "visibility": "classica",
      "tags": [
        "name=Marconia",
        "place=village",
        "population=8258",
        "source=ISTAT (2001)",
        "wikidata=Q2832910",
        "wikipedia=it:Marconia"
      ],
      "score": 18
    },
    {
      "id": "node:1706829847",
      "name": "Metaponto",
      "lat": 40.3740777,
      "lon": 16.8100961,
      "type": "core",
      "visibility": "classica",
      "tags": [
        "name=Metaponto",
        "name:ru=Метапонто",
        "place=village",
        "wikidata=Q21888111",
        "wikipedia=it:Metaponto"
      ],
      "score": 18
    },
    {
      "id": "node:1782443719",
      "name": "Borgo Taccone",
      "lat": 40.7982811,
      "lon": 16.1620122,
      "type": "core",
      "visibility": "classica",
      "tags": [
        "name=Borgo Taccone",
        "place=village",
        "wikidata=Q3642544",
        "wikipedia=it:Borgo Taccone"
      ],
      "score": 18
    },
    {
      "id": "node:1891352938",
      "name": "Frusci",
      "lat": 40.7822037,
      "lon": 15.7424739,
      "type": "core",
      "visibility": "classica",
      "tags": [
        "name=Frusci",
        "place=hamlet",
        "population=192",
        "website=https://www.italiamappata.it/basilicata/pz/339-frusci/",
        "wikidata=Q18428896"
      ],
      "score": 18
    },
    {
      "id": "node:2106096741",
      "name": "Pergola",
      "lat": 40.4308172,
      "lon": 15.6800565,
      "type": "core",
      "visibility": "classica",
      "tags": [
        "name=Pergola",
        "place=village",
        "wikidata=Q207463",
        "wikipedia=it:Pergola (Italia)"
      ],
      "score": 18
    },
    {
      "id": "node:2228725494",
      "name": "Monte Arioso",
      "lat": 40.494802,
      "lon": 15.7462317,
      "type": "core",
      "visibility": "classica",
      "tags": [
        "ele=1709",
        "name=Monte Arioso",
        "natural=peak",
        "wikidata=Q31626824"
      ],
      "score": 18
    },
    {
      "id": "node:2232218564",
      "name": "Monte Malerba",
      "lat": 40.5293254,
      "lon": 16.1312831,
      "type": "core",
      "visibility": "classica",
      "tags": [
        "ele=1083",
        "name=Monte Malerba",
        "natural=peak",
        "wikidata=Q34605525"
      ],
      "score": 18
    },
    {
      "id": "node:2244839915",
      "name": "Lucania Outdoor Park",
      "lat": 40.4463425,
      "lon": 16.1377782,
      "type": "core",
      "visibility": "classica",
      "tags": [
        "name=Lucania Outdoor Park",
        "tourism=theme_park"
      ],
      "score": 18
    },
    {
      "id": "node:2437004128",
      "name": "Monte Carmine",
      "lat": 40.7614977,
      "lon": 15.7458457,
      "type": "core",
      "visibility": "classica",
      "tags": [
        "ele=1228",
        "name=Monte Carmine",
        "natural=peak",
        "wikidata=Q3861407",
        "wikipedia=it:Monte Carmine"
      ],
      "score": 18
    },
    {
      "id": "node:2438955049",
      "name": "Monti Li Foj di Picerno",
      "lat": 40.651082,
      "lon": 15.708094,
      "type": "core",
      "visibility": "classica",
      "tags": [
        "ele=1350",
        "name=Monti Li Foj di Picerno",
        "natural=peak",
        "wikidata=Q3862453",
        "wikipedia=it:Monti Li Foj"
      ],
      "score": 18
    },
    {
      "id": "node:2438955050",
      "name": "Monti Li Foj",
      "lat": 40.636941,
      "lon": 15.691571,
      "type": "core",
      "visibility": "classica",
      "tags": [
        "ele=1354",
        "name=Monti Li Foj",
        "natural=peak",
        "wikidata=Q3862453",
        "wikipedia=it:Monti Li Foj"
      ],
      "score": 18
    },
    {
      "id": "node:2520923562",
      "name": "Monte Carbone",
      "lat": 40.7141422,
      "lon": 16.5273457,
      "type": "core",
      "visibility": "classica",
      "tags": [
        "ele=421",
        "name=Monte Carbone",
        "natural=peak",
        "wikidata=Q31625137"
      ],
      "score": 18
    },
    {
      "id": "node:2561527182",
      "name": "Monte Zaccana",
      "lat": 40.0380367,
      "lon": 15.9457672,
      "type": "core",
      "visibility": "classica",
      "tags": [
        "ele=1580",
        "name=Monte Zaccana",
        "natural=peak",
        "wikidata=Q3862477",
        "wikipedia=it:Monti la Spina - Zaccana"
      ],
      "score": 18
    },
    {
      "id": "node:2561869389",
      "name": "Monte Alpi (Cima Pizzo Falcone)",
      "lat": 40.1212584,
      "lon": 15.9744222,
      "type": "core",
      "visibility": "classica",
      "tags": [
        "ele=1900",
        "name=Monte Alpi (Cima Pizzo Falcone)",
        "natural=peak",
        "wikidata=Q3861183",
        "wikipedia=it:Monte Alpi"
      ],
      "score": 18
    },
    {
      "id": "node:2627477673",
      "name": "Serranetta",
      "lat": 40.5630444,
      "lon": 15.8194374,
      "type": "core",
      "visibility": "classica",
      "tags": [
        "ele=1475",
        "name=Serranetta",
        "natural=peak",
        "wikidata=Q3685339",
        "wikipedia=it:Comprensorio Sellata-Volturino-Viggiano e Monti della Maddalena#Vette principali"
      ],
      "score": 18
    },
    {
      "id": "node:3104504546",
      "name": "Parco della Grancia",
      "lat": 40.6154009,
      "lon": 15.9284849,
      "type": "core",
      "visibility": "classica",
      "tags": [
        "name=Parco della Grancia",
        "tourism=theme_park"
      ],
      "score": 18
    },
    {
      "id": "node:3127453553",
      "name": "Villa Comunale",
      "lat": 40.1488084,
      "lon": 16.2845394,
      "type": "core",
      "visibility": "classica",
      "tags": [
        "name=Villa Comunale",
        "tourism=theme_park"
      ],
      "score": 18
    },
    {
      "id": "node:3688130067",
      "name": "Monte Vulture",
      "lat": 40.9506693,
      "lon": 15.6356387,
      "type": "core",
      "visibility": "classica",
      "tags": [
        "ele=1326",
        "name=Monte Vulture",
        "natural=peak",
        "wikidata=Q509433",
        "wikipedia=it:Monte Vulture"
      ],
      "score": 18
    },
    {
      "id": "node:3717464470",
      "name": "Monte San Biagio",
      "lat": 39.9876811,
      "lon": 15.7212724,
      "type": "core",
      "visibility": "classica",
      "tags": [
        "ele=623",
        "name=Monte San Biagio",
        "natural=peak",
        "wikidata=Q3861953",
        "wikipedia=it:Monte San Biagio (Maratea)"
      ],
      "score": 18
    },
    {
      "id": "node:4322221616",
      "name": "Possidente",
      "lat": 40.7806928,
      "lon": 15.7715687,
      "type": "core",
      "visibility": "classica",
      "tags": [
        "name=Possidente",
        "place=village",
        "wikidata=Q3909420",
        "wikipedia=it:Possidente"
      ],
      "score": 18
    },
    {
      "id": "node:4485822192",
      "name": "Monte La Pila",
      "lat": 40.6425287,
      "lon": 16.0589608,
      "type": "core",
      "visibility": "classica",
      "tags": [
        "ele=931.1",
        "name=Monte La Pila",
        "natural=peak",
        "wikipedia=it:Tricarico"
      ],
      "score": 18
    },
    {
      "id": "node:4595284859",
      "name": "Dragonetti",
      "lat": 40.8318792,
      "lon": 15.7162915,
      "type": "core",
      "visibility": "classica",
      "tags": [
        "ele=561",
        "name=Dragonetti",
        "place=village",
        "population=287",
        "wikidata=Q52569",
        "wikipedia=it:Filiano#Dragonetti"
      ],
      "score": 18
    },
    {
      "id": "node:4834921174",
      "name": "Monte Caramola",
      "lat": 40.0197539,
      "lon": 16.2021679,
      "type": "core",
      "visibility": "classica",
      "tags": [
        "name=Monte Caramola",
        "natural=peak",
        "wikidata=Q31625149"
      ],
      "score": 18
    },
    {
      "id": "node:5113841068",
      "name": "Craco Peschiera",
      "lat": 40.358909,
      "lon": 16.495338,
      "type": "core",
      "visibility": "classica",
      "tags": [
        "name=Craco Peschiera",
        "place=village",
        "wikidata=Q18428680"
      ],
      "score": 18
    },
    {
      "id": "node:5187126461",
      "name": "Monte San Michele",
      "lat": 40.935427,
      "lon": 15.6270161,
      "type": "core",
      "visibility": "classica",
      "tags": [
        "ele=1262",
        "name=Monte San Michele",
        "natural=peak",
        "wikidata=Q31663481"
      ],
      "score": 18
    },
    {
      "id": "node:5575539966",
      "name": "Lucania Outdoor Park",
      "lat": 40.5332306,
      "lon": 16.1168523,
      "type": "core",
      "visibility": "classica",
      "tags": [
        "access=yes",
        "description=Parco Avventura",
        "name=Lucania Outdoor Park",
        "tourism=theme_park"
      ],
      "score": 18
    },
    {
      "id": "node:8224724392",
      "name": "Monte Caruso",
      "lat": 40.7625691,
      "lon": 15.7157761,
      "type": "core",
      "visibility": "classica",
      "tags": [
        "ele=1238",
        "name=Monte Caruso",
        "natural=peak",
        "wikidata=Q3861414"
      ],
      "score": 18
    },
    {
      "id": "node:8334213553",
      "name": "Scalo di Baragiano",
      "lat": 40.6932846,
      "lon": 15.574716,
      "type": "core",
      "visibility": "classica",
      "tags": [
        "name=Scalo di Baragiano",
        "place=village",
        "wikidata=Q18429114"
      ],
      "score": 18
    },
    {
      "id": "node:8874840058",
      "name": "Serra di Castrocucco",
      "lat": 39.9506774,
      "lon": 15.7503885,
      "type": "core",
      "visibility": "classica",
      "tags": [
        "name=Serra di Castrocucco",
        "natural=peak",
        "wikidata=Q3957970"
      ],
      "score": 18
    },
    {
      "id": "node:9306695398",
      "name": "Piscina LaTorraca",
      "lat": 40.9275535,
      "lon": 15.9683778,
      "type": "core",
      "visibility": "classica",
      "tags": [
        "leisure=water_park",
        "name=Piscina LaTorraca"
      ],
      "score": 18
    },
    {
      "id": "node:9554118533",
      "name": "Monte Calvario",
      "lat": 40.1950321,
      "lon": 16.4231847,
      "type": "core",
      "visibility": "classica",
      "tags": [
        "ele=777",
        "name=Monte Calvario",
        "natural=peak",
        "wikidata=Q3861283"
      ],
      "score": 18
    },
    {
      "id": "node:11144624107",
      "name": "Tito Scalo",
      "lat": 40.6097783,
      "lon": 15.6980118,
      "type": "core",
      "visibility": "classica",
      "tags": [
        "name=Tito Scalo",
        "place=village",
        "population=1500",
        "postal_code=85050",
        "wikidata=Q3991898",
        "wikipedia=it:Tito Scalo"
      ],
      "score": 18
    },
    {
      "id": "way:32959895",
      "name": "Lago di San Giuliano",
      "lat": 40.609001,
      "lon": 16.4999391,
      "type": "core",
      "visibility": "classica",
      "tags": [
        "name=Lago di San Giuliano",
        "natural=water",
        "source=Landsat",
        "water=reservoir",
        "wikidata=Q3936946",
        "wikipedia=it:Riserva regionale San Giuliano"
      ],
      "score": 18
    },
    {
      "id": "way:70381694",
      "name": "Basento",
      "lat": 40.3468527,
      "lon": 16.8083821,
      "type": "core",
      "visibility": "classica",
      "tags": [
        "intermittent=yes",
        "name=Basento",
        "natural=water",
        "water=river",
        "wikidata=Q791190"
      ],
      "score": 18
    },
    {
      "id": "way:113273689",
      "name": "Invaso di Cogliandrino",
      "lat": 40.0821751,
      "lon": 15.9294299,
      "type": "core",
      "visibility": "classica",
      "tags": [
        "name=Invaso di Cogliandrino",
        "natural=water",
        "water=reservoir",
        "wikidata=Q52590",
        "wikipedia=it:Lauria#Invaso di Cogliandrino"
      ],
      "score": 18
    },
    {
      "id": "way:125391115",
      "name": "Diga di Acerenza",
      "lat": 40.7759039,
      "lon": 15.9146534,
      "type": "core",
      "visibility": "classica",
      "tags": [
        "name=Diga di Acerenza",
        "natural=water",
        "water=reservoir",
        "wikidata=Q3825897",
        "wikipedia=it:Lago di Acerenza"
      ],
      "score": 18
    },
    {
      "id": "way:155342053",
      "name": "Lago Frontetusio",
      "lat": 40.9153284,
      "lon": 15.9513303,
      "type": "core",
      "visibility": "classica",
      "tags": [
        "name=Lago Frontetusio",
        "natural=water",
        "water=basin",
        "wikidata=Q67130929"
      ],
      "score": 18
    },
    {
      "id": "way:195820259",
      "name": "Lago Salinella",
      "lat": 40.3996258,
      "lon": 16.8629787,
      "type": "core",
      "visibility": "classica",
      "tags": [
        "boat=no",
        "name=Lago Salinella",
        "natural=water",
        "wikidata=Q3825773"
      ],
      "score": 18
    },
    {
      "id": "way:242363549",
      "name": "Chiesa di San Giovanni Battista",
      "lat": 40.6677738,
      "lon": 16.6079389,
      "type": "core",
      "visibility": "classica",
      "tags": [
        "amenity=place_of_worship",
        "building=church",
        "check_date=2024-09-17",
        "denomination=catholic",
        "historic=yes",
        "name=Chiesa di San Giovanni Battista",
        "religion=christian",
        "roof:shape=gabled",
        "start_date=1233",
        "tourism=attraction",
        "website=https://www.wikimatera.it/cosa-vedere-a-matera/la-cattedrale-le-chiese-ed-i-santuari-di-matera/chiesa-di-san-giovanni-battista/",
        "wheelchair=yes",
        "wikidata=Q3581896",
        "wikimedia_commons=Category:San Giovanni Battista (Matera)",
        "wikipedia=it:Chiesa di San Giovanni Battista (Matera)"
      ],
      "score": 18
    },
    {
      "id": "way:243141983",
      "name": "Madonna de Idris e San Giovanni in Monterrone",
      "lat": 40.6640816,
      "lon": 16.6120909,
      "type": "core",
      "visibility": "classica",
      "tags": [
        "amenity=place_of_worship",
        "building=church",
        "check_date=2022-06-12",
        "denomination=catholic",
        "description=S. Maria de Idris",
        "email=info@oltrelartematera.it",
        "fee=yes",
        "historic=yes",
        "internet_access=no",
        "name=Madonna de Idris e San Giovanni in Monterrone",
        "operator=Oltre L'arte Società cooperativa arl",
        "payment:cards=no",
        "payment:credit_cards=no",
        "payment:debit_cards=no",
        "phone=+39 366 223 0517",
        "phone:mobile=+39 335 5346892",
        "religion=christian",
        "roof:shape=onion",
        "tourism=attraction",
        "website=https://www.oltrelartematera.it/",
        "wheelchair=no",
        "wikidata=Q3674049",
        "wikipedia=it:Chiesa di Santa Maria di Idris"
      ],
      "score": 18
    },
    {
      "id": "way:244337364",
      "name": "Lago della Rotonda",
      "lat": 40.0566139,
      "lon": 15.8783489,
      "type": "core",
      "visibility": "classica",
      "tags": [
        "ele=914",
        "name=Lago della Rotonda",
        "natural=water",
        "water=pond",
        "wikidata=Q52590",
        "wikipedia=it:Lauria#Lago della Rotonda"
      ],
      "score": 18
    },
    {
      "id": "way:244636560",
      "name": "Casa Cava",
      "lat": 40.6685083,
      "lon": 16.6092326,
      "type": "core",
      "visibility": "classica",
      "tags": [
        "building=yes",
        "building:colour=#d6bd94",
        "building:material=stone",
        "name=Casa Cava",
        "roof:colour=#c9be93",
        "roof:material=roof_tiles",
        "tourism=attraction",
        "website=https://www.wikimatera.it/cosa-vedere-a-matera/matera-sotterranea-gioielli-nelle-viscere-della-terra/casa-cava-un-teatro-scavato-nella-roccia/",
        "wikidata=Q29904967"
      ],
      "score": 18
    },
    {
      "id": "way:261545635",
      "name": "Acqua Park Val d'Agri",
      "lat": 40.3255327,
      "lon": 15.7612233,
      "type": "core",
      "visibility": "classica",
      "tags": [
        "leisure=water_park",
        "name=Acqua Park Val d'Agri",
        "operator=Contrada Caranna",
        "phone=+39 0975 353974",
        "wheelchair=yes"
      ],
      "score": 18
    },
    {
      "id": "way:267434027",
      "name": "Lago di San Giuliano",
      "lat": 40.5916583,
      "lon": 16.5225098,
      "type": "core",
      "visibility": "classica",
      "tags": [
        "name=Lago di San Giuliano",
        "natural=water",
        "wikidata=Q3936946",
        "wikipedia=it:Riserva regionale San Giuliano"
      ],
      "score": 18
    },
    {
      "id": "way:586067088",
      "name": "Abbazia di San Michele",
      "lat": 40.9353685,
      "lon": 15.6164634,
      "type": "core",
      "visibility": "classica",
      "tags": [
        "building=yes",
        "name=Abbazia di San Michele",
        "note=8 Maggio e 28 Settembre Festa di San Michele",
        "religion=christian",
        "tourism=attraction",
        "website=http://www.badiasanmichele.it/badiasanmichele/Homepage.html",
        "wikidata=Q19545267",
        "wikipedia=it:Abbazia di San Michele Arcangelo (Monticchio)"
      ],
      "score": 18
    },
    {
      "id": "relation:3274279",
      "name": "Convento di Sant'Agostino",
      "lat": 40.6703485,
      "lon": 16.6100307,
      "type": "core",
      "visibility": "classica",
      "tags": [
        "amenity=place_of_worship",
        "building=church",
        "denomination=catholic",
        "historic=yes",
        "layer=1",
        "name=Convento di Sant'Agostino",
        "religion=christian",
        "start_date=1592",
        "tourism=attraction",
        "type=multipolygon",
        "website=https://www.isassidimatera.com/chiesa-sant-agostino/",
        "wikidata=Q3689590",
        "wikimedia_commons=Category:Sant'Agostino (Matera)",
        "wikipedia=it:Convento di Sant'Agostino (Matera)"
      ],
      "score": 18
    },
    {
      "id": "relation:11851178",
      "name": "Lago di Monte Cotugno",
      "lat": 40.1681766,
      "lon": 16.3249968,
      "type": "core",
      "visibility": "classica",
      "tags": [
        "intermittent=yes",
        "name=Lago di Monte Cotugno",
        "natural=water",
        "type=multipolygon",
        "water=reservoir",
        "wikidata=Q29110140"
      ],
      "score": 18
    },
    {
      "id": "node:391671264",
      "name": "Panorama",
      "lat": 40.6152658,
      "lon": 16.1424734,
      "type": "core",
      "visibility": "classica",
      "tags": [
        "name=Panorama",
        "tourism=viewpoint"
      ],
      "score": 16
    },
    {
      "id": "node:391673879",
      "name": "Panorama",
      "lat": 40.6182108,
      "lon": 16.1232075,
      "type": "core",
      "visibility": "classica",
      "tags": [
        "name=Panorama",
        "tourism=viewpoint"
      ],
      "score": 16
    },
    {
      "id": "node:512512539",
      "name": "Abitazioni Rupestri",
      "lat": 40.9502154,
      "lon": 15.675558,
      "type": "core",
      "visibility": "classica",
      "tags": [
        "name=Abitazioni Rupestri",
        "tourism=viewpoint"
      ],
      "score": 16
    },
    {
      "id": "node:512529212",
      "name": "Cascata",
      "lat": 40.9573306,
      "lon": 15.556624,
      "type": "core",
      "visibility": "classica",
      "tags": [
        "name=Cascata",
        "tourism=viewpoint"
      ],
      "score": 16
    },
    {
      "id": "node:512544197",
      "name": "Basilica dell'incompiuta",
      "lat": 40.9690839,
      "lon": 15.8283603,
      "type": "core",
      "visibility": "classica",
      "tags": [
        "historic=ruins",
        "historic:civilization=medieval",
        "name=Basilica dell'incompiuta",
        "ruins=church"
      ],
      "score": 16
    },
    {
      "id": "node:1238539260",
      "name": "Torre di Satriano",
      "lat": 40.570056,
      "lon": 15.637759,
      "type": "core",
      "visibility": "classica",
      "tags": [
        "ele=955",
        "email=associazionememoria@gmail.com",
        "historic:civilization=medieval",
        "name=Torre di Satriano",
        "opening_hours=Sa-Su 10:00-13:00,17:00-19:00",
        "operator=Associazione Memorìa",
        "phone=+39 329 4588795",
        "tourism=museum",
        "website=http://www.torresatriano.it/",
        "wikidata=Q3950804",
        "wikipedia=it:Satrianum"
      ],
      "score": 16
    },
    {
      "id": "node:1675731754",
      "name": "villa romana detta casa del diavolo",
      "lat": 41.0577579,
      "lon": 15.7493479,
      "type": "core",
      "visibility": "classica",
      "tags": [
        "historic=ruins",
        "name=villa romana detta casa del diavolo"
      ],
      "score": 16
    },
    {
      "id": "node:1783143699",
      "name": "Femmina Morta",
      "lat": 40.9548203,
      "lon": 15.6169972,
      "type": "core",
      "visibility": "classica",
      "tags": [
        "ele=1040",
        "name=Femmina Morta",
        "tourism=viewpoint"
      ],
      "score": 16
    },
    {
      "id": "node:1827346327",
      "name": "Cascàté dé i innammuruàtè",
      "lat": 40.8152918,
      "lon": 15.5287672,
      "type": "core",
      "visibility": "classica",
      "tags": [
        "name=Cascàté dé i innammuruàtè",
        "tourism=viewpoint",
        "waterway=waterfall"
      ],
      "score": 16
    },
    {
      "id": "node:1827346357",
      "name": "Cascate de U Uatténniéré",
      "lat": 40.8155102,
      "lon": 15.5296633,
      "type": "core",
      "visibility": "classica",
      "tags": [
        "name=Cascate de U Uatténniéré",
        "tourism=viewpoint",
        "waterway=waterfall"
      ],
      "score": 16
    },
    {
      "id": "node:1829831401",
      "name": "Osservatore Solitario",
      "lat": 40.6324749,
      "lon": 15.7990931,
      "type": "core",
      "visibility": "classica",
      "tags": [
        "name=Osservatore Solitario",
        "tourism=viewpoint"
      ],
      "score": 16
    },
    {
      "id": "node:1908450105",
      "name": "Cascàté dé U Paravisé",
      "lat": 40.8100764,
      "lon": 15.51909,
      "type": "core",
      "visibility": "classica",
      "tags": [
        "name=Cascàté dé U Paravisé",
        "tourism=viewpoint"
      ],
      "score": 16
    },
    {
      "id": "node:2228725325",
      "name": "belvedere",
      "lat": 40.4856934,
      "lon": 15.7382407,
      "type": "core",
      "visibility": "classica",
      "tags": [
        "name=belvedere",
        "tourism=viewpoint"
      ],
      "score": 16
    },
    {
      "id": "node:2229569449",
      "name": "Belvedere Piazza Pascoli",
      "lat": 40.6632452,
      "lon": 16.6103143,
      "type": "core",
      "visibility": "classica",
      "tags": [
        "name=Belvedere Piazza Pascoli",
        "tourism=viewpoint",
        "wheelchair=no"
      ],
      "score": 16
    },
    {
      "id": "node:2229573388",
      "name": "Belvedere \"Luigi Guerricchio\"",
      "lat": 40.666815,
      "lon": 16.6067997,
      "type": "core",
      "visibility": "classica",
      "tags": [
        "description=Affaccio pittoresco sui Sassi di Matera.",
        "image=https://www.flickr.com/gp/190390436@N05/18543d5F12",
        "image1=https://www.flickr.com/gp/190390436@N05/JK69127776",
        "name=Belvedere \"Luigi Guerricchio\"",
        "source=local knowledge",
        "tourism=viewpoint",
        "wheelchair=yes"
      ],
      "score": 16
    },
    {
      "id": "node:2229592221",
      "name": "Musma",
      "lat": 40.6661178,
      "lon": 16.6122514,
      "type": "core",
      "visibility": "classica",
      "tags": [
        "addr:city=Matera",
        "addr:postcode=75100",
        "addr:street=Via San Giacomo",
        "alt_name=Museo della Scultura Contemporanea",
        "fee=yes",
        "name=Musma",
        "opening_hours=Mo-Su 10:00-18:00",
        "operator=Fondazione Zetema",
        "phone=+39 366 935 7768",
        "tourism=museum",
        "website=https://www.musma.it/",
        "wikidata=Q3841681",
        "wikipedia=it:MUSMA"
      ],
      "score": 16
    },
    {
      "id": "node:2232216523",
      "name": "punto panoramico",
      "lat": 40.5421939,
      "lon": 16.1372276,
      "type": "core",
      "visibility": "classica",
      "tags": [
        "name=punto panoramico",
        "tourism=viewpoint"
      ],
      "score": 16
    },
    {
      "id": "node:2242851270",
      "name": "tomba di Marcello",
      "lat": 40.9627269,
      "lon": 15.814994,
      "type": "core",
      "visibility": "classica",
      "tags": [
        "historic=archaeological_site",
        "name=tomba di Marcello"
      ],
      "score": 16
    },
    {
      "id": "node:2242983446",
      "name": "Complesso episcopale",
      "lat": 40.9688214,
      "lon": 15.8278034,
      "type": "core",
      "visibility": "classica",
      "tags": [
        "historic=archaeological_site",
        "historic:civilization=ancient_roman",
        "name=Complesso episcopale"
      ],
      "score": 16
    },
    {
      "id": "node:2265264378",
      "name": "Museo Archeologico Nazionale di Muro Lucano",
      "lat": 40.7533257,
      "lon": 15.4883444,
      "type": "core",
      "visibility": "classica",
      "tags": [
        "addr:city=Muro Lucano",
        "addr:housenumber=6",
        "addr:postcode=85054",
        "addr:street=Via Seminario",
        "email=pm-bas.museomurolucano@beniculturali.it",
        "museum=archaeological",
        "name=Museo Archeologico Nazionale di Muro Lucano",
        "opening_hours=Mo-Tu 09:00-13:00,14:00-16:30; We-Fr 09:00-13:00; Sa-Su \"by appointment\"",
        "operator=MIBACT",
        "operator:type=public",
        "phone=+39 0976 71778",
        "tourism=museum",
        "website=http://musei.beniculturali.it/musei?mid=74&nome=museo-archeologico-nazionale-di-muro-lucano",
        "wikidata=Q55340376"
      ],
      "score": 16
    },
    {
      "id": "node:2281927235",
      "name": "Museo archeologico nazionale del melfese",
      "lat": 40.9981803,
      "lon": 15.6530768,
      "type": "core",
      "visibility": "classica",
      "tags": [
        "addr:city=Melfi",
        "addr:postcode=85025",
        "addr:street=Via Normanni",
        "email=drm-bas.museomelfi@cultura.gov.it",
        "fee=yes",
        "museum=archaeological",
        "name=Museo archeologico nazionale del melfese",
        "opening_hours=Mo 14:00-20:00; Tu-Su 09:00-20:00",
        "operator=MIBACT",
        "operator:type=public",
        "phone=+39 0972 238726",
        "toilets=yes",
        "tourism=museum",
        "website=https://museomassimopallottino.beniculturali.it/",
        "wheelchair=limited",
        "wikidata=Q3867703",
        "wikipedia=it:Museo archeologico nazionale del Melfese"
      ],
      "score": 16
    },
    {
      "id": "node:2454387318",
      "name": "Fosso del Bersagliere",
      "lat": 40.3109122,
      "lon": 16.2317144,
      "type": "core",
      "visibility": "classica",
      "tags": [
        "direction=270",
        "name=Fosso del Bersagliere",
        "tourism=viewpoint"
      ],
      "score": 16
    },
    {
      "id": "node:2512591812",
      "name": "Belvedere",
      "lat": 40.6688313,
      "lon": 16.6092316,
      "type": "core",
      "visibility": "classica",
      "tags": [
        "alt_name=via Santa Cesarea",
        "name=Belvedere",
        "tourism=viewpoint"
      ],
      "score": 16
    },
    {
      "id": "node:2620348934",
      "name": "Masso dei Gallesi",
      "lat": 40.3975874,
      "lon": 15.8374941,
      "type": "core",
      "visibility": "classica",
      "tags": [
        "name=Masso dei Gallesi",
        "sport=climbing",
        "tourism=viewpoint"
      ],
      "score": 16
    },
    {
      "id": "node:2620348939",
      "name": "Masso delle Volpi",
      "lat": 40.3988915,
      "lon": 15.8355268,
      "type": "core",
      "visibility": "classica",
      "tags": [
        "name=Masso delle Volpi",
        "sport=climbing",
        "tourism=viewpoint"
      ],
      "score": 16
    },
    {
      "id": "node:2984712148",
      "name": "La Neviera",
      "lat": 40.6815852,
      "lon": 15.9212852,
      "type": "core",
      "visibility": "classica",
      "tags": [
        "historic=ruins",
        "name=La Neviera",
        "ruins=yes"
      ],
      "score": 16
    },
    {
      "id": "node:3213401412",
      "name": "Chiesa Rupestre ARMENIA",
      "lat": 40.8639644,
      "lon": 15.843876,
      "type": "core",
      "visibility": "classica",
      "tags": [
        "addr:city=Forenza",
        "addr:postcode=85023",
        "historic=archaeological_site",
        "name=Chiesa Rupestre ARMENIA"
      ],
      "score": 16
    },
    {
      "id": "node:3441444837",
      "name": "Casoni di Corbo",
      "lat": 40.8259157,
      "lon": 15.7081968,
      "type": "core",
      "visibility": "classica",
      "tags": [
        "historic=ruins",
        "name=Casoni di Corbo"
      ],
      "score": 16
    },
    {
      "id": "node:3642819435",
      "name": "Affaccio panoramico dalle terrazze del Rione \"Torre\"",
      "lat": 40.5580449,
      "lon": 16.6615311,
      "type": "core",
      "visibility": "classica",
      "tags": [
        "direction=220",
        "name=Affaccio panoramico dalle terrazze del Rione \"Torre\"",
        "tourism=viewpoint"
      ],
      "score": 16
    },
    {
      "id": "node:3642819436",
      "name": "Affaccio panoramico da Porta S. Angelo",
      "lat": 40.5587948,
      "lon": 16.6635744,
      "type": "core",
      "visibility": "classica",
      "tags": [
        "direction=0",
        "name=Affaccio panoramico da Porta S. Angelo",
        "tourism=viewpoint"
      ],
      "score": 16
    },
    {
      "id": "node:3647861692",
      "name": "Ipogei Piazza Vittorio Veneto",
      "lat": 40.6668831,
      "lon": 16.6065019,
      "type": "core",
      "visibility": "classica",
      "tags": [
        "historic=ruins",
        "name=Ipogei Piazza Vittorio Veneto",
        "name:it=Antico Quartiere dei Sassi",
        "note=No longer used, but Matera's ingenious underground water cisterns were estimated to hold 5000m3 when they were full. There are guided visits several times daily."
      ],
      "score": 16
    },
    {
      "id": "node:3698670645",
      "name": "Castello - Palazzo Bernardi",
      "lat": 40.282693,
      "lon": 16.1662768,
      "type": "core",
      "visibility": "classica",
      "tags": [
        "historic=castle",
        "name=Castello - Palazzo Bernardi"
      ],
      "score": 16
    },
    {
      "id": "node:3726125820",
      "name": "Cascate \"U Vértòné\"",
      "lat": 40.816652,
      "lon": 15.5362649,
      "type": "core",
      "visibility": "classica",
      "tags": [
        "name=Cascate \"U Vértòné\"",
        "tourism=viewpoint"
      ],
      "score": 16
    },
    {
      "id": "node:3793080662",
      "name": "Sito archeologico di Monte Torretta",
      "lat": 40.7860856,
      "lon": 15.8183151,
      "type": "core",
      "visibility": "classica",
      "tags": [
        "ele=1075",
        "historic=archaeological_site",
        "name=Sito archeologico di Monte Torretta"
      ],
      "score": 16
    },
    {
      "id": "node:3880594619",
      "name": "Domus con mosaici",
      "lat": 40.2837302,
      "lon": 15.9056586,
      "type": "core",
      "visibility": "classica",
      "tags": [
        "historic=ruins",
        "name=Domus con mosaici"
      ],
      "score": 16
    },
    {
      "id": "node:3880594620",
      "name": "foro",
      "lat": 40.2854366,
      "lon": 15.9071231,
      "type": "core",
      "visibility": "classica",
      "tags": [
        "historic=ruins",
        "name=foro"
      ],
      "score": 16
    },
    {
      "id": "node:3880594621",
      "name": "Terme maggiori",
      "lat": 40.2865147,
      "lon": 15.9090516,
      "type": "core",
      "visibility": "classica",
      "tags": [
        "historic=ruins",
        "historic:civilization=ancient_roman",
        "name=Terme maggiori"
      ],
      "score": 16
    },
    {
      "id": "node:3905287004",
      "name": "Casalaspro",
      "lat": 40.7766489,
      "lon": 15.8647858,
      "type": "core",
      "visibility": "classica",
      "tags": [
        "historic=ruins",
        "name=Casalaspro"
      ],
      "score": 16
    },
    {
      "id": "node:3953999215",
      "name": "Ruderi della chiesa della SS Trinità",
      "lat": 40.6363898,
      "lon": 16.1553716,
      "type": "core",
      "visibility": "classica",
      "tags": [
        "access=yes",
        "historic=ruins",
        "historic:civilization=medieval",
        "name=Ruderi della chiesa della SS Trinità",
        "ruins=church"
      ],
      "score": 16
    },
    {
      "id": "node:4200659891",
      "name": "Belvedere su Rivello",
      "lat": 40.0728332,
      "lon": 15.750769,
      "type": "core",
      "visibility": "classica",
      "tags": [
        "name=Belvedere su Rivello",
        "tourism=viewpoint"
      ],
      "score": 16
    },
    {
      "id": "node:4321214486",
      "name": "Cozzo del Forno",
      "lat": 40.5145377,
      "lon": 16.5491859,
      "type": "core",
      "visibility": "classica",
      "tags": [
        "name=Cozzo del Forno",
        "tourism=viewpoint"
      ],
      "score": 16
    },
    {
      "id": "node:4327209985",
      "name": "Museo Archeologico Nazionale della Basilicata Dinu Adamesteanu",
      "lat": 40.6398227,
      "lon": 15.8062273,
      "type": "core",
      "visibility": "classica",
      "tags": [
        "addr:city=Potenza",
        "addr:housenumber=11",
        "addr:postcode=85100",
        "addr:street=Via Andrea Serrao",
        "email=pm-bas.museopotenza@beniculturali.it",
        "fee=yes",
        "museum=archaeological",
        "name=Museo Archeologico Nazionale della Basilicata Dinu Adamesteanu",
        "opening_hours=Mo 14:00-20:00; Tu-Su 09:00-20:00; Mo 09:00-13:59 off",
        "operator=MIBACT",
        "operator:type=public",
        "phone=+39 0971 21719",
        "tourism=museum",
        "website=http://musei.beniculturali.it/musei?mid=76&nome=museo-archeologico-nazionale-della-basilicata-dinu-adamesteanu",
        "wikidata=Q3867706",
        "wikipedia=it:Museo archeologico nazionale della Basilicata"
      ],
      "score": 16
    },
    {
      "id": "node:4357977093",
      "name": "Foce del fiume Bradano",
      "lat": 40.3870396,
      "lon": 16.8580893,
      "type": "core",
      "visibility": "classica",
      "tags": [
        "name=Foce del fiume Bradano",
        "tourism=viewpoint"
      ],
      "score": 16
    },
    {
      "id": "node:4455053469",
      "name": "Lago Laudemio",
      "lat": 40.1430755,
      "lon": 15.8360001,
      "type": "core",
      "visibility": "classica",
      "tags": [
        "name=Lago Laudemio",
        "tourism=viewpoint"
      ],
      "score": 16
    },
    {
      "id": "node:4491650394",
      "name": "Panorama sui Sasso",
      "lat": 40.6710195,
      "lon": 16.6178062,
      "type": "core",
      "visibility": "classica",
      "tags": [
        "name=Panorama sui Sasso",
        "name:it=Panorama sui Sasso",
        "tourism=viewpoint"
      ],
      "score": 16
    },
    {
      "id": "node:4510427293",
      "name": "Statua di San Michele",
      "lat": 40.542805,
      "lon": 15.552783,
      "type": "core",
      "visibility": "classica",
      "tags": [
        "addr:city=Sant'Angelo Le Fratte",
        "addr:postcode=85050",
        "addr:street=gelsi in croce",
        "amenity=tourism",
        "name=Statua di San Michele",
        "tourism=viewpoint"
      ],
      "score": 16
    },
    {
      "id": "node:4510705590",
      "name": "Belvedere Raffaele Giura Longo",
      "lat": 40.6662027,
      "lon": 16.6104865,
      "type": "core",
      "visibility": "classica",
      "tags": [
        "image=https://www.flickr.com/gp/190390436@N05/gggwp16q0d",
        "name=Belvedere Raffaele Giura Longo",
        "old_name=Belvedere via Duomo",
        "tourism=viewpoint",
        "wheelchair=yes"
      ],
      "score": 16
    },
    {
      "id": "node:4823650015",
      "name": "La Spiaggetta",
      "lat": 40.3072178,
      "lon": 16.7902833,
      "type": "core",
      "visibility": "classica",
      "tags": [
        "name=La Spiaggetta",
        "natural=beach"
      ],
      "score": 16
    },