{"id":"euuk_country_lu","name":"EU/UK — LU — Destinazioni (offline)","version":"1.0.0","updated_at":"2026-01-03","scope":"country","country":"LU","label":"LU (offline)","rules":{"mode":"car_only","offline_and_stable":true},"schema":{"place_fields":["id","name","type","area","country","lat","lon","tags","visibility","beauty_score","why"]},"places":[{"id":"gn_2960316","name":"Luxembourg","type":"citta","area":"LU","country":"LU","lat":49.60982,"lon":6.13268,"tags":["chicca","citta"],"visibility":"chicca","beauty_score":0.89,"why":["Meta selezionata automaticamente (offline).","Apri 'Cosa vedere' e 'Foto' per ispirarti subito."]},{"id":"gn_2960596","name":"Esch-sur-Alzette","type":"citta","area":"LU","country":"LU","lat":49.49583,"lon":5.98056,"tags":["chicca","citta"],"visibility":"chicca","beauty_score":0.86,"why":["Meta selezionata automaticamente (offline).","Apri 'Cosa vedere' e 'Foto' per ispirarti subito."]},{"id":"gn_2960634","name":"Dudelange","type":"citta","area":"LU","country":"LU","lat":49.48056,"lon":6.0875,"tags":["chicca","citta"],"visibility":"chicca","beauty_score":0.82,"why":["Meta selezionata automaticamente (offline).","Apri 'Cosa vedere' e 'Foto' per ispirarti subito."]},{"id":"gn_2960330","name":"Limpertsberg","type":"citta","area":"LU","country":"LU","lat":49.62083,"lon":6.12167,"tags":["chicca","citta","montagna"],"visibility":"chicca","beauty_score":0.81,"why":["Meta selezionata automaticamente (offline).","Apri 'Cosa vedere' e 'Foto' per ispirarti subito."]},{"id":"gn_2960380","name":"Kirchberg","type":"citta","area":"LU","country":"LU","lat":49.62389,"lon":6.14944,"tags":["chicca","citta","montagna"],"visibility":"chicca","beauty_score":0.81,"why":["Meta selezionata automaticamente (offline).","Apri 'Cosa vedere' e 'Foto' per ispirarti subito."]},{"id":"gn_12035866","name":"Bonnevoie-Sud","type":"citta","area":"LU","country":"LU","lat":49.59679,"lon":6.14719,"tags":["chicca","citta"],"visibility":"chicca","beauty_score":0.81,"why":["Meta selezionata automaticamente (offline).","Apri 'Cosa vedere' e 'Foto' per ispirarti subito."]},{"id":"gn_12035864","name":"Belair","type":"citta","area":"LU","country":"LU","lat":49.6116,"lon":6.10682,"tags":["chicca","citta"],"visibility":"chicca","beauty_score":0.81,"why":["Meta selezionata automaticamente (offline).","Apri 'Cosa vedere' e 'Foto' per ispirarti subito."]},{"id":"gn_12035865","name":"Gare","type":"citta","area":"LU","country":"LU","lat":49.60175,"lon":6.12971,"tags":["chicca","citta"],"visibility":"chicca","beauty_score":0.8,"why":["Meta selezionata automaticamente (offline).","Apri 'Cosa vedere' e 'Foto' per ispirarti subito."]},{"id":"gn_2960548","name":"Gasperich","type":"citta","area":"LU","country":"LU","lat":49.58556,"lon":6.12306,"tags":["chicca","citta"],"visibility":"chicca","beauty_score":0.8,"why":["Meta selezionata automaticamente (offline).","Apri 'Cosa vedere' e 'Foto' per ispirarti subito."]},{"id":"gn_2960800","name":"Belvaux","type":"citta","area":"LU","country":"LU","lat":49.51014,"lon":5.92414,"tags":["chicca","citta"],"visibility":"chicca","beauty_score":0.79,"why":["Meta selezionata automaticamente (offline).","Apri 'Cosa vedere' e 'Foto' per ispirarti subito."]},{"id":"gn_2960102","name":"Schifflange","type":"citta","area":"LU","country":"LU","lat":49.50639,"lon":6.01278,"tags":["chicca","citta"],"visibility":"chicca","beauty_score":0.79,"why":["Meta selezionata automaticamente (offline).","Apri 'Cosa vedere' e 'Foto' per ispirarti subito."]},{"id":"gn_2960010","name":"Walferdange","type":"borgo","area":"LU","country":"LU","lat":49.66321,"lon":6.13224,"tags":["chicca","borgo"],"visibility":"chicca","beauty_score":0.76,"why":["Meta selezionata automaticamente (offline).","Apri 'Cosa vedere' e 'Foto' per ispirarti subito."]},{"id":"gn_2960439","name":"Hollerich","type":"borgo","area":"LU","country":"LU","lat":49.60314,"lon":6.11423,"tags":["chicca","borgo"],"visibility":"chicca","beauty_score":0.76,"why":["Meta selezionata automaticamente (offline).","Apri 'Cosa vedere' e 'Foto' per ispirarti subito."]},{"id":"gn_2960143","name":"Rodange","type":"borgo","area":"LU","country":"LU","lat":49.54639,"lon":5.84083,"tags":["chicca","borgo"],"visibility":"chicca","beauty_score":0.76,"why":["Meta selezionata automaticamente (offline).","Apri 'Cosa vedere' e 'Foto' per ispirarti subito."]},{"id":"gn_2960777","name":"Bettembourg","type":"borgo","area":"LU","country":"LU","lat":49.51861,"lon":6.10278,"tags":["chicca","borgo"],"visibility":"chicca","beauty_score":0.76,"why":["Meta selezionata automaticamente (offline).","Apri 'Cosa vedere' e 'Foto' per ispirarti subito."]},{"id":"gn_2960657","name":"Diekirch","type":"borgo","area":"LU","country":"LU","lat":49.86687,"lon":6.15451,"tags":["chicca","borgo"],"visibility":"chicca","beauty_score":0.75,"why":["Meta selezionata automaticamente (offline).","Apri 'Cosa vedere' e 'Foto' per ispirarti subito."]},{"id":"gn_2960187","name":"Pétange","type":"borgo","area":"LU","country":"LU","lat":49.55833,"lon":5.88056,"tags":["chicca","borgo"],"visibility":"chicca","beauty_score":0.75,"why":["Meta selezionata automaticamente (offline).","Apri 'Cosa vedere' e 'Foto' per ispirarti subito."]},{"id":"gn_12035863","name":"Neudorf-Weimershof","type":"borgo","area":"LU","country":"LU","lat":49.6256,"lon":6.16926,"tags":["chicca","borgo"],"visibility":"chicca","beauty_score":0.75,"why":["Meta selezionata automaticamente (offline).","Apri 'Cosa vedere' e 'Foto' per ispirarti subito."]},{"id":"gn_2960277","name":"Merl","type":"borgo","area":"LU","country":"LU","lat":49.60333,"lon":6.09556,"tags":["chicca","borgo"],"visibility":"chicca","beauty_score":0.75,"why":["Meta selezionata automaticamente (offline).","Apri 'Cosa vedere' e 'Foto' per ispirarti subito."]},{"id":"gn_12035868","name":"Cents","type":"borgo","area":"LU","country":"LU","lat":49.61707,"lon":6.16413,"tags":["chicca","borgo"],"visibility":"chicca","beauty_score":0.75,"why":["Meta selezionata automaticamente (offline).","Apri 'Cosa vedere' e 'Foto' per ispirarti subito."]},{"id":"gn_2960067","name":"Soleuvre","type":"borgo","area":"LU","country":"LU","lat":49.52148,"lon":5.93781,"tags":["chicca","borgo"],"visibility":"chicca","beauty_score":0.75,"why":["Meta selezionata automaticamente (offline).","Apri 'Cosa vedere' e 'Foto' per ispirarti subito."]},{"id":"gn_2960589","name":"Ettelbruck","type":"borgo","area":"LU","country":"LU","lat":49.8475,"lon":6.10417,"tags":["chicca","borgo"],"visibility":"chicca","beauty_score":0.75,"why":["Meta selezionata automaticamente (offline).","Apri 'Cosa vedere' e 'Foto' per ispirarti subito."]},{"id":"gn_2960054","name":"Strassen","type":"borgo","area":"LU","country":"LU","lat":49.62056,"lon":6.07333,"tags":["chicca","borgo"],"visibility":"chicca","beauty_score":0.75,"why":["Meta selezionata automaticamente (offline).","Apri 'Cosa vedere' e 'Foto' per ispirarti subito."]},{"id":"gn_7290933","name":"Howald","type":"borgo","area":"LU","country":"LU","lat":49.58387,"lon":6.14277,"tags":["chicca","borgo"],"visibility":"chicca","beauty_score":0.74,"why":["Meta selezionata automaticamente (offline).","Apri 'Cosa vedere' e 'Foto' per ispirarti subito."]},{"id":"gn_2960782","name":"Bertrange","type":"borgo","area":"LU","country":"LU","lat":49.61111,"lon":6.05,"tags":["chicca","borgo"],"visibility":"chicca","beauty_score":0.74,"why":["Meta selezionata automaticamente (offline).","Apri 'Cosa vedere' e 'Foto' per ispirarti subito."]},{"id":"gn_2960651","name":"Differdange","type":"borgo","area":"LU","country":"LU","lat":49.52417,"lon":5.89139,"tags":["chicca","borgo"],"visibility":"chicca","beauty_score":0.74,"why":["Meta selezionata automaticamente (offline).","Apri 'Cosa vedere' e 'Foto' per ispirarti subito."]},{"id":"gn_2960107","name":"Schengen","type":"borgo","area":"LU","country":"LU","lat":49.47,"lon":6.362,"tags":["chicca","borgo"],"visibility":"chicca","beauty_score":0.74,"why":["Meta selezionata automaticamente (offline).","Apri 'Cosa vedere' e 'Foto' per ispirarti subito."]},{"id":"gn_2960694","name":"Cessange","type":"borgo","area":"LU","country":"LU","lat":49.58944,"lon":6.10694,"tags":["chicca","borgo"],"visibility":"chicca","beauty_score":0.74,"why":["Meta selezionata automaticamente (offline).","Apri 'Cosa vedere' e 'Foto' per ispirarti subito."]},{"id":"gn_2960515","name":"Grevenmacher","type":"borgo","area":"LU","country":"LU","lat":49.67751,"lon":6.44022,"tags":["chicca","borgo"],"visibility":"chicca","beauty_score":0.74,"why":["Meta selezionata automaticamente (offline).","Apri 'Cosa vedere' e 'Foto' per ispirarti subito."]},{"id":"gn_2960299","name":"Mamer","type":"borgo","area":"LU","country":"LU","lat":49.6275,"lon":6.02333,"tags":["chicca","borgo"],"visibility":"chicca","beauty_score":0.74,"why":["Meta selezionata automaticamente (offline).","Apri 'Cosa vedere' e 'Foto' per ispirarti subito."]},{"id":"gn_12035861","name":"Rollingergrund-Belair-Nord","type":"borgo","area":"LU","country":"LU","lat":49.6332,"lon":6.09291,"tags":["chicca","borgo"],"visibility":"chicca","beauty_score":0.74,"why":["Meta selezionata automaticamente (offline).","Apri 'Cosa vedere' e 'Foto' per ispirarti subito."]},{"id":"gn_2959977","name":"Wiltz","type":"borgo","area":"LU","country":"LU","lat":49.96547,"lon":5.9339,"tags":["chicca","borgo"],"visibility":"chicca","beauty_score":0.74,"why":["Meta selezionata automaticamente (offline).","Apri 'Cosa vedere' e 'Foto' per ispirarti subito."]},{"id":"gn_2960630","name":"Echternach","type":"borgo","area":"LU","country":"LU","lat":49.81212,"lon":6.41846,"tags":["chicca","borgo"],"visibility":"chicca","beauty_score":0.74,"why":["Meta selezionata automaticamente (offline).","Apri 'Cosa vedere' e 'Foto' per ispirarti subito."]},{"id":"gn_2960207","name":"Obercorn","type":"borgo","area":"LU","country":"LU","lat":49.51361,"lon":5.89611,"tags":["chicca","borgo"],"visibility":"chicca","beauty_score":0.73,"why":["Meta selezionata automaticamente (offline).","Apri 'Cosa vedere' e 'Foto' per ispirarti subito."]},{"id":"gn_2960795","name":"Béreldange","type":"borgo","area":"LU","country":"LU","lat":49.65507,"lon":6.11874,"tags":["chicca","borgo"],"visibility":"chicca","beauty_score":0.73,"why":["Meta selezionata automaticamente (offline).","Apri 'Cosa vedere' e 'Foto' per ispirarti subito."]},{"id":"gn_2960815","name":"Bascharage","type":"borgo","area":"LU","country":"LU","lat":49.56727,"lon":5.9073,"tags":["chicca","borgo"],"visibility":"chicca","beauty_score":0.73,"why":["Meta selezionata automaticamente (offline).","Apri 'Cosa vedere' e 'Foto' per ispirarti subito."]},{"id":"gn_12035867","name":"Bonnevoie-Nord-Verlorenkost","type":"borgo","area":"LU","country":"LU","lat":49.60431,"lon":6.14187,"tags":["chicca","borgo"],"visibility":"chicca","beauty_score":0.73,"why":["Meta selezionata automaticamente (offline).","Apri 'Cosa vedere' e 'Foto' per ispirarti subito."]},{"id":"gn_2960391","name":"Kayl","type":"borgo","area":"LU","country":"LU","lat":49.48917,"lon":6.03972,"tags":["chicca","borgo"],"visibility":"chicca","beauty_score":0.73,"why":["Meta selezionata automaticamente (offline).","Apri 'Cosa vedere' e 'Foto' per ispirarti subito."]},{"id":"gn_2960042","name":"Tétange","type":"borgo","area":"LU","country":"LU","lat":49.47583,"lon":6.04222,"tags":["chicca","borgo"],"visibility":"chicca","beauty_score":0.73,"why":["Meta selezionata automaticamente (offline).","Apri 'Cosa vedere' e 'Foto' per ispirarti subito."]},{"id":"gn_2960154","name":"Remich","type":"borgo","area":"LU","country":"LU","lat":49.545,"lon":6.36694,"tags":["chicca","borgo"],"visibility":"chicca","beauty_score":0.73,"why":["Meta selezionata automaticamente (offline).","Apri 'Cosa vedere' e 'Foto' per ispirarti subito."]},{"id":"gn_2960805","name":"Beggen","type":"borgo","area":"LU","country":"LU","lat":49.64506,"lon":6.12932,"tags":["chicca","borgo"],"visibility":"chicca","beauty_score":0.73,"why":["Meta selezionata automaticamente (offline).","Apri 'Cosa vedere' e 'Foto' per ispirarti subito."]},{"id":"gn_2960007","name":"Wasserbillig","type":"borgo","area":"LU","country":"LU","lat":49.71534,"lon":6.49861,"tags":["chicca","borgo"],"visibility":"chicca","beauty_score":0.72,"why":["Meta selezionata automaticamente (offline).","Apri 'Cosa vedere' e 'Foto' per ispirarti subito."]},{"id":"gn_2960276","name":"Mersch","type":"borgo","area":"LU","country":"LU","lat":49.75055,"lon":6.10627,"tags":["chicca","borgo"],"visibility":"chicca","beauty_score":0.72,"why":["Meta selezionata automaticamente (offline).","Apri 'Cosa vedere' e 'Foto' per ispirarti subito."]},{"id":"gn_2960720","name":"Bridel","type":"borgo","area":"LU","country":"LU","lat":49.65579,"lon":6.07999,"tags":["chicca","borgo"],"visibility":"chicca","beauty_score":0.72,"why":["Meta selezionata automaticamente (offline).","Apri 'Cosa vedere' e 'Foto' per ispirarti subito."]},{"id":"gn_12035862","name":"Ville Haute","type":"borgo","area":"LU","country":"LU","lat":49.61173,"lon":6.12648,"tags":["chicca","borgo"],"visibility":"chicca","beauty_score":0.72,"why":["Meta selezionata automaticamente (offline).","Apri 'Cosa vedere' e 'Foto' per ispirarti subito."]},{"id":"gn_2960258","name":"Mondercange","type":"borgo","area":"LU","country":"LU","lat":49.53306,"lon":5.98833,"tags":["chicca","borgo"],"visibility":"chicca","beauty_score":0.72,"why":["Meta selezionata automaticamente (offline).","Apri 'Cosa vedere' e 'Foto' per ispirarti subito."]},{"id":"gn_2960358","name":"Lamadelaine","type":"borgo","area":"LU","country":"LU","lat":49.54639,"lon":5.85639,"tags":["chicca","borgo"],"visibility":"chicca","beauty_score":0.72,"why":["Meta selezionata automaticamente (offline).","Apri 'Cosa vedere' e 'Foto' per ispirarti subito."]},{"id":"gn_2960228","name":"Niedercorn","type":"borgo","area":"LU","country":"LU","lat":49.53611,"lon":5.89306,"tags":["chicca","borgo"],"visibility":"chicca","beauty_score":0.72,"why":["Meta selezionata automaticamente (offline).","Apri 'Cosa vedere' e 'Foto' per ispirarti subito."]},{"id":"gn_2960468","name":"Helmsange","type":"borgo","area":"LU","country":"LU","lat":49.65278,"lon":6.14139,"tags":["chicca","borgo"],"visibility":"chicca","beauty_score":0.72,"why":["Meta selezionata automaticamente (offline).","Apri 'Cosa vedere' e 'Foto' per ispirarti subito."]},{"id":"gn_2960257","name":"Mondorf-les-Bains","type":"borgo","area":"LU","country":"LU","lat":49.505,"lon":6.28111,"tags":["chicca","borgo"],"visibility":"chicca","beauty_score":0.72,"why":["Meta selezionata automaticamente (offline).","Apri 'Cosa vedere' e 'Foto' per ispirarti subito."]},{"id":"gn_2960645","name":"Dommeldange","type":"borgo","area":"LU","country":"LU","lat":49.63411,"lon":6.13864,"tags":["chicca","borgo"],"visibility":"chicca","beauty_score":0.71,"why":["Meta selezionata automaticamente (offline).","Apri 'Cosa vedere' e 'Foto' per ispirarti subito."]},{"id":"gn_2960832","name":"Alzingen","type":"borgo","area":"LU","country":"LU","lat":49.565,"lon":6.16361,"tags":["chicca","borgo"],"visibility":"chicca","beauty_score":0.71,"why":["Meta selezionata automaticamente (offline).","Apri 'Cosa vedere' e 'Foto' per ispirarti subito."]},{"id":"gn_2960622","name":"Eich","type":"borgo","area":"LU","country":"LU","lat":49.62889,"lon":6.13194,"tags":["chicca","borgo"],"visibility":"chicca","beauty_score":0.71,"why":["Meta selezionata automaticamente (offline).","Apri 'Cosa vedere' e 'Foto' per ispirarti subito."]},{"id":"gn_2960584","name":"Fentange","type":"borgo","area":"LU","country":"LU","lat":49.56278,"lon":6.15389,"tags":["chicca","borgo"],"visibility":"chicca","beauty_score":0.71,"why":["Meta selezionata automaticamente (offline).","Apri 'Cosa vedere' e 'Foto' per ispirarti subito."]},{"id":"gn_2960759","name":"Bissen","type":"borgo","area":"LU","country":"LU","lat":49.78733,"lon":6.0654,"tags":["chicca","borgo"],"visibility":"chicca","beauty_score":0.71,"why":["Meta selezionata automaticamente (offline).","Apri 'Cosa vedere' e 'Foto' per ispirarti subito."]},{"id":"gn_2960117","name":"Sandweiler","type":"borgo","area":"LU","country":"LU","lat":49.61471,"lon":6.22221,"tags":["chicca","borgo"],"visibility":"chicca","beauty_score":0.71,"why":["Meta selezionata automaticamente (offline).","Apri 'Cosa vedere' e 'Foto' per ispirarti subito."]},{"id":"gn_2960251","name":"Muhlenbach","type":"borgo","area":"LU","country":"LU","lat":49.63167,"lon":6.11917,"tags":["chicca","borgo"],"visibility":"chicca","beauty_score":0.71,"why":["Meta selezionata automaticamente (offline).","Apri 'Cosa vedere' e 'Foto' per ispirarti subito."]},{"id":"gn_2960115","name":"Sanem","type":"borgo","area":"LU","country":"LU","lat":49.54806,"lon":5.92889,"tags":["chicca","borgo"],"visibility":"chicca","beauty_score":0.71,"why":["Meta selezionata automaticamente (offline).","Apri 'Cosa vedere' e 'Foto' per ispirarti subito."]},{"id":"gn_2959992","name":"Weimerskirch","type":"borgo","area":"LU","country":"LU","lat":49.62361,"lon":6.13639,"tags":["chicca","borgo"],"visibility":"chicca","beauty_score":0.71,"why":["Meta selezionata automaticamente (offline).","Apri 'Cosa vedere' e 'Foto' per ispirarti subito."]},{"id":"gn_2960410","name":"Itzig","type":"borgo","area":"LU","country":"LU","lat":49.58769,"lon":6.17065,"tags":["chicca","borgo"],"visibility":"chicca","beauty_score":0.7,"why":["Meta selezionata automaticamente (offline).","Apri 'Cosa vedere' e 'Foto' per ispirarti subito."]},{"id":"gn_2960697","name":"Capellen","type":"borgo","area":"LU","country":"LU","lat":49.645,"lon":5.99083,"tags":["chicca","borgo"],"visibility":"chicca","beauty_score":0.7,"why":["Meta selezionata automaticamente (offline).","Apri 'Cosa vedere' e 'Foto' per ispirarti subito."]},{"id":"gn_2960400","name":"Junglinster","type":"borgo","area":"LU","country":"LU","lat":49.70722,"lon":6.25306,"tags":["chicca","borgo"],"visibility":"chicca","beauty_score":0.7,"why":["Meta selezionata automaticamente (offline).","Apri 'Cosa vedere' e 'Foto' per ispirarti subito."]},{"id":"gn_2960133","name":"Rollingen","type":"borgo","area":"LU","country":"LU","lat":49.74167,"lon":6.11444,"tags":["chicca","borgo"],"visibility":"chicca","beauty_score":0.7,"why":["Meta selezionata automaticamente (offline).","Apri 'Cosa vedere' e 'Foto' per ispirarti subito."]},{"id":"gn_2960061","name":"Steinfort","type":"borgo","area":"LU","country":"LU","lat":49.66139,"lon":5.91917,"tags":["chicca","borgo"],"visibility":"chicca","beauty_score":0.7,"why":["Meta selezionata automaticamente (offline).","Apri 'Cosa vedere' e 'Foto' per ispirarti subito."]},{"id":"gn_2960618","name":"Eischen","type":"borgo","area":"LU","country":"LU","lat":49.68556,"lon":5.87861,"tags":["chicca","borgo"],"visibility":"chicca","beauty_score":0.7,"why":["Meta selezionata automaticamente (offline).","Apri 'Cosa vedere' e 'Foto' per ispirarti subito."]},{"id":"gn_2960021","name":"Vianden","type":"borgo","area":"LU","country":"LU","lat":49.935,"lon":6.20889,"tags":["chicca","borgo"],"visibility":"chicca","beauty_score":0.7,"why":["Meta selezionata automaticamente (offline).","Apri 'Cosa vedere' e 'Foto' per ispirarti subito."]},{"id":"gn_2960128","name":"Roodt-sur-Syre","type":"borgo","area":"LU","country":"LU","lat":49.66591,"lon":6.30257,"tags":["chicca","borgo"],"visibility":"chicca","beauty_score":0.7,"why":["Meta selezionata automaticamente (offline).","Apri 'Cosa vedere' e 'Foto' per ispirarti subito."]}]}