{"elements":[{"id":"osm_node_70990636","name":"Francavilla al Mare","lat":42.4168011,"lon":14.2914819,"type":"mare","visibility":"classica","tags":["place=town"]},{"id":"osm_node_245971954","name":"Pescara sud - Francavilla al Mare","lat":42.3945245,"lon":14.2888201,"type":"mare","visibility":"classica","tags":[]},{"id":"osm_node_276086708","name":"Teatro del Mare","lat":42.5199041,"lon":14.157411,"type":"mare","visibility":"classica","tags":["amenity=theatre"]},{"id":"osm_node_305461266","name":"Cafè del Mare","lat":42.5178199,"lon":14.1605111,"type":"mare","visibility":"classica","tags":["amenity=cafe"]},{"id":"osm_node_367744922","name":"Lido delle Sirene","lat":42.4550649,"lon":14.2399548,"type":"mare","visibility":"classica","tags":["leisure=beach_resort"]},{"id":"osm_node_376569696","name":"Pescara sud - Francavilla al Mare","lat":42.3998286,"lon":14.2841245,"type":"mare","visibility":"classica","tags":[]},{"id":"osm_node_426864691","name":"Lido Pinalba","lat":42.4888022,"lon":14.1914049,"type":"mare","visibility":"classica","tags":["leisure=beach_resort"]},{"id":"osm_node_426865853","name":"Baia Papaya","lat":42.4854921,"lon":14.1949585,"type":"mare","visibility":"classica","tags":["leisure=beach_resort"]},{"id":"osm_node_432860140","name":"Ai Caduti del Mare","lat":42.4225219,"lon":14.2890173,"type":"mare","visibility":"classica","tags":["historic=monument"]},{"id":"osm_node_443615295","name":"Francavilla al Mare","lat":42.4212652,"lon":14.2879487,"type":"mare","visibility":"classica","tags":[]},{"id":"osm_node_452996765","name":"Marese","lat":42.8688798,"lon":13.464543,"type":"mare","visibility":"classica","tags":["place=hamlet"]},{"id":"osm_node_452996771","name":"Ponte Marese","lat":42.8706437,"lon":13.4545273,"type":"mare","visibility":"classica","tags":["place=hamlet"]},{"id":"osm_node_501613746","name":"Voglia di Mare","lat":42.5033169,"lon":14.1755323,"type":"mare","visibility":"classica","tags":["leisure=beach_resort"]},{"id":"osm_node_501615028","name":"Stella del Mare","lat":42.5042497,"lon":14.1747146,"type":"mare","visibility":"classica","tags":["leisure=beach_resort"]},{"id":"osm_node_501634142","name":"Verdemare","lat":42.5049601,"lon":14.1740543,"type":"mare","visibility":"classica","tags":["leisure=beach_resort"]},{"id":"osm_node_597673746","name":"Casalbordino Lido","lat":42.1942432,"lon":14.6333032,"type":"mare","visibility":"classica","tags":["place=quarter"]},{"id":"osm_node_630781905","name":"Miramare","lat":42.4756336,"lon":14.2085227,"type":"mare","visibility":"classica","tags":["leisure=beach_resort"]},{"id":"osm_node_631557423","name":"La Brasserie sul Mare","lat":42.5100678,"lon":14.1688139,"type":"mare","visibility":"classica","tags":["amenity=restaurant"]},{"id":"osm_node_657932436","name":"Un mare di delizie","lat":42.516241,"lon":14.1598737,"type":"mare","visibility":"classica","tags":["amenity=restaurant"]},{"id":"osm_node_668617074","name":"Margazzill Idee dal Mare","lat":42.5053813,"lon":14.119871,"type":"mare","visibility":"classica","tags":["amenity=restaurant"]},{"id":"osm_node_688869705","name":"Profumi di Mare","lat":42.4546009,"lon":14.1899167,"type":"mare","visibility":"classica","tags":["amenity=restaurant"]},{"id":"osm_node_777991516","name":"Palombaia","lat":42.3260631,"lon":13.283006,"type":"mare","visibility":"classica","tags":["place=hamlet"]},{"id":"osm_node_777991678","name":"Palombaia di Sassa","lat":42.3584895,"lon":13.3148295,"type":"mare","visibility":"classica","tags":["place=village"]},{"id":"osm_node_900706748","name":"Mare Blu","lat":42.4362559,"lon":14.2645909,"type":"mare","visibility":"classica","tags":["tourism=hotel"]},{"id":"osm_node_900719092","name":"Caffetteria Bar del Mare","lat":42.4394532,"lon":14.2600215,"type":"mare","visibility":"classica","tags":["amenity=cafe"]},{"id":"osm_node_989246233","name":"Parco Giochi Mare","lat":42.4228383,"lon":14.2869167,"type":"mare","visibility":"classica","tags":["leisure=playground"]},{"id":"osm_node_1030471430","name":"Cologna Spiaggia","lat":42.7246645,"lon":13.9805542,"type":"mare","visibility":"classica","tags":["place=village"]},{"id":"osm_node_1395428147","name":"Tortoreto Lido","lat":42.8039627,"lon":13.9432708,"type":"mare","visibility":"classica","tags":["place=village"]},{"id":"osm_node_1508590309","name":"Palmarelli M.G.","lat":42.3514089,"lon":14.1759935,"type":"mare","visibility":"classica","tags":[]},{"id":"osm_node_1533342580","name":"Mare in collina","lat":42.3657326,"lon":14.1676268,"type":"mare","visibility":"classica","tags":["amenity=restaurant"]},{"id":"osm_node_2036644354","name":"Vallemare","lat":42.351751,"lon":14.1085651,"type":"mare","visibility":"classica","tags":["place=suburb"]},{"id":"osm_node_2036652011","name":"Scuola Elementare Vallemare","lat":42.3514776,"lon":14.1094885,"type":"mare","visibility":"classica","tags":["amenity=school"]},{"id":"osm_node_2088257300","name":"Ristorante Lido Serenella","lat":42.7468583,"lon":13.9753869,"type":"mare","visibility":"classica","tags":["amenity=restaurant"]},{"id":"osm_node_2326165030","name":"Lido pineta","lat":42.8224608,"lon":13.936613,"type":"mare","visibility":"classica","tags":["leisure=beach_resort"]},{"id":"osm_node_2430923373","name":"Ai Caduti del Mare","lat":42.2306977,"lon":14.5493808,"type":"mare","visibility":"classica","tags":["historic=memorial"]},{"id":"osm_node_2536844341","name":"Monte Marelli","lat":42.2926438,"lon":13.1161714,"type":"mare","visibility":"classica","tags":["natural=peak"]},{"id":"osm_node_2959729098","name":"Chalet Lido","lat":42.8607392,"lon":13.9264359,"type":"mare","visibility":"classica","tags":["leisure=beach_resort","amenity=restaurant"]},{"id":"osm_node_3010204344","name":"Vasto-Spiaggia di Casarza","lat":42.1182605,"lon":14.7188181,"type":"mare","visibility":"classica","tags":[]},{"id":"osm_node_3129245004","name":"Hotel Mare Blu","lat":42.5927905,"lon":14.0805516,"type":"mare","visibility":"classica","tags":["tourism=hotel"]},{"id":"osm_node_3129252604","name":"Mare Blu Resort","lat":42.5925165,"lon":14.0801753,"type":"mare","visibility":"classica","tags":["tourism=hotel"]},{"id":"osm_node_3309189980","name":"Hotel Miramare","lat":42.601317,"lon":14.0734731,"type":"mare","visibility":"classica","tags":["tourism=hotel"]},{"id":"osm_node_3309197515","name":"Hotel Miramare Dipendenza","lat":42.6011769,"lon":14.0735799,"type":"mare","visibility":"classica","tags":["tourism=hotel"]},{"id":"osm_node_3681928068","name":"Hotel Miramare","lat":42.307868,"lon":14.4457551,"type":"mare","visibility":"classica","tags":["tourism=hotel"]},{"id":"osm_node_3681989573","name":"Monumento ai Caduti in Mare","lat":42.3098743,"lon":14.4446588,"type":"mare","visibility":"classica","tags":["tourism=artwork"]},{"id":"osm_node_3681989574","name":"Granomare","lat":42.3090437,"lon":14.4455691,"type":"mare","visibility":"classica","tags":["amenity=restaurant"]},{"id":"osm_node_3683594919","name":"Gastropescheria \"Blu Mare\"","lat":42.3075249,"lon":14.4445004,"type":"mare","visibility":"classica","tags":[]},{"id":"osm_node_4369806050","name":"Vallemare","lat":42.4828142,"lon":13.1134678,"type":"mare","visibility":"classica","tags":["place=hamlet"]},{"id":"osm_node_4370242939","name":"Marechiaro","lat":42.7542291,"lon":13.9687306,"type":"mare","visibility":"classica","tags":["amenity=cafe"]},{"id":"osm_node_4370292688","name":"Lido Paola","lat":42.7486671,"lon":13.9738345,"type":"mare","visibility":"classica","tags":["leisure=beach_resort"]},{"id":"osm_node_4370292689","name":"Lido Cesare","lat":42.7482716,"lon":13.9741901,"type":"mare","visibility":"classica","tags":["leisure=beach_resort"]},{"id":"osm_node_4370292690","name":"Lido Arcobaleno","lat":42.7474183,"lon":13.9748993,"type":"mare","visibility":"classica","tags":["leisure=beach_resort"]},{"id":"osm_node_4370292691","name":"Lido Miramare","lat":42.7479541,"lon":13.974556,"type":"mare","visibility":"classica","tags":["leisure=beach_resort"]},{"id":"osm_node_4370292692","name":"Lido Negril","lat":42.745551,"lon":13.975932,"type":"mare","visibility":"classica","tags":["leisure=beach_resort"]},{"id":"osm_node_4377781086","name":"Palmaretta","lat":42.8187118,"lon":13.5071479,"type":"mare","visibility":"classica","tags":["place=hamlet"]},{"id":"osm_node_4390124918","name":"Tortoreto Lido","lat":42.7809173,"lon":13.9481584,"type":"mare","visibility":"classica","tags":[]},{"id":"osm_node_4390124919","name":"Tortoreto Lido","lat":42.812396,"lon":13.9306999,"type":"mare","visibility":"classica","tags":[]},{"id":"osm_node_4446541789","name":"Da Maurizio Cucina d'Amare","lat":42.8538026,"lon":13.5920142,"type":"mare","visibility":"classica","tags":[]},{"id":"osm_node_4451623689","name":"La perla del mare","lat":42.849814,"lon":13.6152449,"type":"mare","visibility":"classica","tags":[]},{"id":"osm_node_4493235744","name":"Spiaggia dei Libertini","lat":42.1781074,"lon":14.6891225,"type":"mare","visibility":"classica","tags":["natural=beach"]},{"id":"osm_node_4554042059","name":"Europa mare","lat":42.5170748,"lon":14.1618734,"type":"mare","visibility":"classica","tags":["amenity=restaurant"]},{"id":"osm_node_4554042304","name":"lido Tamanaco","lat":42.5215411,"lon":14.1570556,"type":"mare","visibility":"classica","tags":["leisure=beach_resort"]},{"id":"osm_node_4620311153","name":"Tensostruttura di Palombaia","lat":42.3288688,"lon":13.2826138,"type":"mare","visibility":"classica","tags":["amenity=social_facility"]},{"id":"osm_node_4870550762","name":"Albergo Celidonio","lat":42.0965946,"lon":14.0227576,"type":"mare","visibility":"classica","tags":["tourism=hotel"]},{"id":"osm_node_4879542128","name":"Mareri","lat":42.2665146,"lon":13.0903155,"type":"mare","visibility":"classica","tags":["place=hamlet"]},{"id":"osm_node_4879542149","name":"Castello di Mareri","lat":42.2670471,"lon":13.0900059,"type":"mare","visibility":"classica","tags":["historic=castle"]},{"id":"osm_node_4879542361","name":"Grotta di Santa Filippa Mareri","lat":42.2757674,"lon":13.0992932,"type":"mare","visibility":"classica","tags":["natural=cave_entrance"]},{"id":"osm_node_4887750524","name":"Lido delle Rose","lat":42.4353606,"lon":14.2677889,"type":"mare","visibility":"classica","tags":["leisure=beach_resort"]},{"id":"osm_node_4887750526","name":"Lido È Nata Una Stella","lat":42.4335386,"lon":14.270815,"type":"mare","visibility":"classica","tags":["leisure=beach_resort"]},{"id":"osm_node_4887750527","name":"Lido Bayahibe","lat":42.4351731,"lon":14.268076,"type":"mare","visibility":"classica","tags":["leisure=beach_resort"]},{"id":"osm_node_4950752721","name":"Lido di Itaca","lat":42.5814886,"lon":14.0929555,"type":"mare","visibility":"classica","tags":["amenity=restaurant"]},{"id":"osm_node_5032987521","name":"A un Passo dal Mare","lat":42.1943908,"lon":14.6333654,"type":"mare","visibility":"classica","tags":["amenity=restaurant"]},{"id":"osm_node_5105469855","name":"La Votte di Mare","lat":42.1128089,"lon":14.7111072,"type":"mare","visibility":"classica","tags":["amenity=restaurant"]},{"id":"osm_node_5478144521","name":"B&B Villa Maria al Mare","lat":42.2475358,"lon":14.5150961,"type":"mare","visibility":"classica","tags":["tourism=hostel"]},{"id":"osm_node_5592637102","name":"Ombrina Mare 2","lat":42.323409,"lon":14.533455,"type":"mare","visibility":"classica","tags":[]},{"id":"osm_node_5603492558","name":"Lido Venere","lat":42.561975,"lon":14.1098088,"type":"mare","visibility":"classica","tags":["leisure=beach_resort"]},{"id":"osm_node_5631233204","name":"Lido Las Vegas","lat":42.5603648,"lon":14.1118446,"type":"mare","visibility":"classica","tags":["leisure=beach_resort"]},{"id":"osm_node_5631233219","name":"Lido Baracoa Silvi","lat":42.5556054,"lon":14.1167611,"type":"mare","visibility":"classica","tags":["leisure=beach_resort"]},{"id":"osm_node_5631233230","name":"Lido Nettuno","lat":42.5594343,"lon":14.1126305,"type":"mare","visibility":"classica","tags":["leisure=beach_resort"]},{"id":"osm_node_5641426222","name":"Lido Olimpia","lat":42.5544566,"lon":14.1174754,"type":"mare","visibility":"classica","tags":["amenity=cafe"]},{"id":"osm_node_5641839621","name":"Relais Borgo sul Mare","lat":42.5643005,"lon":14.0908777,"type":"mare","visibility":"classica","tags":["tourism=guest_house"]},{"id":"osm_node_5831876541","name":"Collemare","lat":42.3252638,"lon":13.3027672,"type":"mare","visibility":"classica","tags":["place=hamlet"]},{"id":"osm_node_6166580082","name":"Vignola a Mare","lat":42.1448288,"lon":14.7173554,"type":"mare","visibility":"classica","tags":["place=neighbourhood"]},{"id":"osm_node_6166623552","name":"Spiaggia di San Nicola","lat":42.1323539,"lon":14.7195542,"type":"mare","visibility":"classica","tags":["natural=beach"]},{"id":"osm_node_6236579420","name":"Colle Amarena","lat":41.9283444,"lon":14.6476942,"type":"mare","visibility":"classica","tags":["natural=peak"]},{"id":"osm_node_6241789247","name":"Lido Riccio","lat":42.3808416,"lon":14.3675692,"type":"mare","visibility":"classica","tags":["place=hamlet"]},{"id":"osm_node_6253888743","name":"Contrada Montevecchio/Marina di Vasto-Lungomare","lat":42.0971521,"lon":14.7190612,"type":"mare","visibility":"classica","tags":[]},{"id":"osm_node_6337513640","name":"Fosso Mazzimarello","lat":42.027772,"lon":14.4415478,"type":"mare","visibility":"classica","tags":["place=locality"]},{"id":"osm_node_6341889403","name":"Tamarete","lat":42.3398083,"lon":14.3804368,"type":"mare","visibility":"classica","tags":["place=hamlet"]},{"id":"osm_node_6385250413","name":"Amarena","lat":41.9275786,"lon":14.6409761,"type":"mare","visibility":"classica","tags":["place=hamlet"]},{"id":"osm_node_6414944962","name":"Levante - Mare e  Monti","lat":42.347439,"lon":13.3983484,"type":"mare","visibility":"classica","tags":["amenity=restaurant"]},{"id":"osm_node_6465803229","name":"Fontana Celidona","lat":41.9761547,"lon":13.8265981,"type":"mare","visibility":"classica","tags":["amenity=drinking_water"]},{"id":"osm_node_6480662091","name":"Porticciolo dell'Acquabella","lat":42.3354867,"lon":14.4231361,"type":"mare","visibility":"classica","tags":["leisure=marina"]},{"id":"osm_node_6587235586","name":"Lido Eldorado","lat":42.345249,"lon":14.4122642,"type":"mare","visibility":"classica","tags":["leisure=beach_resort"]},{"id":"osm_node_6689714444","name":"Santa Chelidonia","lat":41.9536998,"lon":13.1045513,"type":"mare","visibility":"classica","tags":["historic=ruins","amenity=place_of_worship"]},{"id":"osm_node_6728440795","name":"Ai Caduti del Mare","lat":42.3527643,"lon":14.4042188,"type":"mare","visibility":"classica","tags":["historic=monument"]},{"id":"osm_node_6728450457","name":"Ai Lavoratori del Mare","lat":42.3527762,"lon":14.4042698,"type":"mare","visibility":"classica","tags":["historic=monument"]},{"id":"osm_node_6837245930","name":"Ristorante Mare Vivo","lat":42.4232856,"lon":14.1903143,"type":"mare","visibility":"classica","tags":["amenity=restaurant"]},{"id":"osm_node_6935822377","name":"Mazzeschi - Marella","lat":42.3473629,"lon":13.3981377,"type":"mare","visibility":"classica","tags":[]},{"id":"osm_node_7005947485","name":"Lungomare Cristoforo Colombo","lat":42.4604048,"lon":14.2313891,"type":"mare","visibility":"classica","tags":[]},{"id":"osm_node_7126292470","name":"Chitarrina Osteria di mare","lat":42.4617241,"lon":14.2123466,"type":"mare","visibility":"classica","tags":["amenity=restaurant"]},{"id":"osm_node_7366163668","name":"Il Gusto del Mare","lat":42.4600946,"lon":14.2253242,"type":"mare","visibility":"classica","tags":[]},{"id":"osm_node_7513572910","name":"Macelleria Polidori","lat":42.52529,"lon":13.2444303,"type":"mare","visibility":"classica","tags":[]},{"id":"osm_node_7526240620","name":"Profumi di mare","lat":42.4556948,"lon":14.2235878,"type":"mare","visibility":"classica","tags":["amenity=restaurant"]},{"id":"osm_node_7527233199","name":"Rifugiomare Agriturismo","lat":42.2729466,"lon":14.4940933,"type":"mare","visibility":"classica","tags":["tourism=guest_house"]},{"id":"osm_node_7538442240","name":"Baramares","lat":42.4044694,"lon":14.3206574,"type":"mare","visibility":"classica","tags":["amenity=restaurant"]},{"id":"osm_node_7581350084","name":"A Prua Mare","lat":42.4641895,"lon":14.2217145,"type":"mare","visibility":"classica","tags":["amenity=restaurant"]},{"id":"osm_node_7615776900","name":"Filippo Cucina Di Mare","lat":42.4617504,"lon":14.2255079,"type":"mare","visibility":"classica","tags":["amenity=restaurant"]},{"id":"osm_node_7630362568","name":"Loft \"Terrazza Mare & Monti\"","lat":42.2190537,"lon":14.2829753,"type":"mare","visibility":"classica","tags":["tourism=apartment"]},{"id":"osm_node_7643890913","name":"Stazione di Montesilvano Spiaggia","lat":42.5141768,"lon":14.1541096,"type":"mare","visibility":"classica","tags":[]},{"id":"osm_node_7658701929","name":"Ristorante Marechiaro da Bruno","lat":42.4711576,"lon":14.2156473,"type":"mare","visibility":"classica","tags":["amenity=restaurant"]},{"id":"osm_node_7658729114","name":"Lido Marechiaro","lat":42.4710037,"lon":14.2158963,"type":"mare","visibility":"classica","tags":["leisure=beach_resort"]},{"id":"osm_node_7671793112","name":"Arena del Mare","lat":42.4677431,"lon":14.2218272,"type":"mare","visibility":"classica","tags":["leisure=beach_resort"]},{"id":"osm_node_7672918769","name":"Lido Oriente","lat":42.4692648,"lon":14.2188678,"type":"mare","visibility":"classica","tags":["leisure=beach_resort"]},{"id":"osm_node_7684473842","name":"Lungomare Matteotti Civico 91","lat":42.471432,"lon":14.2148087,"type":"mare","visibility":"classica","tags":[]},{"id":"osm_node_7773774861","name":"Monumento ai caduti in mare","lat":42.7978427,"lon":13.9460122,"type":"mare","visibility":"classica","tags":["historic=memorial"]},{"id":"osm_node_7879204946","name":"Bar Pizzeria Mareblu","lat":42.4497423,"lon":14.246851,"type":"mare","visibility":"classica","tags":["amenity=restaurant"]},{"id":"osm_node_7886381995","name":"Caduti del mare","lat":42.4661552,"lon":14.2252981,"type":"mare","visibility":"classica","tags":["historic=monument"]},{"id":"osm_node_7938032785","name":"Ad un passo dal mare","lat":42.4943015,"lon":13.9906906,"type":"mare","visibility":"classica","tags":["amenity=restaurant"]},{"id":"osm_node_8094266530","name":"Villareia;Vallemare","lat":42.3485735,"lon":14.1134972,"type":"mare","visibility":"classica","tags":[]},{"id":"osm_node_8094266531","name":"Vallemare;Villareia","lat":42.3484715,"lon":14.113706,"type":"mare","visibility":"classica","tags":[]},{"id":"osm_node_8094425582","name":"Vallemare;Cepagatti","lat":42.3562991,"lon":14.0916234,"type":"mare","visibility":"classica","tags":[]},{"id":"osm_node_8099925341","name":"Vallemare","lat":42.3661993,"lon":14.1188003,"type":"mare","visibility":"classica","tags":[]},{"id":"osm_node_8124840194","name":"Lino Sapori di Mare e Monti","lat":42.3620727,"lon":14.3822264,"type":"mare","visibility":"classica","tags":["amenity=restaurant"]},{"id":"osm_node_8133694756","name":"Francavilla al Mare;Pescara","lat":42.4427267,"lon":14.2500496,"type":"mare","visibility":"classica","tags":[]},{"id":"osm_node_8133694757","name":"Pescara;Francavilla al Mare","lat":42.4431227,"lon":14.2496763,"type":"mare","visibility":"classica","tags":[]},{"id":"osm_node_8231293067","name":"Via Vestina a Mare","lat":42.464811,"lon":14.103428,"type":"mare","visibility":"classica","tags":[]},{"id":"osm_node_8262197308","name":"Monumento ai caduti del mare","lat":42.0704071,"lon":14.7783656,"type":"mare","visibility":"classica","tags":["historic=memorial"]},{"id":"osm_node_8299764293","name":"Pescheria Pianeta Mare","lat":42.4811466,"lon":14.192489,"type":"mare","visibility":"classica","tags":[]},{"id":"osm_node_8343174669","name":"Francavilla al Mare","lat":42.4194496,"lon":14.2656947,"type":"mare","visibility":"classica","tags":[]},{"id":"osm_node_8344904404","name":"Francavilla al Mare","lat":42.402219,"lon":14.3203505,"type":"mare","visibility":"classica","tags":[]},{"id":"osm_node_8344907810","name":"Francavilla al Mare","lat":42.4038786,"lon":14.3211063,"type":"mare","visibility":"classica","tags":[]},{"id":"osm_node_8348488321","name":"Le Delizie Del Mare","lat":42.4933428,"lon":14.1778109,"type":"mare","visibility":"classica","tags":[]},{"id":"osm_node_8414775637","name":"Farel Di Polidori Elena","lat":42.3403914,"lon":14.3198534,"type":"mare","visibility":"classica","tags":[]},{"id":"osm_node_8531250132","name":"Trattoria Ponte del Mare","lat":42.4640418,"lon":14.2261141,"type":"mare","visibility":"classica","tags":["amenity=restaurant"]},{"id":"osm_node_8532860956","name":"Lido Bora Bora","lat":42.4524113,"lon":14.2434901,"type":"mare","visibility":"classica","tags":["leisure=beach_resort"]},{"id":"osm_node_8533045035","name":"Lido il Corallo","lat":42.4469325,"lon":14.2506649,"type":"mare","visibility":"classica","tags":["amenity=restaurant"]},{"id":"osm_node_8536615773","name":"Lungomare Matteotti civico","lat":42.4678794,"lon":14.2209259,"type":"mare","visibility":"classica","tags":[]},{"id":"osm_node_8536656864","name":"Lido Gilda","lat":42.4694573,"lon":14.2185508,"type":"mare","visibility":"classica","tags":["leisure=beach_resort"]},{"id":"osm_node_8536877186","name":"Lido L'Adriatica","lat":42.4723984,"lon":14.213523,"type":"mare","visibility":"classica","tags":["leisure=beach_resort"]},{"id":"osm_node_8567605215","name":"Fermata Lido Riccio","lat":42.3784453,"lon":14.3716923,"type":"mare","visibility":"classica","tags":[]},{"id":"osm_node_8664085757","name":"Francavilla al Mare","lat":42.3903991,"lon":14.3141012,"type":"mare","visibility":"classica","tags":[]},{"id":"osm_node_8664085758","name":"Francavilla al Mare","lat":42.3904471,"lon":14.3139669,"type":"mare","visibility":"classica","tags":[]},{"id":"osm_node_8693717349","name":"Pizzeria Castellammare by Morbido","lat":42.4556303,"lon":14.2171188,"type":"mare","visibility":"classica","tags":["amenity=fast_food"]},{"id":"osm_node_8710190439","name":"Caduti del Mare","lat":42.6467891,"lon":14.039553,"type":"mare","visibility":"classica","tags":["historic=monument"]},{"id":"osm_node_8726240754","name":"Miramare","lat":42.6070595,"lon":14.0706023,"type":"mare","visibility":"classica","tags":["leisure=beach_resort"]},{"id":"osm_node_8847981178","name":"Pian di Mare","lat":42.326296,"lon":14.2348704,"type":"mare","visibility":"classica","tags":[]},{"id":"osm_node_8910659200","name":"Spiaggia della Sirenetta","lat":42.1067643,"lon":14.7176412,"type":"mare","visibility":"classica","tags":["natural=beach"]},{"id":"osm_node_9049944501","name":"Tutto mare","lat":42.8582076,"lon":13.9261034,"type":"mare","visibility":"classica","tags":[]},{"id":"osm_node_9123584365","name":"Lido Nautilus Ristorante","lat":42.4425236,"lon":14.2568426,"type":"mare","visibility":"classica","tags":["leisure=beach_resort"]},{"id":"osm_node_9123584373","name":"Lido Bagno Marcello","lat":42.4415283,"lon":14.2583235,"type":"mare","visibility":"classica","tags":["leisure=beach_resort"]},{"id":"osm_node_9135536408","name":"Ebrezza Bistrot Vista Mare","lat":42.3059169,"lon":14.4497432,"type":"mare","visibility":"classica","tags":["amenity=restaurant"]},{"id":"osm_node_9530345916","name":"Piccolo Porto di Pesca di Casarza","lat":42.1193435,"lon":14.719975,"type":"mare","visibility":"classica","tags":["leisure=marina"]},{"id":"osm_node_9603606610","name":"Livio e il mare","lat":42.4722712,"lon":14.1775508,"type":"mare","visibility":"classica","tags":["amenity=restaurant"]},{"id":"osm_node_9604975705","name":"BellavistaMare","lat":42.6862742,"lon":14.0114581,"type":"mare","visibility":"classica","tags":["leisure=beach_resort"]},{"id":"osm_node_9653243254","name":"Albergo Lido","lat":42.5596421,"lon":14.1105086,"type":"mare","visibility":"classica","tags":["tourism=guest_house"]},{"id":"osm_node_9694767198","name":"Trattoria del mare da Tatillo","lat":42.4727145,"lon":14.194848,"type":"mare","visibility":"classica","tags":["amenity=restaurant"]},{"id":"osm_node_9773261561","name":"Lido Asteria","lat":42.4295087,"lon":14.2776394,"type":"mare","visibility":"classica","tags":["amenity=bar"]},{"id":"osm_node_9832554048","name":"Lido Serenella","lat":42.4210262,"lon":14.2914932,"type":"mare","visibility":"classica","tags":["leisure=beach_resort"]},{"id":"osm_node_9875798218","name":"Albergo Lido","lat":42.4707899,"lon":14.2155555,"type":"mare","visibility":"classica","tags":["tourism=hotel"]},{"id":"osm_node_9899732687","name":"Bar Mare & Monti","lat":42.6483696,"lon":14.0392221,"type":"mare","visibility":"classica","tags":["amenity=bar"]},{"id":"osm_node_9899816677","name":"Restaurant Mare & Monti","lat":42.6482855,"lon":14.0392696,"type":"mare","visibility":"classica","tags":["amenity=restaurant"]},{"id":"osm_node_9972908955","name":"Mareglioso Nord-Est","lat":42.2767653,"lon":13.9110624,"type":"mare","visibility":"classica","tags":["tourism=viewpoint"]},{"id":"osm_node_9988487226","name":"Molino Mare","lat":42.1034116,"lon":14.7175514,"type":"mare","visibility":"classica","tags":[]},{"id":"osm_node_9994606885","name":"Madonna del Mare","lat":42.7409534,"lon":13.978899,"type":"mare","visibility":"classica","tags":["historic=wayside_shrine"]},{"id":"osm_node_10019323742","name":"La Locanda del Mare","lat":42.3083132,"lon":14.44457,"type":"mare","visibility":"classica","tags":["amenity=restaurant"]},{"id":"osm_node_10091553417","name":"Pescara;Francavilla al Mare","lat":42.4445006,"lon":14.2531574,"type":"mare","visibility":"classica","tags":[]},{"id":"osm_node_10568163814","name":"Francavilla Al Mare","lat":42.3826152,"lon":14.2676511,"type":"mare","visibility":"classica","tags":[]},{"id":"osm_node_10576313918","name":"Verdemare","lat":42.3961903,"lon":14.2811501,"type":"mare","visibility":"classica","tags":["amenity=restaurant"]},{"id":"osm_node_10683091797","name":"Vallemare","lat":42.3739892,"lon":14.1224695,"type":"mare","visibility":"classica","tags":[]},{"id":"osm_node_10726477245","name":"Lido Hotel Adriatico","lat":42.0957027,"lon":14.7264418,"type":"mare","visibility":"classica","tags":["leisure=beach_resort"]},{"id":"osm_node_10726477250","name":"Lido Twins","lat":42.0966916,"lon":14.7250596,"type":"mare","visibility":"classica","tags":["leisure=beach_resort"]},{"id":"osm_node_10726477251","name":"Lido Caravel","lat":42.0972277,"lon":14.7244968,"type":"mare","visibility":"classica","tags":["leisure=beach_resort"]},{"id":"osm_node_10726477252","name":"Lido Maremaje","lat":42.0982723,"lon":14.7232441,"type":"mare","visibility":"classica","tags":["leisure=beach_resort"]},{"id":"osm_node_10729768061","name":"Lido dell'Hotel Florida","lat":42.5701253,"lon":14.1026769,"type":"mare","visibility":"classica","tags":["leisure=beach_resort"]},{"id":"osm_node_10783749033","name":"Marea Viaggi","lat":42.424491,"lon":14.2777876,"type":"mare","visibility":"classica","tags":[]},{"id":"osm_node_10815809746","name":"Spiaggia Libera","lat":42.4382981,"lon":14.2630686,"type":"mare","visibility":"classica","tags":["leisure=beach_resort"]},{"id":"osm_node_10815820264","name":"Addio Mare ... Disse La Pannocchia","lat":42.4368708,"lon":14.2636723,"type":"mare","visibility":"classica","tags":["amenity=restaurant"]},{"id":"osm_node_10815820303","name":"Lido Nausica Beach","lat":42.4380799,"lon":14.2634243,"type":"mare","visibility":"classica","tags":["leisure=beach_resort"]},{"id":"osm_node_10815828942","name":"Lido Urania","lat":42.4386608,"lon":14.2625001,"type":"mare","visibility":"classica","tags":["leisure=beach_resort"]},{"id":"osm_node_10815828975","name":"Lido Siesta","lat":42.439876,"lon":14.2606835,"type":"mare","visibility":"classica","tags":["leisure=beach_resort"]},{"id":"osm_node_10823817919","name":"Lido Sabbia D'Oro Bau Miao Beach","lat":42.4447302,"lon":14.2537467,"type":"mare","visibility":"classica","tags":["leisure=beach_resort"]},{"id":"osm_node_10823817920","name":"Lido Albatros","lat":42.4440576,"lon":14.2546396,"type":"mare","visibility":"classica","tags":["leisure=beach_resort"]},{"id":"osm_node_10823817921","name":"Baia Delle Sirene","lat":42.4438288,"lon":14.2550119,"type":"mare","visibility":"classica","tags":["amenity=restaurant"]},{"id":"osm_node_10823817926","name":"Lido San Marco","lat":42.4403032,"lon":14.2600936,"type":"mare","visibility":"classica","tags":["leisure=beach_resort"]},{"id":"osm_node_10823817927","name":"Hotel Mare Blu","lat":42.4368071,"lon":14.2654443,"type":"mare","visibility":"classica","tags":["leisure=beach_resort"]},{"id":"osm_node_10823817928","name":"Lido Rudygia","lat":42.436673,"lon":14.265735,"type":"mare","visibility":"classica","tags":["leisure=beach_resort"]},{"id":"osm_node_10823817933","name":"Lido Venus","lat":42.4362807,"lon":14.2663421,"type":"mare","visibility":"classica","tags":["leisure=beach_resort"]},{"id":"osm_node_10823817945","name":"Lido Luna Rossa","lat":42.42899,"lon":14.2791277,"type":"mare","visibility":"classica","tags":["leisure=beach_resort"]},{"id":"osm_node_10823817946","name":"Lido Il Faro","lat":42.4286006,"lon":14.2798668,"type":"mare","visibility":"classica","tags":["leisure=beach_resort"]},{"id":"osm_node_10823817947","name":"Stella Del Mare","lat":42.4277973,"lon":14.2811151,"type":"mare","visibility":"classica","tags":["amenity=restaurant"]},{"id":"osm_node_10823817948","name":"Lido Sirenetta","lat":42.4275856,"lon":14.2813693,"type":"mare","visibility":"classica","tags":["leisure=beach_resort"]},{"id":"osm_node_10823817949","name":"Lido Conca D'Oro","lat":42.4343794,"lon":14.2694087,"type":"mare","visibility":"classica","tags":["leisure=beach_resort"]},{"id":"osm_node_10823817950","name":"Lido La Tramontana","lat":42.4371163,"lon":14.2649659,"type":"mare","visibility":"classica","tags":["leisure=beach_resort"]},{"id":"osm_node_10823817951","name":"Lido Bianco","lat":42.4405887,"lon":14.2596582,"type":"mare","visibility":"classica","tags":["leisure=beach_resort"]},{"id":"osm_node_10836566696","name":"Lido Stella Del Mare","lat":42.4278292,"lon":14.2810563,"type":"mare","visibility":"classica","tags":["leisure=beach_resort"]},{"id":"osm_node_10836620786","name":"Lido Lo Squalo","lat":42.432796,"lon":14.272041,"type":"mare","visibility":"classica","tags":["leisure=beach_resort"]},{"id":"osm_node_10841493206","name":"Lido Merope","lat":42.4305648,"lon":14.2759073,"type":"mare","visibility":"classica","tags":["leisure=beach_resort"]},{"id":"osm_node_10841493207","name":"Lido Drago Verde","lat":42.4310463,"lon":14.274984,"type":"mare","visibility":"classica","tags":["leisure=beach_resort"]},{"id":"osm_node_10859770813","name":"La Tana Del Mare","lat":42.4155851,"lon":14.2963659,"type":"mare","visibility":"classica","tags":["amenity=restaurant"]},{"id":"osm_node_10880401772","name":"L'Altracarne Mammarella","lat":42.5318965,"lon":13.8860495,"type":"mare","visibility":"classica","tags":[]},{"id":"osm_node_10885976192","name":"Stadio Del Mare","lat":42.4059941,"lon":14.3173782,"type":"mare","visibility":"classica","tags":[]},{"id":"osm_node_10889186773","name":"Lido Peppone","lat":42.4076414,"lon":14.3147378,"type":"mare","visibility":"classica","tags":["leisure=beach_resort"]},{"id":"osm_node_10892627011","name":"Lido Mambo","lat":42.4086793,"lon":14.3132593,"type":"mare","visibility":"classica","tags":["leisure=beach_resort"]},{"id":"osm_node_10892627056","name":"Spiaggia Libera","lat":42.4100867,"lon":14.3107051,"type":"mare","visibility":"classica","tags":["leisure=beach_resort"]},{"id":"osm_node_10892661493","name":"Pianeta Mare","lat":42.411876,"lon":14.3071314,"type":"mare","visibility":"classica","tags":["leisure=beach_resort"]},{"id":"osm_node_10901260133","name":"Lido Il Gabbiano","lat":42.4171148,"lon":14.2981654,"type":"mare","visibility":"classica","tags":["leisure=beach_resort"]},{"id":"osm_node_10910824455","name":"Lido OltreMare","lat":42.4176806,"lon":14.2972506,"type":"mare","visibility":"classica","tags":["leisure=beach_resort"]},{"id":"osm_node_10910824456","name":"OltreMare","lat":42.4176969,"lon":14.2972249,"type":"mare","visibility":"classica","tags":["amenity=restaurant"]},{"id":"osm_node_10910863279","name":"Lido Sirena","lat":42.4202397,"lon":14.2927805,"type":"mare","visibility":"classica","tags":["leisure=beach_resort"]},{"id":"osm_node_10914450401","name":"Lido Cortesito","lat":42.421477,"lon":14.2906962,"type":"mare","visibility":"classica","tags":["leisure=beach_resort"]},{"id":"osm_node_10921086815","name":"Lido Mare Nostrum","lat":42.4229325,"lon":14.2884763,"type":"mare","visibility":"classica","tags":["leisure=beach_resort"]},{"id":"osm_node_10921086824","name":"Lido La Bussola","lat":42.4237639,"lon":14.2872457,"type":"mare","visibility":"classica","tags":["leisure=beach_resort"]},{"id":"osm_node_10921443883","name":"Lido La Riviera Da Eraldo","lat":42.4249535,"lon":14.2854471,"type":"mare","visibility":"classica","tags":["leisure=beach_resort"]},{"id":"osm_node_10921443891","name":"Lido Bluemarine","lat":42.4252472,"lon":14.2850792,"type":"mare","visibility":"classica","tags":["leisure=beach_resort"]},{"id":"osm_node_10921443898","name":"Lido Conchiglia Azzurra","lat":42.425705,"lon":14.284462,"type":"mare","visibility":"classica","tags":["leisure=beach_resort"]},{"id":"osm_node_10921449011","name":"Lido Orizzonte Beach","lat":42.4261494,"lon":14.2837958,"type":"mare","visibility":"classica","tags":["leisure=beach_resort"]},{"id":"osm_node_10971279345","name":"Pescheria Mare Blu","lat":42.1002063,"lon":14.7194027,"type":"mare","visibility":"classica","tags":[]},{"id":"osm_node_11016252451","name":"Ristorante Altamarea","lat":42.1018316,"lon":14.719279,"type":"mare","visibility":"classica","tags":["amenity=restaurant"]},{"id":"osm_node_11027583399","name":"Amazon Hub Locker - Lidovino","lat":42.0633352,"lon":14.7764555,"type":"mare","visibility":"classica","tags":["amenity=parcel_locker"]},{"id":"osm_node_11084216419","name":"Amare beach","lat":42.8048985,"lon":13.9430122,"type":"mare","visibility":"classica","tags":["leisure=beach_resort"]},{"id":"osm_node_11084223751","name":"Frontemare","lat":42.7838141,"lon":13.953564,"type":"mare","visibility":"classica","tags":["leisure=beach_resort"]},{"id":"osm_node_11084262711","name":"Lady G mare","lat":42.800323,"lon":13.9448758,"type":"mare","visibility":"classica","tags":["leisure=beach_resort"]},{"id":"osm_node_11084262713","name":"Righi a mare","lat":42.8032944,"lon":13.9438677,"type":"mare","visibility":"classica","tags":["leisure=beach_resort"]},{"id":"osm_node_11084287089","name":"Garden lido","lat":42.8132262,"lon":13.939398,"type":"mare","visibility":"classica","tags":["leisure=beach_resort"]},{"id":"osm_node_11084299535","name":"Marechiaro","lat":42.8182482,"lon":13.9376631,"type":"mare","visibility":"classica","tags":["leisure=beach_resort"]},{"id":"osm_node_11084299540","name":"Doge spiaggia","lat":42.8205435,"lon":13.937274,"type":"mare","visibility":"classica","tags":["leisure=beach_resort"]},{"id":"osm_node_11084299542","name":"Eucaliptus spiaggia","lat":42.8231086,"lon":13.9364463,"type":"mare","visibility":"classica","tags":["leisure=beach_resort"]},{"id":"osm_node_11084299545","name":"Hotel lido beach","lat":42.8252478,"lon":13.9357404,"type":"mare","visibility":"classica","tags":["leisure=beach_resort"]},{"id":"osm_node_11109608240","name":"FronteMare","lat":42.3587244,"lon":14.4049678,"type":"mare","visibility":"classica","tags":["amenity=bar"]},{"id":"osm_node_11200500478","name":"Piazza Caduti del Mare (Porto)","lat":42.3584518,"lon":14.4077513,"type":"mare","visibility":"classica","tags":[]},{"id":"osm_node_11330912581","name":"Armata di Mare","lat":42.5122844,"lon":14.1204293,"type":"mare","visibility":"classica","tags":[]},{"id":"osm_node_11358071427","name":"Monumento ai caduti del mare","lat":42.754881,"lon":13.9687666,"type":"mare","visibility":"classica","tags":["historic=memorial"]},{"id":"osm_node_11358299184","name":"Marechiaro","lat":42.6844575,"lon":14.011543,"type":"mare","visibility":"classica","tags":["amenity=restaurant"]},{"id":"osm_node_11358322194","name":"Lido Luigi","lat":42.6763253,"lon":14.0180325,"type":"mare","visibility":"classica","tags":["amenity=cafe"]},{"id":"osm_node_11358347422","name":"Lido Altamira","lat":42.6679572,"lon":14.0253477,"type":"mare","visibility":"classica","tags":["amenity=restaurant"]},{"id":"osm_node_11390324927","name":"Lido Punto Verde","lat":42.3978476,"lon":14.3340388,"type":"mare","visibility":"classica","tags":["leisure=beach_resort"]},{"id":"osm_node_11428630655","name":"Lungomare Colombo, civico 52","lat":42.4613878,"lon":14.2302295,"type":"mare","visibility":"classica","tags":[]},{"id":"osm_node_11741736732","name":"Mare e Monti","lat":41.9711278,"lon":14.7778393,"type":"mare","visibility":"classica","tags":["amenity=restaurant"]},{"id":"osm_node_11818066123","name":"Arredamenti Mammarella","lat":42.4189826,"lon":14.1664992,"type":"mare","visibility":"classica","tags":[]},{"id":"osm_node_11879257015","name":"MareAzzurro","lat":42.4491551,"lon":14.2159088,"type":"mare","visibility":"classica","tags":[]},{"id":"osm_node_11919261231","name":"DAMADIMARE casa vacanze","lat":42.5147251,"lon":14.1597328,"type":"mare","visibility":"classica","tags":["tourism=guest_house"]},{"id":"osm_node_11945554027","name":"Cologna Spiaggia","lat":42.7339931,"lon":13.9753121,"type":"mare","visibility":"classica","tags":[]},{"id":"osm_node_11945554031","name":"Cologna Spiaggia","lat":42.7340398,"lon":13.975402,"type":"mare","visibility":"classica","tags":[]},{"id":"osm_node_11987616898","name":"Montagnamare","lat":42.307816,"lon":14.1845948,"type":"mare","visibility":"classica","tags":["tourism=guest_house"]},{"id":"osm_node_12059168399","name":"Un Mare Di Freschezza","lat":42.357464,"lon":14.1403854,"type":"mare","visibility":"classica","tags":[]},{"id":"osm_node_12083867508","name":"Heidi Oltremare","lat":42.2077394,"lon":14.5972564,"type":"mare","visibility":"classica","tags":["amenity=restaurant"]},{"id":"osm_node_12085148409","name":"Aria di mare","lat":42.204713,"lon":14.5941313,"type":"mare","visibility":"classica","tags":["tourism=apartment"]},{"id":"osm_node_12090866595","name":"Hotel Marebello","lat":42.8010607,"lon":13.9428927,"type":"mare","visibility":"classica","tags":["tourism=hotel"]},{"id":"osm_node_12091976548","name":"Residence Anchise Mare","lat":42.8277536,"lon":13.9311377,"type":"mare","visibility":"classica","tags":["tourism=hotel"]},{"id":"osm_node_12093897353","name":"Lido La Foce","lat":42.2769047,"lon":14.4929196,"type":"mare","visibility":"classica","tags":["amenity=bar"]},{"id":"osm_node_12101901159","name":"La Pecora al Mare","lat":42.474967,"lon":14.2095278,"type":"mare","visibility":"classica","tags":["amenity=restaurant"]},{"id":"osm_node_12118721820","name":"Madonna del Mare","lat":42.814282,"lon":13.9388711,"type":"mare","visibility":"classica","tags":["historic=monument"]},{"id":"osm_node_12139947923","name":"Cologna Spiaggia","lat":42.7320135,"lon":13.9754684,"type":"mare","visibility":"classica","tags":[]},{"id":"osm_node_12139948551","name":"Cologna Spiaggia","lat":42.726166,"lon":13.9703282,"type":"mare","visibility":"classica","tags":[]},{"id":"osm_node_12197486537","name":"Via Lungomare, area psarcheggio","lat":42.2448127,"lon":14.5203491,"type":"mare","visibility":"classica","tags":[]},{"id":"osm_node_12215531605","name":"Tortoreto Lido","lat":42.8052252,"lon":13.938774,"type":"mare","visibility":"classica","tags":[]},{"id":"osm_node_12277290734","name":"Tamarete Zona Artigianale","lat":42.3343817,"lon":14.3834947,"type":"mare","visibility":"classica","tags":[]},{"id":"osm_node_12383967655","name":"Fonte Mare Gelato","lat":42.5940941,"lon":13.4920932,"type":"mare","visibility":"classica","tags":["natural=spring"]},{"id":"osm_node_12434055356","name":"Colle Mare","lat":42.5621105,"lon":13.420081,"type":"mare","visibility":"classica","tags":["natural=peak"]},{"id":"osm_node_12523107259","name":"Bar Alimentari Marella","lat":42.7582239,"lon":13.2989014,"type":"mare","visibility":"classica","tags":["amenity=bar"]},{"id":"osm_node_12635235846","name":"aMare","lat":42.7542725,"lon":13.9678488,"type":"mare","visibility":"classica","tags":["tourism=hotel"]},{"id":"osm_node_12698428534","name":"Lido Portofino","lat":42.7751188,"lon":13.9574902,"type":"mare","visibility":"classica","tags":["leisure=beach_resort"]},{"id":"osm_node_12698428565","name":"Costa Verde Mare","lat":42.7721355,"lon":13.9588924,"type":"mare","visibility":"classica","tags":["leisure=beach_resort"]},{"id":"osm_node_12698428568","name":"Spiaggia Residence Gambinus","lat":42.7715299,"lon":13.9591751,"type":"mare","visibility":"classica","tags":["leisure=beach_resort"]},{"id":"osm_node_12698428570","name":"Lido Blu","lat":42.7706563,"lon":13.9596592,"type":"mare","visibility":"classica","tags":["leisure=beach_resort"]},{"id":"osm_node_12698428599","name":"Lido Paradiso","lat":42.7652101,"lon":13.962633,"type":"mare","visibility":"classica","tags":["leisure=beach_resort"]},{"id":"osm_node_12698965800","name":"Cristallo Mare","lat":42.7617196,"lon":13.9646049,"type":"mare","visibility":"classica","tags":["leisure=beach_resort"]},{"id":"osm_node_12704300665","name":"Lido Alta Marea","lat":42.7560034,"lon":13.9688954,"type":"mare","visibility":"classica","tags":["leisure=beach_resort"]},{"id":"osm_node_12704300667","name":"Venere Mare","lat":42.7568428,"lon":13.9685214,"type":"mare","visibility":"classica","tags":["leisure=beach_resort"]},{"id":"osm_node_12704300675","name":"Lido Caprice","lat":42.7597676,"lon":13.9661401,"type":"mare","visibility":"classica","tags":["leisure=beach_resort"]},{"id":"osm_node_12704362207","name":"Lido Serenella","lat":42.7468917,"lon":13.9753504,"type":"mare","visibility":"classica","tags":["leisure=beach_resort"]},{"id":"osm_node_12704364729","name":"Lido Arlecchino","lat":42.7547189,"lon":13.9699397,"type":"mare","visibility":"classica","tags":["leisure=beach_resort"]},{"id":"osm_node_12704364730","name":"Lido Azzurro Mare","lat":42.7553151,"lon":13.9693823,"type":"mare","visibility":"classica","tags":["leisure=beach_resort"]},{"id":"osm_node_12754588701","name":"Ferro Battuto Mammarella","lat":42.3815562,"lon":14.1914722,"type":"mare","visibility":"classica","tags":[]},{"id":"osm_node_12788445932","name":"Lido Le Marinelle","lat":42.0708578,"lon":14.7777545,"type":"mare","visibility":"classica","tags":["leisure=beach_resort"]},{"id":"osm_node_12820441445","name":"Spiaggetta","lat":42.8955476,"lon":13.4532024,"type":"mare","visibility":"classica","tags":["natural=beach"]},{"id":"osm_node_12878885885","name":"Lido Aurora","lat":42.474031,"lon":14.2108603,"type":"mare","visibility":"classica","tags":["amenity=restaurant"]},{"id":"osm_node_12921245939","name":"Il gusto del mare","lat":42.4228064,"lon":14.1579186,"type":"mare","visibility":"classica","tags":["amenity=restaurant"]},{"id":"osm_node_12980354354","name":"Torino di Sangro (C. Mare) dir Lanciano","lat":42.1962594,"lon":14.5451748,"type":"mare","visibility":"classica","tags":[]},{"id":"osm_node_12980354355","name":"Torino di Sangro (C. Mare) dir Torino di Sangro","lat":42.1962735,"lon":14.5450575,"type":"mare","visibility":"classica","tags":[]},{"id":"osm_node_13039065216","name":"Fronte Mare","lat":42.2338806,"lon":14.5444809,"type":"mare","visibility":"classica","tags":["amenity=bar"]},{"id":"osm_node_13039768453","name":"Circolo Velico \"Amici da Mare\"","lat":42.8777528,"lon":13.9218986,"type":"mare","visibility":"classica","tags":[]},{"id":"osm_node_13141265001","name":"Lido L’Ombrellone","lat":42.5489964,"lon":14.1235734,"type":"mare","visibility":"classica","tags":["amenity=cafe"]},{"id":"osm_node_13161610933","name":"Mare gastronomia","lat":42.2265328,"lon":14.3995156,"type":"mare","visibility":"classica","tags":["amenity=restaurant"]},{"id":"osm_way_46767761","name":"Spiaggia di Casalbordino","lat":42.1939154,"lon":14.6382307,"type":"mare","visibility":"classica","tags":["natural=beach"]},{"id":"osm_way_46795024","name":"Spiaggia di Vasto Marina","lat":42.0941985,"lon":14.7350138,"type":"mare","visibility":"classica","tags":["tourism=attraction","natural=beach"]},{"id":"osm_way_61376678","name":"Spiaggia di Petacciato Marina","lat":42.0350778,"lon":14.8570321,"type":"mare","visibility":"classica","tags":["natural=beach"]},{"id":"osm_way_61379090","name":"Spiaggia del Lungomare Nord","lat":42.0179497,"lon":14.9171429,"type":"mare","visibility":"classica","tags":["natural=beach"]},{"id":"osm_way_61556505","name":"Spiaggia di Cala D'Or","lat":42.0425786,"lon":14.8384626,"type":"mare","visibility":"classica","tags":["natural=beach"]},{"id":"osm_way_102317430","name":"Spiaggia di Santo Stefano","lat":42.2003348,"lon":14.617688,"type":"mare","visibility":"classica","tags":["natural=beach"]},{"id":"osm_way_144372931","name":"Lido Saraceni","lat":42.3442223,"lon":14.4131049,"type":"mare","visibility":"classica","tags":["natural=beach"]},{"id":"osm_way_144373005","name":"Spiaggia della Ritorna","lat":42.3593589,"lon":14.4085029,"type":"mare","visibility":"classica","tags":["natural=beach"]},{"id":"osm_way_144373023","name":"Spiaggia dei Ripari di Giobbe","lat":42.3716963,"lon":14.392226,"type":"mare","visibility":"classica","tags":["natural=beach"]},{"id":"osm_way_148977364","name":"Spiaggia della Grotta del Saraceno","lat":42.152595,"lon":14.7184467,"type":"mare","visibility":"classica","tags":["natural=beach"]},{"id":"osm_way_148985833","name":"Spiaggia delle Morge","lat":42.2070997,"lon":14.60045,"type":"mare","visibility":"classica","tags":["natural=beach"]},{"id":"osm_way_297168601","name":"Spiaggia di Casarza","lat":42.1188961,"lon":14.7202637,"type":"mare","visibility":"classica","tags":["natural=beach"]},{"id":"osm_way_364037451","name":"Maruccio","lat":42.3071198,"lon":14.4487902,"type":"mare","visibility":"classica","tags":["natural=beach"]},{"id":"osm_way_364037454","name":"Rocco Mancini","lat":42.3035425,"lon":14.4540508,"type":"mare","visibility":"classica","tags":["natural=beach"]},{"id":"osm_way_364110719","name":"Spiaggia di Cala Turchino","lat":42.3005652,"lon":14.4589871,"type":"mare","visibility":"classica","tags":["natural=beach"]},{"id":"osm_way_459594389","name":"Spiaggia libera","lat":42.5192223,"lon":14.1599719,"type":"mare","visibility":"classica","tags":["natural=beach"]},{"id":"osm_way_459615566","name":"Spiaggia libera","lat":42.5109785,"lon":14.1685048,"type":"mare","visibility":"classica","tags":["natural=beach"]},{"id":"osm_way_459615567","name":"Spiaggia libera","lat":42.5105059,"lon":14.1690604,"type":"mare","visibility":"classica","tags":["natural=beach"]},{"id":"osm_way_459615568","name":"Spiaggia libera","lat":42.5092438,"lon":14.1705469,"type":"mare","visibility":"classica","tags":["natural=beach"]},{"id":"osm_way_459615569","name":"Spiaggia libera, accessibile per disabili","lat":42.5087859,"lon":14.1708591,"type":"mare","visibility":"classica","tags":["natural=beach"]},{"id":"osm_way_459615570","name":"spiaggia libera","lat":42.5081067,"lon":14.1714016,"type":"mare","visibility":"classica","tags":["natural=beach"]},{"id":"osm_way_459615572","name":"Spiaggia libera","lat":42.5069807,"lon":14.1724421,"type":"mare","visibility":"classica","tags":["natural=beach"]},{"id":"osm_way_459615591","name":"Spiaggia libera","lat":42.4995806,"lon":14.1796799,"type":"mare","visibility":"classica","tags":["natural=beach"]},{"id":"osm_way_459615598","name":"Spiaggia libera","lat":42.4968877,"lon":14.1822808,"type":"mare","visibility":"classica","tags":["natural=beach"]},{"id":"osm_way_459615614","name":"Spiaggia libera","lat":42.4927166,"lon":14.1870369,"type":"mare","visibility":"classica","tags":["natural=beach"]},{"id":"osm_way_515527678","name":"Spiaggia di Torre del Cerrano","lat":42.5848055,"lon":14.0901635,"type":"mare","visibility":"classica","tags":["natural=beach"]},{"id":"osm_way_516932889","name":"Spiaggia di Calata Cintioni","lat":42.3128722,"lon":14.4408564,"type":"mare","visibility":"classica","tags":["natural=beach"]},{"id":"osm_way_524670480","name":"Spiaggia di Punta Aderci","lat":42.1796206,"lon":14.685098,"type":"mare","visibility":"classica","tags":["natural=beach"]},{"id":"osm_way_639851200","name":"Borgo San Pietro","lat":42.270409,"lon":13.0598795,"type":"mare","visibility":"classica","tags":["natural=beach"]},{"id":"osm_way_639851201","name":"Borgo San Pietro","lat":42.268423,"lon":13.0621153,"type":"mare","visibility":"classica","tags":["natural=beach"]},{"id":"osm_way_659656797","name":"Spiaggia della Canale","lat":42.1402315,"lon":14.7187147,"type":"mare","visibility":"classica","tags":["natural=beach"]},{"id":"osm_way_659656798","name":"Spiaggia di Vignola a Mare","lat":42.1451769,"lon":14.7183827,"type":"mare","visibility":"classica","tags":["natural=beach"]},{"id":"osm_way_659657814","name":"Spiggia della Foce Lebba","lat":42.1653656,"lon":14.7170975,"type":"mare","visibility":"classica","tags":["natural=beach"]},{"id":"osm_way_661217811","name":"Spiaggia di Mottagrossa","lat":42.1821766,"lon":14.6754169,"type":"mare","visibility":"classica","tags":["natural=beach"]},{"id":"osm_way_661217812","name":"Spiaggia di Torre Sinello","lat":42.1901158,"lon":14.6518587,"type":"mare","visibility":"classica","tags":["natural=beach"]},{"id":"osm_way_661296024","name":"Spiaggia di Torricella","lat":42.1275804,"lon":14.7219044,"type":"mare","visibility":"classica","tags":["natural=beach"]},{"id":"osm_way_666659441","name":"Spiaggia di Punta Ferruccio","lat":42.3758132,"lon":14.3829248,"type":"mare","visibility":"classica","tags":["natural=beach"]},{"id":"osm_way_666663827","name":"Spiaggia di Punta Acquabella","lat":42.3305839,"lon":14.4244427,"type":"mare","visibility":"classica","tags":["natural=beach"]},{"id":"osm_way_666663828","name":"Spiaggia di Ripari Bardella","lat":42.3196734,"lon":14.4334662,"type":"mare","visibility":"classica","tags":["natural=beach"]},{"id":"osm_way_701565036","name":"Spiaggia Lido Le Morge","lat":42.2172879,"lon":14.5779339,"type":"mare","visibility":"classica","tags":["natural=beach"]},{"id":"osm_way_798444368","name":"Spiaggia libera","lat":42.4740187,"lon":14.2119585,"type":"mare","visibility":"classica","tags":["natural=beach"]},{"id":"osm_way_809579262","name":"Spiaggia libera","lat":42.4616913,"lon":14.2319438,"type":"mare","visibility":"classica","tags":["natural=beach"]},{"id":"osm_way_844611715","name":"Spiaggia Libera Tutti","lat":42.4451674,"lon":14.2533587,"type":"mare","visibility":"classica","tags":["natural=beach"]},{"id":"osm_way_899150692","name":"Spiaggia accessibile per disabili","lat":42.5182602,"lon":14.1609458,"type":"mare","visibility":"classica","tags":["natural=beach"]},{"id":"osm_way_1054180132","name":"Spiaggia libera","lat":42.4587297,"lon":14.2348845,"type":"mare","visibility":"classica","tags":["natural=beach"]},{"id":"osm_way_1267186034","name":"Spiaggia libera","lat":42.4575788,"lon":14.2367137,"type":"mare","visibility":"classica","tags":["natural=beach"]}]}