{
  "ok": true,
  "region": "it-abruzzo",
  "category": "montagna",
  "generatedAt": "2026-01-05T11:07:35.657Z",
  "bbox": [
    13,
    41.9,
    14.9,
    42.9
  ],
  "count": 1858,
  "endpoint": "https://overpass-api.de/api/interpreter",
  "notes": [],
  "pois": [
    {
      "id": "node_2018832597",
      "name": "Viale dei Pini/Monte Pepe",
      "lat": 41.9107261,
      "lon": 13.0249175,
      "category": "montagna",
      "visibility": "classica",
      "tags": {
        "name": "Viale dei Pini/Monte Pepe",
        "operator": "Co.Tra.L."
      },
      "beauty_score": 0.72
    },
    {
      "id": "node_10937464760",
      "name": "Colle Negrone",
      "lat": 41.9362595,
      "lon": 13.0060583,
      "category": "montagna",
      "visibility": "classica",
      "tags": {
        "name": "Colle Negrone",
        "natural": "peak"
      },
      "beauty_score": 0.72
    },
    {
      "id": "node_8243448740",
      "name": "Morra Ferogna",
      "lat": 41.9526093,
      "lon": 13.1004655,
      "category": "montagna",
      "visibility": "classica",
      "tags": {
        "name": "Morra Ferogna",
        "natural": "peak"
      },
      "beauty_score": 0.72
    },
    {
      "id": "node_9815808172",
      "name": "Colle di Capo la Praia",
      "lat": 41.9025625,
      "lon": 13.1661433,
      "category": "montagna",
      "visibility": "classica",
      "tags": {
        "name": "Colle di Capo la Praia",
        "natural": "peak"
      },
      "beauty_score": 0.72
    },
    {
      "id": "node_8247567734",
      "name": "Colle Lungo",
      "lat": 41.9237499,
      "lon": 13.1290269,
      "category": "montagna",
      "visibility": "classica",
      "tags": {
        "name": "Colle Lungo",
        "natural": "peak"
      },
      "beauty_score": 0.72
    },
    {
      "id": "node_8247567735",
      "name": "Monte Castellone",
      "lat": 41.9210917,
      "lon": 13.1332835,
      "category": "montagna",
      "visibility": "classica",
      "tags": {
        "name": "Monte Castellone",
        "natural": "peak"
      },
      "beauty_score": 0.72
    },
    {
      "id": "node_9815438000",
      "name": "Toro di Subiaco",
      "lat": 41.9320703,
      "lon": 13.1290993,
      "category": "montagna",
      "visibility": "classica",
      "tags": {
        "name": "Toro di Subiaco",
        "natural": "peak"
      },
      "beauty_score": 0.72
    },
    {
      "id": "node_8247567733",
      "name": "Colle Taleo",
      "lat": 41.9160113,
      "lon": 13.1364385,
      "category": "montagna",
      "visibility": "classica",
      "tags": {
        "name": "Colle Taleo",
        "natural": "peak"
      },
      "beauty_score": 0.72
    },
    {
      "id": "node_8245577718",
      "name": "Colle Forno",
      "lat": 41.9195714,
      "lon": 13.1488395,
      "category": "montagna",
      "visibility": "classica",
      "tags": {
        "name": "Colle Forno",
        "natural": "peak"
      },
      "beauty_score": 0.72
    },
    {
      "id": "node_8394955114",
      "name": "Colle Cernale",
      "lat": 41.9251174,
      "lon": 13.1516504,
      "category": "montagna",
      "visibility": "classica",
      "tags": {
        "name": "Colle Cernale",
        "natural": "peak"
      },
      "beauty_score": 0.72
    },
    {
      "id": "node_8240768121",
      "name": "Colle Rotoli",
      "lat": 41.9314926,
      "lon": 13.1476575,
      "category": "montagna",
      "visibility": "classica",
      "tags": {
        "name": "Colle Rotoli",
        "natural": "peak"
      },
      "beauty_score": 0.72
    },
    {
      "id": "node_8296824186",
      "name": "Colle Cesone",
      "lat": 41.9439773,
      "lon": 13.1581316,
      "category": "montagna",
      "visibility": "classica",
      "tags": {
        "name": "Colle Cesone",
        "natural": "peak"
      },
      "beauty_score": 0.72
    },
    {
      "id": "node_2333429901",
      "name": "Monte Calvo",
      "lat": 41.955398,
      "lon": 13.1362103,
      "category": "montagna",
      "visibility": "classica",
      "tags": {
        "alt_name": "Monte Pelato",
        "name": "Monte Calvo",
        "natural": "peak",
        "wikidata": "Q16579510",
        "wikipedia": "it:Monte Calvo (Simbruini)"
      },
      "beauty_score": 0.72
    },
    {
      "id": "node_2333430059",
      "name": "Passo delle Pecore",
      "lat": 41.9530773,
      "lon": 13.140751,
      "category": "montagna",
      "visibility": "classica",
      "tags": {
        "name": "Passo delle Pecore"
      },
      "beauty_score": 0.72
    },
    {
      "id": "node_9818004772",
      "name": "La Morra",
      "lat": 41.9510526,
      "lon": 13.1540385,
      "category": "montagna",
      "visibility": "classica",
      "tags": {
        "name": "La Morra",
        "natural": "peak"
      },
      "beauty_score": 0.72
    },
    {
      "id": "node_8394955513",
      "name": "Morra dell'Aquila",
      "lat": 41.9180605,
      "lon": 13.1610867,
      "category": "montagna",
      "visibility": "classica",
      "tags": {
        "name": "Morra dell'Aquila",
        "natural": "peak"
      },
      "beauty_score": 0.72
    },
    {
      "id": "node_8245577719",
      "name": "Colle del Frassigno",
      "lat": 41.9204365,
      "lon": 13.1670365,
      "category": "montagna",
      "visibility": "classica",
      "tags": {
        "name": "Colle del Frassigno",
        "natural": "peak"
      },
      "beauty_score": 0.72
    },
    {
      "id": "node_4870670548",
      "name": "Monte Pratiglio",
      "lat": 41.9076476,
      "lon": 13.1920285,
      "category": "montagna",
      "visibility": "classica",
      "tags": {
        "name": "Monte Pratiglio",
        "natural": "peak",
        "wikidata": "Q17636622",
        "wikipedia": "it:Monte Pratiglio"
      },
      "beauty_score": 0.72
    },
    {
      "id": "node_8245577721",
      "name": "Colle Favo Grande",
      "lat": 41.9070361,
      "lon": 13.1986356,
      "category": "montagna",
      "visibility": "classica",
      "tags": {
        "name": "Colle Favo Grande",
        "natural": "peak"
      },
      "beauty_score": 0.72
    },
    {
      "id": "node_8249752091",
      "name": "Colle della Colubretta",
      "lat": 41.9248795,
      "lon": 13.1871557,
      "category": "montagna",
      "visibility": "classica",
      "tags": {
        "name": "Colle della Colubretta",
        "natural": "peak"
      },
      "beauty_score": 0.72
    },
    {
      "id": "node_9825524769",
      "name": "Campitelli",
      "lat": 41.9223629,
      "lon": 13.1961679,
      "category": "montagna",
      "visibility": "classica",
      "tags": {
        "name": "Campitelli",
        "natural": "peak"
      },
      "beauty_score": 0.72
    },
    {
      "id": "node_9825067087",
      "name": "Colle Campitellino",
      "lat": 41.9230115,
      "lon": 13.2064274,
      "category": "montagna",
      "visibility": "classica",
      "tags": {
        "name": "Colle Campitellino",
        "natural": "peak"
      },
      "beauty_score": 0.72
    },
    {
      "id": "node_8249752096",
      "name": "Morra Rossa",
      "lat": 41.9369,
      "lon": 13.1924987,
      "category": "montagna",
      "visibility": "classica",
      "tags": {
        "name": "Morra Rossa",
        "natural": "peak"
      },
      "beauty_score": 0.72
    },
    {
      "id": "node_7515054330",
      "name": "Colle Crocione Rotondo",
      "lat": 41.9392956,
      "lon": 13.2062266,
      "category": "montagna",
      "visibility": "classica",
      "tags": {
        "name": "Colle Crocione Rotondo",
        "natural": "peak"
      },
      "beauty_score": 0.72
    },
    {
      "id": "node_8220499068",
      "name": "Monna dell'Orso",
      "lat": 41.9473542,
      "lon": 13.187499,
      "category": "montagna",
      "visibility": "classica",
      "tags": {
        "name": "Monna dell'Orso",
        "natural": "peak"
      },
      "beauty_score": 0.72
    },
    {
      "id": "node_1330158004",
      "name": "Le Vedute",
      "lat": 41.9542431,
      "lon": 13.2029915,
      "category": "montagna",
      "visibility": "classica",
      "tags": {
        "name": "Le Vedute",
        "tourism": "viewpoint"
      },
      "beauty_score": 0.72
    },
    {
      "id": "node_9823931269",
      "name": "Monte Autore",
      "lat": 41.9584134,
      "lon": 13.2036025,
      "category": "montagna",
      "visibility": "classica",
      "tags": {
        "man_made": "cross",
        "name": "Monte Autore",
        "natural": "peak",
        "wikidata": "Q3861206",
        "wikipedia": "it:Monte Autore"
      },
      "beauty_score": 0.72
    },
    {
      "id": "node_8225265943",
      "name": "Morra Rossa",
      "lat": 41.9024494,
      "lon": 13.2396045,
      "category": "montagna",
      "visibility": "classica",
      "tags": {
        "name": "Morra Rossa",
        "natural": "peak"
      },
      "beauty_score": 0.72
    },
    {
      "id": "node_8225265947",
      "name": "Colle Arena Bianca",
      "lat": 41.9018324,
      "lon": 13.3139047,
      "category": "montagna",
      "visibility": "classica",
      "tags": {
        "name": "Colle Arena Bianca",
        "natural": "peak"
      },
      "beauty_score": 0.72
    },
    {
      "id": "node_8258193463",
      "name": "Colle Piano",
      "lat": 41.9272901,
      "lon": 13.2227862,
      "category": "montagna",
      "visibility": "classica",
      "tags": {
        "name": "Colle Piano",
        "natural": "peak"
      },
      "beauty_score": 0.72
    },
    {
      "id": "node_8225265940",
      "name": "Colle Mariano",
      "lat": 41.9074753,
      "lon": 13.2411218,
      "category": "montagna",
      "visibility": "classica",
      "tags": {
        "name": "Colle Mariano",
        "natural": "peak"
      },
      "beauty_score": 0.72
    },
    {
      "id": "node_8225265942",
      "name": "Il Dente di Faito",
      "lat": 41.9168973,
      "lon": 13.2433393,
      "category": "montagna",
      "visibility": "classica",
      "tags": {
        "name": "Il Dente di Faito",
        "natural": "peak"
      },
      "beauty_score": 0.72
    },
    {
      "id": "node_8225265941",
      "name": "Colle Grosso",
      "lat": 41.9315791,
      "lon": 13.2446352,
      "category": "montagna",
      "visibility": "classica",
      "tags": {
        "name": "Colle Grosso",
        "natural": "peak"
      },
      "beauty_score": 0.72
    },
    {
      "id": "node_4171629111",
      "name": "Passo Procoio",
      "lat": 41.9582122,
      "lon": 13.215392,
      "category": "montagna",
      "visibility": "classica",
      "tags": {
        "name": "Passo Procoio"
      },
      "beauty_score": 0.72
    },
    {
      "id": "node_8238149516",
      "name": "Colle Decollato",
      "lat": 41.9465831,
      "lon": 13.2316019,
      "category": "montagna",
      "visibility": "classica",
      "tags": {
        "name": "Colle Decollato",
        "natural": "peak"
      },
      "beauty_score": 0.72
    },
    {
      "id": "node_5738482905",
      "name": "Colle della Tagliata",
      "lat": 41.9593862,
      "lon": 13.2304354,
      "category": "montagna",
      "visibility": "classica",
      "tags": {
        "name": "Colle della Tagliata",
        "natural": "peak"
      },
      "beauty_score": 0.72
    },
    {
      "id": "node_7503107859",
      "name": "Monte Assalonne",
      "lat": 41.9466821,
      "lon": 13.2492033,
      "category": "montagna",
      "visibility": "classica",
      "tags": {
        "name": "Monte Assalonne",
        "natural": "peak"
      },
      "beauty_score": 0.72
    },
    {
      "id": "node_5738518642",
      "name": "Colle Cimata",
      "lat": 41.9566181,
      "lon": 13.2496275,
      "category": "montagna",
      "visibility": "classica",
      "tags": {
        "name": "Colle Cimata",
        "natural": "peak"
      },
      "beauty_score": 0.72
    },
    {
      "id": "node_8225265937",
      "name": "Roccia Valisca",
      "lat": 41.9085053,
      "lon": 13.2726323,
      "category": "montagna",
      "visibility": "classica",
      "tags": {
        "name": "Roccia Valisca",
        "natural": "peak"
      },
      "beauty_score": 0.72
    },
    {
      "id": "node_8225265938",
      "name": "Colle delle Fontane",
      "lat": 41.9133717,
      "lon": 13.2896215,
      "category": "montagna",
      "visibility": "classica",
      "tags": {
        "name": "Colle delle Fontane",
        "natural": "peak"
      },
      "beauty_score": 0.72
    },
    {
      "id": "node_7512473561",
      "name": "Peschio Vergaro",
      "lat": 41.9242012,
      "lon": 13.2958256,
      "category": "montagna",
      "visibility": "classica",
      "tags": {
        "name": "Peschio Vergaro",
        "natural": "peak"
      },
      "beauty_score": 0.72
    },
    {
      "id": "node_8306528237",
      "name": "Monte Tarino",
      "lat": 41.9324665,
      "lon": 13.2934596,
      "category": "montagna",
      "visibility": "classica",
      "tags": {
        "name": "Monte Tarino",
        "natural": "peak"
      },
      "beauty_score": 0.72
    },
    {
      "id": "node_8306541399",
      "name": "Cima delle coste del Tarino",
      "lat": 41.9296474,
      "lon": 13.2911899,
      "category": "montagna",
      "visibility": "classica",
      "tags": {
        "name": "Cima delle coste del Tarino",
        "natural": "peak"
      },
      "beauty_score": 0.72
    },
    {
      "id": "node_2499776915",
      "name": "Passo Monna della Forcina",
      "lat": 41.9312169,
      "lon": 13.3141339,
      "category": "montagna",
      "visibility": "classica",
      "tags": {
        "name": "Passo Monna della Forcina"
      },
      "beauty_score": 0.72
    },
    {
      "id": "node_1300651538",
      "name": "Monte Tarinello",
      "lat": 41.9389068,
      "lon": 13.2779712,
      "category": "montagna",
      "visibility": "classica",
      "tags": {
        "name": "Monte Tarinello",
        "natural": "peak"
      },
      "beauty_score": 0.72
    },
    {
      "id": "node_9811570389",
      "name": "Monna Crastatara",
      "lat": 41.9548008,
      "lon": 13.3058294,
      "category": "montagna",
      "visibility": "classica",
      "tags": {
        "name": "Monna Crastatara",
        "natural": "peak"
      },
      "beauty_score": 0.72
    },
    {
      "id": "node_9811570388",
      "name": "Cima Ceriotta",
      "lat": 41.9540059,
      "lon": 13.3148168,
      "category": "montagna",
      "visibility": "classica",
      "tags": {
        "name": "Cima Ceriotta",
        "natural": "peak"
      },
      "beauty_score": 0.72
    },
    {
      "id": "node_1796123273",
      "name": "Monte Cotento",
      "lat": 41.9120098,
      "lon": 13.3305089,
      "category": "montagna",
      "visibility": "classica",
      "tags": {
        "name": "Monte Cotento",
        "natural": "peak",
        "wikidata": "Q31623247"
      },
      "beauty_score": 0.72
    },
    {
      "id": "node_2659198941",
      "name": "Anticotento",
      "lat": 41.916965,
      "lon": 13.334628,
      "category": "montagna",
      "visibility": "classica",
      "tags": {
        "name": "Anticotento",
        "natural": "peak"
      },
      "beauty_score": 0.72
    },
    {
      "id": "node_8281001347",
      "name": "Colle le Liscie",
      "lat": 41.9209688,
      "lon": 13.3191982,
      "category": "montagna",
      "visibility": "classica",
      "tags": {
        "name": "Colle le Liscie",
        "natural": "peak"
      },
      "beauty_score": 0.72
    },
    {
      "id": "node_1237304539",
      "name": "Passo Serra Sant Antonio",
      "lat": 41.9184721,
      "lon": 13.3686529,
      "category": "montagna",
      "visibility": "classica",
      "tags": {
        "name": "Passo Serra Sant Antonio",
        "natural": "saddle"
      },
      "beauty_score": 0.72
    },
    {
      "id": "node_5722282118",
      "name": "Monte Viperella",
      "lat": 41.9261727,
      "lon": 13.3573936,
      "category": "montagna",
      "visibility": "classica",
      "tags": {
        "name": "Monte Viperella",
        "natural": "peak"
      },
      "beauty_score": 0.72
    },
    {
      "id": "node_8267971071",
      "name": "Cima della Mozzata",
      "lat": 41.9419358,
      "lon": 13.3531737,
      "category": "montagna",
      "visibility": "classica",
      "tags": {
        "name": "Cima della Mozzata",
        "natural": "peak"
      },
      "beauty_score": 0.72
    },
    {
      "id": "node_7737459281",
      "name": "Punto Panoramico",
      "lat": 41.9403496,
      "lon": 13.3623737,
      "category": "montagna",
      "visibility": "classica",
      "tags": {
        "name": "Punto Panoramico",
        "tourism": "viewpoint"
      },
      "beauty_score": 0.72
    },
    {
      "id": "node_13282955628",
      "name": "Cima della Retta",
      "lat": 41.9593748,
      "lon": 13.349416,
      "category": "montagna",
      "visibility": "classica",
      "tags": {
        "name": "Cima della Retta",
        "natural": "peak"
      },
      "beauty_score": 0.72
    },
    {
      "id": "node_4899781860",
      "name": "Colle Tamburo",
      "lat": 41.9782808,
      "lon": 13.0402388,
      "category": "montagna",
      "visibility": "classica",
      "tags": {
        "name": "Colle Tamburo",
        "natural": "peak"
      },
      "beauty_score": 0.72
    },
    {
      "id": "node_9809483743",
      "name": "Castellone",
      "lat": 41.9944986,
      "lon": 13.0330628,
      "category": "montagna",
      "visibility": "classica",
      "tags": {
        "name": "Castellone",
        "natural": "peak"
      },
      "beauty_score": 0.72
    },
    {
      "id": "node_4989929246",
      "name": "La Prugna",
      "lat": 42.0114587,
      "lon": 13.0426127,
      "category": "montagna",
      "visibility": "classica",
      "tags": {
        "name": "La Prugna",
        "natural": "peak"
      },
      "beauty_score": 0.72
    },
    {
      "id": "node_4899849244",
      "name": "Morra Coreara",
      "lat": 41.9906979,
      "lon": 13.0715724,
      "category": "montagna",
      "visibility": "classica",
      "tags": {
        "name": "Morra Coreara",
        "natural": "peak"
      },
      "beauty_score": 0.72
    },
    {
      "id": "node_8224270756",
      "name": "Colle Scuella",
      "lat": 42.0046424,
      "lon": 13.0616391,
      "category": "montagna",
      "visibility": "classica",
      "tags": {
        "name": "Colle Scuella",
        "natural": "peak"
      },
      "beauty_score": 0.72
    },
    {
      "id": "node_9812170347",
      "name": "Colle Rosso",
      "lat": 41.9888041,
      "lon": 13.0968578,
      "category": "montagna",
      "visibility": "classica",
      "tags": {
        "name": "Colle Rosso",
        "natural": "peak"
      },
      "beauty_score": 0.72
    },
    {
      "id": "node_5738413838",
      "name": "Colle Corizza",
      "lat": 42.0025518,
      "lon": 13.0852295,
      "category": "montagna",
      "visibility": "classica",
      "tags": {
        "name": "Colle Corizza",
        "natural": "peak"
      },
      "beauty_score": 0.72
    },
    {
      "id": "node_9809483223",
      "name": "Colle Civitella",
      "lat": 42.0135491,
      "lon": 13.0538982,
      "category": "montagna",
      "visibility": "classica",
      "tags": {
        "name": "Colle Civitella",
        "natural": "peak"
      },
      "beauty_score": 0.72
    },
    {
      "id": "node_4989929209",
      "name": "Colle Tora",
      "lat": 42.0244812,
      "lon": 13.0468451,
      "category": "montagna",
      "visibility": "classica",
      "tags": {
        "name": "Colle Tora",
        "natural": "peak"
      },
      "beauty_score": 0.72
    },
    {
      "id": "node_9803245625",
      "name": "Colle Orsini",
      "lat": 42.0545901,
      "lon": 13.0251942,
      "category": "montagna",
      "visibility": "classica",
      "tags": {
        "name": "Colle Orsini",
        "natural": "peak"
      },
      "beauty_score": 0.72
    },
    {
      "id": "node_9810562828",
      "name": "Colle Volubrella",
      "lat": 42.0135909,
      "lon": 13.0844486,
      "category": "montagna",
      "visibility": "classica",
      "tags": {
        "name": "Colle Volubrella",
        "natural": "peak"
      },
      "beauty_score": 0.72
    },
    {
      "id": "node_5493262109",
      "name": "Colle Vidale",
      "lat": 42.0230299,
      "lon": 13.1062842,
      "category": "montagna",
      "visibility": "classica",
      "tags": {
        "name": "Colle Vidale",
        "natural": "peak"
      },
      "beauty_score": 0.72
    },
    {
      "id": "node_5493266581",
      "name": "Colle Longo",
      "lat": 42.0300376,
      "lon": 13.0945943,
      "category": "montagna",
      "visibility": "classica",
      "tags": {
        "name": "Colle Longo",
        "natural": "peak"
      },
      "beauty_score": 0.72
    },
    {
      "id": "node_8243448741",
      "name": "I Coppi",
      "lat": 41.9621926,
      "lon": 13.1126568,
      "category": "montagna",
      "visibility": "classica",
      "tags": {
        "name": "I Coppi",
        "natural": "peak"
      },
      "beauty_score": 0.72
    },
    {
      "id": "node_4947687709",
      "name": "Monte Pelato",
      "lat": 41.9693886,
      "lon": 13.1330278,
      "category": "montagna",
      "visibility": "classica",
      "tags": {
        "name": "Monte Pelato",
        "natural": "peak"
      },
      "beauty_score": 0.72
    },
    {
      "id": "node_4947691025",
      "name": "Monte Castell'Amato",
      "lat": 41.9772599,
      "lon": 13.1077751,
      "category": "montagna",
      "visibility": "classica",
      "tags": {
        "name": "Monte Castell'Amato",
        "natural": "peak"
      },
      "beauty_score": 0.72
    },
    {
      "id": "node_9804421258",
      "name": "I Tre Confini",
      "lat": 41.9673918,
      "lon": 13.1434199,
      "category": "montagna",
      "visibility": "classica",
      "tags": {
        "name": "I Tre Confini",
        "natural": "peak"
      },
      "beauty_score": 0.72
    },
    {
      "id": "node_9818608190",
      "name": "Colle Faito",
      "lat": 41.993773,
      "lon": 13.1323904,
      "category": "montagna",
      "visibility": "classica",
      "tags": {
        "name": "Colle Faito",
        "natural": "peak"
      },
      "beauty_score": 0.72
    },
    {
      "id": "node_9805696839",
      "name": "Pachetto",
      "lat": 42.0108353,
      "lon": 13.1112227,
      "category": "montagna",
      "visibility": "classica",
      "tags": {
        "name": "Pachetto",
        "natural": "peak"
      },
      "beauty_score": 0.72
    },
    {
      "id": "node_5738413890",
      "name": "Monte Camposecco",
      "lat": 42.001294,
      "lon": 13.1483526,
      "category": "montagna",
      "visibility": "classica",
      "tags": {
        "name": "Monte Camposecco",
        "natural": "peak"
      },
      "beauty_score": 0.72
    },
    {
      "id": "node_9804421420",
      "name": "Monte Camposecco",
      "lat": 41.9996965,
      "lon": 13.1495516,
      "category": "montagna",
      "visibility": "classica",
      "tags": {
        "name": "Monte Camposecco",
        "natural": "peak"
      },
      "beauty_score": 0.72
    },
    {
      "id": "node_9823931789",
      "name": "Vallone di Monte Autore",
      "lat": 41.9699087,
      "lon": 13.1807613,
      "category": "montagna",
      "visibility": "classica",
      "tags": {
        "name": "Vallone di Monte Autore",
        "place": "locality"
      },
      "beauty_score": 0.72
    },
    {
      "id": "node_4176562210",
      "name": "la Monella",
      "lat": 41.962708,
      "lon": 13.1977959,
      "category": "montagna",
      "visibility": "classica",
      "tags": {
        "name": "la Monella",
        "natural": "peak"
      },
      "beauty_score": 0.72
    },
    {
      "id": "node_6193176374",
      "name": "Recinto - Senza tetto, protezione da cani e cinghiali.",
      "lat": 42.0173788,
      "lon": 13.1121228,
      "category": "montagna",
      "visibility": "classica",
      "tags": {
        "amenity": "shelter",
        "name": "Recinto - Senza tetto, protezione da cani e cinghiali."
      },
      "beauty_score": 0.72
    },
    {
      "id": "node_9810807901",
      "name": "Croce Pamela",
      "lat": 42.0312452,
      "lon": 13.1251116,
      "category": "montagna",
      "visibility": "classica",
      "tags": {
        "man_made": "cross",
        "name": "Croce Pamela",
        "natural": "peak"
      },
      "beauty_score": 0.72
    },
    {
      "id": "node_9810807900",
      "name": "Rifugio La Fossa",
      "lat": 42.0305228,
      "lon": 13.129047,
      "category": "montagna",
      "visibility": "classica",
      "tags": {
        "name": "Rifugio La Fossa",
        "tourism": "wilderness_hut"
      },
      "beauty_score": 0.72
    },
    {
      "id": "node_3283589623",
      "name": "La Torretta",
      "lat": 42.021376,
      "lon": 13.1580123,
      "category": "montagna",
      "visibility": "classica",
      "tags": {
        "name": "La Torretta",
        "natural": "peak"
      },
      "beauty_score": 0.72
    },
    {
      "id": "node_4874865722",
      "name": "Montagnole",
      "lat": 42.0284638,
      "lon": 13.1407857,
      "category": "montagna",
      "visibility": "classica",
      "tags": {
        "name": "Montagnole",
        "natural": "peak"
      },
      "beauty_score": 0.72
    },
    {
      "id": "node_12778894928",
      "name": "Rifugio Campitelli",
      "lat": 42.048985,
      "lon": 13.1486408,
      "category": "montagna",
      "visibility": "classica",
      "tags": {
        "name": "Rifugio Campitelli",
        "tourism": "wilderness_hut"
      },
      "beauty_score": 0.72
    },
    {
      "id": "node_4874864905",
      "name": "Colle della Difesa",
      "lat": 42.0575618,
      "lon": 13.1364298,
      "category": "montagna",
      "visibility": "classica",
      "tags": {
        "name": "Colle della Difesa",
        "natural": "peak"
      },
      "beauty_score": 0.72
    },
    {
      "id": "node_3283589622",
      "name": "Cima di Vallevona",
      "lat": 42.0124563,
      "lon": 13.1747061,
      "category": "montagna",
      "visibility": "classica",
      "tags": {
        "name": "Cima di Vallevona",
        "natural": "peak"
      },
      "beauty_score": 0.72
    },
    {
      "id": "node_8333316146",
      "name": "Monte San Nicola",
      "lat": 42.0208518,
      "lon": 13.2050605,
      "category": "montagna",
      "visibility": "classica",
      "tags": {
        "name": "Monte San Nicola",
        "natural": "peak"
      },
      "beauty_score": 0.72
    },
    {
      "id": "node_11850726497",
      "name": "Monte Cacume",
      "lat": 42.0281482,
      "lon": 13.1874067,
      "category": "montagna",
      "visibility": "classica",
      "tags": {
        "name": "Monte Cacume",
        "natural": "peak"
      },
      "beauty_score": 0.72
    },
    {
      "id": "node_2018677856",
      "name": "Monte Midia",
      "lat": 42.0517978,
      "lon": 13.1870212,
      "category": "montagna",
      "visibility": "classica",
      "tags": {
        "name": "Monte Midia",
        "natural": "peak",
        "wikidata": "Q31618856"
      },
      "beauty_score": 0.72
    },
    {
      "id": "node_4940342435",
      "name": "Colle Acquaro",
      "lat": 42.1381852,
      "lon": 13.0364117,
      "category": "montagna",
      "visibility": "classica",
      "tags": {
        "name": "Colle Acquaro",
        "natural": "peak"
      },
      "beauty_score": 0.72
    },
    {
      "id": "node_4940337383",
      "name": "Colle Aringo",
      "lat": 42.1394458,
      "lon": 13.0474989,
      "category": "montagna",
      "visibility": "classica",
      "tags": {
        "name": "Colle Aringo",
        "natural": "peak"
      },
      "beauty_score": 0.72
    },
    {
      "id": "node_4919784302",
      "name": "Vena Maggiore",
      "lat": 42.167968,
      "lon": 13.028487,
      "category": "montagna",
      "visibility": "classica",
      "tags": {
        "name": "Vena Maggiore",
        "natural": "peak"
      },
      "beauty_score": 0.72
    },
    {
      "id": "node_4967725214",
      "name": "Monte S. Giovanni",
      "lat": 42.1504783,
      "lon": 13.0341792,
      "category": "montagna",
      "visibility": "classica",
      "tags": {
        "name": "Monte S. Giovanni",
        "natural": "peak"
      },
      "beauty_score": 0.72
    },
    {
      "id": "node_4967598815",
      "name": "Malpasso",
      "lat": 42.1604218,
      "lon": 13.0358958,
      "category": "montagna",
      "visibility": "classica",
      "tags": {
        "name": "Malpasso",
        "place": "locality"
      },
      "beauty_score": 0.72
    },
    {
      "id": "node_4876781763",
      "name": "Colle Martino",
      "lat": 42.1279728,
      "lon": 13.0659413,
      "category": "montagna",
      "visibility": "classica",
      "tags": {
        "name": "Colle Martino",
        "natural": "peak"
      },
      "beauty_score": 0.72
    },
    {
      "id": "node_4876782167",
      "name": "Cima Pettonito",
      "lat": 42.0676776,
      "lon": 13.1274819,
      "category": "montagna",
      "visibility": "classica",
      "tags": {
        "name": "Cima Pettonito",
        "natural": "peak"
      },
      "beauty_score": 0.72
    },
    {
      "id": "node_4874864903",
      "name": "San Martino",
      "lat": 42.0804356,
      "lon": 13.1087923,
      "category": "montagna",
      "visibility": "classica",
      "tags": {
        "name": "San Martino",
        "natural": "peak"
      },
      "beauty_score": 0.72
    },
    {
      "id": "node_2338493344",
      "name": "Monte Fontecellese",
      "lat": 42.0746344,
      "lon": 13.1398791,
      "category": "montagna",
      "visibility": "classica",
      "tags": {
        "name": "Monte Fontecellese",
        "natural": "peak",
        "wikidata": "Q31621969"
      },
      "beauty_score": 0.72
    },
    {
      "id": "node_4876782165",
      "name": "Monte Faito",
      "lat": 42.0645713,
      "lon": 13.1495833,
      "category": "montagna",
      "visibility": "classica",
      "tags": {
        "name": "Monte Faito",
        "natural": "peak"
      },
      "beauty_score": 0.72
    },
    {
      "id": "node_4874864904",
      "name": "Cimata di Mazzacane",
      "lat": 42.0724402,
      "lon": 13.1485158,
      "category": "montagna",
      "visibility": "classica",
      "tags": {
        "name": "Cimata di Mazzacane",
        "natural": "peak"
      },
      "beauty_score": 0.72
    },
    {
      "id": "node_9720437955",
      "name": "Montesabinese",
      "lat": 42.0927509,
      "lon": 13.1145907,
      "category": "montagna",
      "visibility": "classica",
      "tags": {
        "name": "Montesabinese",
        "place": "hamlet",
        "wikidata": "Q18426822"
      },
      "beauty_score": 0.72
    },
    {
      "id": "node_1783452057",
      "name": "Colli di Monte Bove",
      "lat": 42.0971073,
      "lon": 13.1505743,
      "category": "montagna",
      "visibility": "classica",
      "tags": {
        "name": "Colli di Monte Bove",
        "wikidata": "Q3969458",
        "wikipedia": "it:Stazione di Colli di Monte Bove"
      },
      "beauty_score": 0.72
    },
    {
      "id": "node_2081201033",
      "name": "Colli di Monte Bove",
      "lat": 42.0970732,
      "lon": 13.1575527,
      "category": "montagna",
      "visibility": "classica",
      "tags": {
        "name": "Colli di Monte Bove",
        "place": "village",
        "wikidata": "Q3683211",
        "wikipedia": "it:Colli di Monte Bove"
      },
      "beauty_score": 0.72
    },
    {
      "id": "node_12364720020",
      "name": "Sant'Angelo di Colli di Monte Bove",
      "lat": 42.1129519,
      "lon": 13.1359961,
      "category": "montagna",
      "visibility": "classica",
      "tags": {
        "amenity": "place_of_worship",
        "name": "Sant'Angelo di Colli di Monte Bove",
        "wikidata": "Q90930134"
      },
      "beauty_score": 0.72
    },
    {
      "id": "node_2343454913",
      "name": "Rifugio Fagus",
      "lat": 42.0698965,
      "lon": 13.1860508,
      "category": "montagna",
      "visibility": "classica",
      "tags": {
        "amenity": "restaurant",
        "name": "Rifugio Fagus",
        "phone": "+39 3497597056"
      },
      "beauty_score": 0.72
    },
    {
      "id": "node_13127558516",
      "name": "Picnic area Colli di Montebove",
      "lat": 42.0973318,
      "lon": 13.1603786,
      "category": "montagna",
      "visibility": "classica",
      "tags": {
        "name": "Picnic area Colli di Montebove",
        "tourism": "picnic_site"
      },
      "beauty_score": 0.72
    },
    {
      "id": "node_2486656811",
      "name": "Monte Serre Piane",
      "lat": 42.104147,
      "lon": 13.1708025,
      "category": "montagna",
      "visibility": "classica",
      "tags": {
        "name": "Monte Serre Piane",
        "natural": "peak"
      },
      "beauty_score": 0.72
    },
    {
      "id": "node_2486649491",
      "name": "Monte Puzzillo",
      "lat": 42.1123644,
      "lon": 13.1927752,
      "category": "montagna",
      "visibility": "classica",
      "tags": {
        "name": "Monte Puzzillo",
        "natural": "peak"
      },
      "beauty_score": 0.72
    },
    {
      "id": "node_2486659175",
      "name": "Colle Boccatore",
      "lat": 42.1109588,
      "lon": 13.2060382,
      "category": "montagna",
      "visibility": "classica",
      "tags": {
        "name": "Colle Boccatore",
        "natural": "peak"
      },
      "beauty_score": 0.72
    },
    {
      "id": "node_2486641981",
      "name": "Poggio Cipolla",
      "lat": 42.1347681,
      "lon": 13.1829497,
      "category": "montagna",
      "visibility": "classica",
      "tags": {
        "name": "Poggio Cipolla",
        "natural": "peak"
      },
      "beauty_score": 0.72
    },
    {
      "id": "node_2486647376",
      "name": "Colle Civitella",
      "lat": 42.1237574,
      "lon": 13.1894278,
      "category": "montagna",
      "visibility": "classica",
      "tags": {
        "name": "Colle Civitella",
        "natural": "peak"
      },
      "beauty_score": 0.72
    },
    {
      "id": "node_2486643640",
      "name": "Colle Alto",
      "lat": 42.1324783,
      "lon": 13.1971547,
      "category": "montagna",
      "visibility": "classica",
      "tags": {
        "name": "Colle Alto",
        "natural": "peak"
      },
      "beauty_score": 0.72
    },
    {
      "id": "node_2486637542",
      "name": "Monte Sant'Angelo",
      "lat": 42.1611787,
      "lon": 13.1902861,
      "category": "montagna",
      "visibility": "classica",
      "tags": {
        "name": "Monte Sant'Angelo",
        "natural": "peak"
      },
      "beauty_score": 0.72
    },
    {
      "id": "node_2486637313",
      "name": "Colle Cerreta",
      "lat": 42.1569827,
      "lon": 13.1950926,
      "category": "montagna",
      "visibility": "classica",
      "tags": {
        "name": "Colle Cerreta",
        "natural": "peak"
      },
      "beauty_score": 0.72
    },
    {
      "id": "node_8238104845",
      "name": "Monte Nero",
      "lat": 41.9706326,
      "lon": 13.2203209,
      "category": "montagna",
      "visibility": "classica",
      "tags": {
        "name": "Monte Nero",
        "natural": "peak"
      },
      "beauty_score": 0.72
    },
    {
      "id": "node_5493622576",
      "name": "Colle Cerasolo",
      "lat": 41.9828168,
      "lon": 13.2173424,
      "category": "montagna",
      "visibility": "classica",
      "tags": {
        "name": "Colle Cerasolo",
        "natural": "peak"
      },
      "beauty_score": 0.72
    },
    {
      "id": "node_8262108303",
      "name": "Colle Cenciarella",
      "lat": 41.963147,
      "lon": 13.2642502,
      "category": "montagna",
      "visibility": "classica",
      "tags": {
        "name": "Colle Cenciarella",
        "natural": "peak"
      },
      "beauty_score": 0.72
    },
    {
      "id": "node_5758515375",
      "name": "Rifugio Maddalena",
      "lat": 42.0022378,
      "lon": 13.2189237,
      "category": "montagna",
      "visibility": "classica",
      "tags": {
        "name": "Rifugio Maddalena",
        "tourism": "alpine_hut"
      },
      "beauty_score": 0.72
    },
    {
      "id": "node_4874865791",
      "name": "Monte Morbano",
      "lat": 42.0072203,
      "lon": 13.2156962,
      "category": "montagna",
      "visibility": "classica",
      "tags": {
        "name": "Monte Morbano",
        "natural": "peak"
      },
      "beauty_score": 0.72
    },
    {
      "id": "node_10916174062",
      "name": "Rifugio Pian delle Scagne",
      "lat": 41.9757293,
      "lon": 13.2735124,
      "category": "montagna",
      "visibility": "classica",
      "tags": {
        "name": "Rifugio Pian delle Scagne",
        "operator": "Comune di Cappadocia",
        "tourism": "wilderness_hut"
      },
      "beauty_score": 0.72
    },
    {
      "id": "node_8331948304",
      "name": "Monte Camiciola",
      "lat": 41.9843267,
      "lon": 13.284749,
      "category": "montagna",
      "visibility": "classica",
      "tags": {
        "name": "Monte Camiciola",
        "natural": "peak"
      },
      "beauty_score": 0.72
    },
    {
      "id": "node_13282952587",
      "name": "Monna Rosa",
      "lat": 41.9640127,
      "lon": 13.2915192,
      "category": "montagna",
      "visibility": "classica",
      "tags": {
        "name": "Monna Rosa",
        "natural": "peak"
      },
      "beauty_score": 0.72
    },
    {
      "id": "node_4526695106",
      "name": "Monte Padiglione",
      "lat": 42.0204107,
      "lon": 13.2475605,
      "category": "montagna",
      "visibility": "classica",
      "tags": {
        "name": "Monte Padiglione",
        "natural": "peak"
      },
      "beauty_score": 0.72
    },
    {
      "id": "node_4526695107",
      "name": "Monte Cesalarga",
      "lat": 42.0405999,
      "lon": 13.2229673,
      "category": "montagna",
      "visibility": "classica",
      "tags": {
        "name": "Monte Cesalarga",
        "natural": "peak"
      },
      "beauty_score": 0.72
    },
    {
      "id": "node_13282952585",
      "name": "Colle Pretaro",
      "lat": 41.9640464,
      "lon": 13.3216071,
      "category": "montagna",
      "visibility": "classica",
      "tags": {
        "name": "Colle Pretaro",
        "natural": "peak"
      },
      "beauty_score": 0.72
    },
    {
      "id": "node_6751282254",
      "name": "Croce Monte Arezzo",
      "lat": 41.9812899,
      "lon": 13.3677522,
      "category": "montagna",
      "visibility": "classica",
      "tags": {
        "historic": "wayside_cross",
        "name": "Croce Monte Arezzo"
      },
      "beauty_score": 0.72
    },
    {
      "id": "node_2725268573",
      "name": "S. Maria Del Monte",
      "lat": 41.9789462,
      "lon": 13.3703932,
      "category": "montagna",
      "visibility": "classica",
      "tags": {
        "amenity": "place_of_worship",
        "name": "S. Maria Del Monte"
      },
      "beauty_score": 0.72
    },
    {
      "id": "node_6066324640",
      "name": "Monte d'Aria",
      "lat": 42.0106965,
      "lon": 13.4078407,
      "category": "montagna",
      "visibility": "classica",
      "tags": {
        "name": "Monte d'Aria",
        "natural": "peak"
      },
      "beauty_score": 0.72
    },
    {
      "id": "node_783426865",
      "name": "Monte Salviano",
      "lat": 42.0174182,
      "lon": 13.4043922,
      "category": "montagna",
      "visibility": "classica",
      "tags": {
        "name": "Monte Salviano",
        "natural": "saddle"
      },
      "beauty_score": 0.72
    },
    {
      "id": "node_2974815410",
      "name": "Valico Monte Salviano",
      "lat": 42.0174902,
      "lon": 13.4045924,
      "category": "montagna",
      "visibility": "classica",
      "tags": {
        "information": "guidepost",
        "name": "Valico Monte Salviano",
        "tourism": "information"
      },
      "beauty_score": 0.72
    },
    {
      "id": "node_6066324643",
      "name": "Monte Salviano",
      "lat": 42.019845,
      "lon": 13.4039768,
      "category": "montagna",
      "visibility": "classica",
      "tags": {
        "name": "Monte Salviano",
        "natural": "peak"
      },
      "beauty_score": 0.72
    },
    {
      "id": "node_6066324642",
      "name": "Monte San Felice",
      "lat": 42.0490201,
      "lon": 13.3771194,
      "category": "montagna",
      "visibility": "classica",
      "tags": {
        "name": "Monte San Felice",
        "natural": "peak"
      },
      "beauty_score": 0.72
    },
    {
      "id": "node_2537888992",
      "name": "Antenne di monte Cimarani",
      "lat": 42.0387035,
      "lon": 13.3943934,
      "category": "montagna",
      "visibility": "classica",
      "tags": {
        "man_made": "tower",
        "name": "Antenne di monte Cimarani"
      },
      "beauty_score": 0.72
    },
    {
      "id": "node_6066324641",
      "name": "Monte Cimarani",
      "lat": 42.0385922,
      "lon": 13.395122,
      "category": "montagna",
      "visibility": "classica",
      "tags": {
        "name": "Monte Cimarani",
        "natural": "peak"
      },
      "beauty_score": 0.72
    },
    {
      "id": "node_7110249903",
      "name": "Asilo Infantile Madonna Del Passo",
      "lat": 42.0429239,
      "lon": 13.4211047,
      "category": "montagna",
      "visibility": "classica",
      "tags": {
        "amenity": "childcare",
        "name": "Asilo Infantile Madonna Del Passo",
        "phone": "+39 0863411555"
      },
      "beauty_score": 0.72
    },
    {
      "id": "node_2486623715",
      "name": "Colle di Mezzo",
      "lat": 42.1034497,
      "lon": 13.2777433,
      "category": "montagna",
      "visibility": "classica",
      "tags": {
        "name": "Colle di Mezzo",
        "natural": "peak"
      },
      "beauty_score": 0.72
    },
    {
      "id": "node_2486623162",
      "name": "Monte Sant'Angelo",
      "lat": 42.1139514,
      "lon": 13.2868885,
      "category": "montagna",
      "visibility": "classica",
      "tags": {
        "name": "Monte Sant'Angelo",
        "natural": "peak"
      },
      "beauty_score": 0.72
    },
    {
      "id": "node_2486626739",
      "name": "Monte della Nebbia",
      "lat": 42.1417692,
      "lon": 13.2267212,
      "category": "montagna",
      "visibility": "classica",
      "tags": {
        "name": "Monte della Nebbia",
        "natural": "peak"
      },
      "beauty_score": 0.72
    },
    {
      "id": "node_2486624178",
      "name": "Monte Faito",
      "lat": 42.1230572,
      "lon": 13.2448701,
      "category": "montagna",
      "visibility": "classica",
      "tags": {
        "name": "Monte Faito",
        "natural": "peak",
        "wikidata": "Q31622364"
      },
      "beauty_score": 0.72
    },
    {
      "id": "node_2486589956",
      "name": "Monte Rosa",
      "lat": 42.1640417,
      "lon": 13.2286095,
      "category": "montagna",
      "visibility": "classica",
      "tags": {
        "name": "Monte Rosa",
        "natural": "peak"
      },
      "beauty_score": 0.72
    },
    {
      "id": "node_2486621188",
      "name": "Colle Pago Petri",
      "lat": 42.1324147,
      "lon": 13.3011751,
      "category": "montagna",
      "visibility": "classica",
      "tags": {
        "name": "Colle Pago Petri",
        "natural": "peak"
      },
      "beauty_score": 0.72
    },
    {
      "id": "node_2486617367",
      "name": "Colle il Cerro",
      "lat": 42.1597154,
      "lon": 13.3050374,
      "category": "montagna",
      "visibility": "classica",
      "tags": {
        "name": "Colle il Cerro",
        "natural": "peak"
      },
      "beauty_score": 0.72
    },
    {
      "id": "node_8875301046",
      "name": "Monte San Nicola",
      "lat": 42.0746437,
      "lon": 13.3323693,
      "category": "montagna",
      "visibility": "classica",
      "tags": {
        "name": "Monte San Nicola",
        "natural": "peak"
      },
      "beauty_score": 0.72
    },
    {
      "id": "node_2486622330",
      "name": "Monte della Maddalena",
      "lat": 42.1170759,
      "lon": 13.3198003,
      "category": "montagna",
      "visibility": "classica",
      "tags": {
        "name": "Monte della Maddalena",
        "natural": "peak"
      },
      "beauty_score": 0.72
    },
    {
      "id": "node_2843218970",
      "name": "Passo le Forche",
      "lat": 42.1487499,
      "lon": 13.337609,
      "category": "montagna",
      "visibility": "classica",
      "tags": {
        "name": "Passo le Forche"
      },
      "beauty_score": 0.72
    },
    {
      "id": "node_2895149233",
      "name": "Monte Rozza",
      "lat": 42.1590716,
      "lon": 13.3558853,
      "category": "montagna",
      "visibility": "classica",
      "tags": {
        "name": "Monte Rozza",
        "natural": "peak",
        "wikidata": "Q100744515"
      },
      "beauty_score": 0.72
    },
    {
      "id": "node_26863998",
      "name": "Monte Velino",
      "lat": 42.1469714,
      "lon": 13.3817219,
      "category": "montagna",
      "visibility": "classica",
      "tags": {
        "name": "Monte Velino",
        "natural": "peak",
        "wikidata": "Q2631149",
        "wikipedia": "it:Monte Velino"
      },
      "beauty_score": 0.72
    },
    {
      "id": "node_1814779312",
      "name": "Monte di Sevice",
      "lat": 42.1547124,
      "lon": 13.3710694,
      "category": "montagna",
      "visibility": "classica",
      "tags": {
        "name": "Monte di Sevice",
        "natural": "peak",
        "wikidata": "Q100707537"
      },
      "beauty_score": 0.72
    },
    {
      "id": "node_2895149232",
      "name": "Costognillo",
      "lat": 42.1523159,
      "lon": 13.3770126,
      "category": "montagna",
      "visibility": "classica",
      "tags": {
        "name": "Costognillo",
        "natural": "peak"
      },
      "beauty_score": 0.72
    },
    {
      "id": "node_1911867131",
      "name": "Monte Cafornia",
      "lat": 42.143013,
      "lon": 13.3950759,
      "category": "montagna",
      "visibility": "classica",
      "tags": {
        "name": "Monte Cafornia",
        "natural": "peak"
      },
      "beauty_score": 0.72
    },
    {
      "id": "node_3802628804",
      "name": "Cimata Fossa dei Cavalli",
      "lat": 42.1498543,
      "lon": 13.4031364,
      "category": "montagna",
      "visibility": "classica",
      "tags": {
        "name": "Cimata Fossa dei Cavalli",
        "natural": "peak"
      },
      "beauty_score": 0.72
    },
    {
      "id": "node_4205139684",
      "name": "Monte il Bicchero",
      "lat": 42.1596121,
      "lon": 13.3988936,
      "category": "montagna",
      "visibility": "classica",
      "tags": {
        "name": "Monte il Bicchero",
        "natural": "peak"
      },
      "beauty_score": 0.72
    },
    {
      "id": "node_2831950131",
      "name": "Punta Trento",
      "lat": 42.1687826,
      "lon": 13.4037533,
      "category": "montagna",
      "visibility": "classica",
      "tags": {
        "name": "Punta Trento",
        "natural": "peak",
        "wikidata": "Q100707525"
      },
      "beauty_score": 0.72
    },
    {
      "id": "node_4205139685",
      "name": "Punta Trieste",
      "lat": 42.1655503,
      "lon": 13.4125102,
      "category": "montagna",
      "visibility": "classica",
      "tags": {
        "name": "Punta Trieste",
        "natural": "peak"
      },
      "beauty_score": 0.72
    },
    {
      "id": "node_4865955679",
      "name": "Monte Cervia",
      "lat": 42.1772692,
      "lon": 13.0227333,
      "category": "montagna",
      "visibility": "classica",
      "tags": {
        "name": "Monte Cervia",
        "natural": "peak",
        "wikidata": "Q24052842"
      },
      "beauty_score": 0.72
    },
    {
      "id": "node_4967598817",
      "name": "Colle Pobbio",
      "lat": 42.1863634,
      "lon": 13.0152159,
      "category": "montagna",
      "visibility": "classica",
      "tags": {
        "name": "Colle Pobbio",
        "natural": "peak"
      },
      "beauty_score": 0.72
    },
    {
      "id": "node_2536621616",
      "name": "Monte Filone",
      "lat": 42.2106268,
      "lon": 13.0099191,
      "category": "montagna",
      "visibility": "classica",
      "tags": {
        "name": "Monte Filone",
        "natural": "peak"
      },
      "beauty_score": 0.72
    },
    {
      "id": "node_2536620235",
      "name": "La Cimata",
      "lat": 42.2208295,
      "lon": 13.027686,
      "category": "montagna",
      "visibility": "classica",
      "tags": {
        "name": "La Cimata",
        "natural": "peak"
      },
      "beauty_score": 0.72
    },
    {
      "id": "node_2536616309",
      "name": "Colle Ciccia",
      "lat": 42.2137101,
      "lon": 13.0334367,
      "category": "montagna",
      "visibility": "classica",
      "tags": {
        "name": "Colle Ciccia",
        "natural": "peak"
      },
      "beauty_score": 0.72
    },
    {
      "id": "node_2536613901",
      "name": "Monte Pietriboni",
      "lat": 42.2171412,
      "lon": 13.0565187,
      "category": "montagna",
      "visibility": "classica",
      "tags": {
        "name": "Monte Pietriboni",
        "natural": "peak"
      },
      "beauty_score": 0.72
    },
    {
      "id": "node_2536612731",
      "name": "Colle della Santissima Trinità",
      "lat": 42.2193596,
      "lon": 13.0707258,
      "category": "montagna",
      "visibility": "classica",
      "tags": {
        "name": "Colle della Santissima Trinità",
        "natural": "peak"
      },
      "beauty_score": 0.72
    },
    {
      "id": "node_26863909",
      "name": "Monte Navegna",
      "lat": 42.2248307,
      "lon": 13.0072119,
      "category": "montagna",
      "visibility": "classica",
      "tags": {
        "name": "Monte Navegna",
        "natural": "peak"
      },
      "beauty_score": 0.72
    },
    {
      "id": "node_10243082216",
      "name": "Colle Li Puzzi",
      "lat": 42.2341417,
      "lon": 13.0161166,
      "category": "montagna",
      "visibility": "classica",
      "tags": {
        "name": "Colle Li Puzzi",
        "natural": "peak"
      },
      "beauty_score": 0.72
    },
    {
      "id": "node_2536623693",
      "name": "il Monte",
      "lat": 42.2553347,
      "lon": 13.0106915,
      "category": "montagna",
      "visibility": "classica",
      "tags": {
        "name": "il Monte",
        "natural": "peak"
      },
      "beauty_score": 0.72
    },
    {
      "id": "node_2536623038",
      "name": "Colle Ettore",
      "lat": 42.2562908,
      "lon": 13.018118,
      "category": "montagna",
      "visibility": "classica",
      "tags": {
        "name": "Colle Ettore",
        "natural": "peak"
      },
      "beauty_score": 0.72
    },
    {
      "id": "node_2536624677",
      "name": "Monte Valli",
      "lat": 42.2682295,
      "lon": 13.0070008,
      "category": "montagna",
      "visibility": "classica",
      "tags": {
        "name": "Monte Valli",
        "natural": "peak"
      },
      "beauty_score": 0.72
    },
    {
      "id": "node_6647380251",
      "name": "Colle Macchia",
      "lat": 42.2696999,
      "lon": 13.023395,
      "category": "montagna",
      "visibility": "classica",
      "tags": {
        "name": "Colle Macchia",
        "natural": "peak"
      },
      "beauty_score": 0.72
    },
    {
      "id": "node_2536609787",
      "name": "Colle Pratello",
      "lat": 42.2267723,
      "lon": 13.0972024,
      "category": "montagna",
      "visibility": "classica",
      "tags": {
        "name": "Colle Pratello",
        "natural": "peak"
      },
      "beauty_score": 0.72
    },
    {
      "id": "node_2536608779",
      "name": "Colle della Baronia",
      "lat": 42.2341429,
      "lon": 13.0944559,
      "category": "montagna",
      "visibility": "classica",
      "tags": {
        "name": "Colle della Baronia",
        "natural": "peak"
      },
      "beauty_score": 0.72
    },
    {
      "id": "node_2536611611",
      "name": "Colle Querce",
      "lat": 42.2374808,
      "lon": 13.1056997,
      "category": "montagna",
      "visibility": "classica",
      "tags": {
        "name": "Colle Querce",
        "natural": "peak"
      },
      "beauty_score": 0.72
    },
    {
      "id": "node_2536859601",
      "name": "Colle Carparo",
      "lat": 42.2069052,
      "lon": 13.1547094,
      "category": "montagna",
      "visibility": "classica",
      "tags": {
        "name": "Colle Carparo",
        "natural": "peak"
      },
      "beauty_score": 0.72
    },
    {
      "id": "node_2536858937",
      "name": "Monte Falcone",
      "lat": 42.2166317,
      "lon": 13.1428219,
      "category": "montagna",
      "visibility": "classica",
      "tags": {
        "name": "Monte Falcone",
        "natural": "peak"
      },
      "beauty_score": 0.72
    },
    {
      "id": "node_2486633234",
      "name": "Monte Val di Varri",
      "lat": 42.1749865,
      "lon": 13.1756949,
      "category": "montagna",
      "visibility": "classica",
      "tags": {
        "name": "Monte Val di Varri",
        "natural": "peak",
        "wikidata": "Q31611764"
      },
      "beauty_score": 0.72
    },
    {
      "id": "node_2486598977",
      "name": "Monte Burno",
      "lat": 42.1953652,
      "lon": 13.2049653,
      "category": "montagna",
      "visibility": "classica",
      "tags": {
        "name": "Monte Burno",
        "natural": "peak"
      },
      "beauty_score": 0.72
    },
    {
      "id": "node_2536862486",
      "name": "Colle Faeta",
      "lat": 42.2093862,
      "lon": 13.1685282,
      "category": "montagna",
      "visibility": "classica",
      "tags": {
        "name": "Colle Faeta",
        "natural": "peak"
      },
      "beauty_score": 0.72
    },
    {
      "id": "node_2536861486",
      "name": "Monte Forcella",
      "lat": 42.2166968,
      "lon": 13.1691719,
      "category": "montagna",
      "visibility": "classica",
      "tags": {
        "name": "Monte Forcella",
        "natural": "peak"
      },
      "beauty_score": 0.72
    },
    {
      "id": "node_2536864780",
      "name": "Monte la Foresta",
      "lat": 42.2132005,
      "lon": 13.205092,
      "category": "montagna",
      "visibility": "classica",
      "tags": {
        "name": "Monte la Foresta",
        "natural": "peak"
      },
      "beauty_score": 0.72
    },
    {
      "id": "node_2536867908",
      "name": "Colle Quintrone",
      "lat": 42.2094482,
      "lon": 13.2078386,
      "category": "montagna",
      "visibility": "classica",
      "tags": {
        "name": "Colle Quintrone",
        "natural": "peak"
      },
      "beauty_score": 0.72
    },
    {
      "id": "node_2536857684",
      "name": "Monte Oddo",
      "lat": 42.2272798,
      "lon": 13.1432081,
      "category": "montagna",
      "visibility": "classica",
      "tags": {
        "name": "Monte Oddo",
        "natural": "peak"
      },
      "beauty_score": 0.72
    },
    {
      "id": "node_2536856954",
      "name": "Colle Comunanza",
      "lat": 42.245772,
      "lon": 13.1455685,
      "category": "montagna",
      "visibility": "classica",
      "tags": {
        "name": "Colle Comunanza",
        "natural": "peak"
      },
      "beauty_score": 0.72
    },
    {
      "id": "node_2536606135",
      "name": "Colle dei Piccioni",
      "lat": 42.2574311,
      "lon": 13.11012,
      "category": "montagna",
      "visibility": "classica",
      "tags": {
        "name": "Colle dei Piccioni",
        "natural": "peak"
      },
      "beauty_score": 0.72
    },
    {
      "id": "node_12181739769",
      "name": "Poggio Poponesco",
      "lat": 42.2687428,
      "lon": 13.1169677,
      "category": "montagna",
      "visibility": "classica",
      "tags": {
        "name": "Poggio Poponesco",
        "natural": "peak"
      },
      "beauty_score": 0.72
    },
    {
      "id": "node_12181739765",
      "name": "Colle Migone",
      "lat": 42.2621529,
      "lon": 13.1588316,
      "category": "montagna",
      "visibility": "classica",
      "tags": {
        "name": "Colle Migone",
        "natural": "peak"
      },
      "beauty_score": 0.72
    },
    {
      "id": "node_11151439795",
      "name": "Croce di Monte Fratta",
      "lat": 42.2515865,
      "lon": 13.2066491,
      "category": "montagna",
      "visibility": "classica",
      "tags": {
        "man_made": "cross",
        "name": "Croce di Monte Fratta"
      },
      "beauty_score": 0.72
    },
    {
      "id": "node_12181739766",
      "name": "Castello Reale",
      "lat": 42.2655432,
      "lon": 13.1968117,
      "category": "montagna",
      "visibility": "classica",
      "tags": {
        "name": "Castello Reale",
        "natural": "peak"
      },
      "beauty_score": 0.72
    },
    {
      "id": "node_2536625417",
      "name": "Colle Retagliola",
      "lat": 42.2741663,
      "lon": 13.0217208,
      "category": "montagna",
      "visibility": "classica",
      "tags": {
        "name": "Colle Retagliola",
        "natural": "peak"
      },
      "beauty_score": 0.72
    },
    {
      "id": "node_2536625900",
      "name": "Monte Sant'Angelo",
      "lat": 42.2923575,
      "lon": 13.0197896,
      "category": "montagna",
      "visibility": "classica",
      "tags": {
        "name": "Monte Sant'Angelo",
        "natural": "peak"
      },
      "beauty_score": 0.72
    },
    {
      "id": "node_2536629347",
      "name": "Colle Sterparelli",
      "lat": 42.3089565,
      "lon": 13.0061854,
      "category": "montagna",
      "visibility": "classica",
      "tags": {
        "name": "Colle Sterparelli",
        "natural": "peak"
      },
      "beauty_score": 0.72
    },
    {
      "id": "node_2536631329",
      "name": "Monte San Vittorino",
      "lat": 42.3105295,
      "lon": 13.0194385,
      "category": "montagna",
      "visibility": "classica",
      "tags": {
        "name": "Monte San Vittorino",
        "natural": "peak"
      },
      "beauty_score": 0.72
    },
    {
      "id": "node_2536632824",
      "name": "Colle della Serra",
      "lat": 42.3117811,
      "lon": 13.0517122,
      "category": "montagna",
      "visibility": "classica",
      "tags": {
        "name": "Colle della Serra",
        "natural": "peak"
      },
      "beauty_score": 0.72
    },
    {
      "id": "node_2536850124",
      "name": "Castiglione",
      "lat": 42.2838922,
      "lon": 13.0854586,
      "category": "montagna",
      "visibility": "classica",
      "tags": {
        "name": "Castiglione",
        "natural": "peak"
      },
      "beauty_score": 0.72
    },
    {
      "id": "node_2536731620",
      "name": "Monte Moro",
      "lat": 42.3149356,
      "lon": 13.0993417,
      "category": "montagna",
      "visibility": "classica",
      "tags": {
        "name": "Monte Moro",
        "natural": "peak"
      },
      "beauty_score": 0.72
    },
    {
      "id": "node_2536656683",
      "name": "Colle della Piana",
      "lat": 42.3383048,
      "lon": 13.0194055,
      "category": "montagna",
      "visibility": "classica",
      "tags": {
        "name": "Colle della Piana",
        "natural": "peak"
      },
      "beauty_score": 0.72
    },
    {
      "id": "node_10115028984",
      "name": "Colle Casetesta",
      "lat": 42.3484272,
      "lon": 13.0144073,
      "category": "montagna",
      "visibility": "classica",
      "tags": {
        "name": "Colle Casetesta",
        "natural": "peak"
      },
      "beauty_score": 0.72
    },
    {
      "id": "node_7939184125",
      "name": "Colle Porcini",
      "lat": 42.3482288,
      "lon": 13.0541396,
      "category": "montagna",
      "visibility": "classica",
      "tags": {
        "name": "Colle Porcini",
        "natural": "peak"
      },
      "beauty_score": 0.72
    },
    {
      "id": "node_2536662145",
      "name": "Monte Serra Secca",
      "lat": 42.359747,
      "lon": 13.0446311,
      "category": "montagna",
      "visibility": "classica",
      "tags": {
        "name": "Monte Serra Secca",
        "natural": "peak"
      },
      "beauty_score": 0.72
    },
    {
      "id": "node_6653250722",
      "name": "Fonte Falla",
      "lat": 42.3647135,
      "lon": 13.0467437,
      "category": "montagna",
      "visibility": "classica",
      "tags": {
        "amenity": "shelter",
        "name": "Fonte Falla"
      },
      "beauty_score": 0.72
    },
    {
      "id": "node_2536635313",
      "name": "Monte Ara dei Sorci",
      "lat": 42.3294854,
      "lon": 13.0611922,
      "category": "montagna",
      "visibility": "classica",
      "tags": {
        "name": "Monte Ara dei Sorci",
        "natural": "peak"
      },
      "beauty_score": 0.72
    },
    {
      "id": "node_712336534",
      "name": "Monte Nurietta",
      "lat": 42.3426511,
      "lon": 13.0858039,
      "category": "montagna",
      "visibility": "classica",
      "tags": {
        "name": "Monte Nurietta",
        "natural": "peak"
      },
      "beauty_score": 0.72
    },
    {
      "id": "node_2536671961",
      "name": "Colle Impicciavera",
      "lat": 42.3704629,
      "lon": 13.0611557,
      "category": "montagna",
      "visibility": "classica",
      "tags": {
        "name": "Colle Impicciavera",
        "natural": "peak"
      },
      "beauty_score": 0.72
    },
    {
      "id": "node_7939184126",
      "name": "Monte Lepre",
      "lat": 42.3688098,
      "lon": 13.0645144,
      "category": "montagna",
      "visibility": "classica",
      "tags": {
        "name": "Monte Lepre",
        "natural": "peak"
      },
      "beauty_score": 0.72
    },
    {
      "id": "node_6513060752",
      "name": "Piano del Monte",
      "lat": 42.3751747,
      "lon": 13.0716276,
      "category": "montagna",
      "visibility": "classica",
      "tags": {
        "name": "Piano del Monte",
        "place": "locality"
      },
      "beauty_score": 0.72
    },
    {
      "id": "node_26863914",
      "name": "Monte Nuria",
      "lat": 42.3603292,
      "lon": 13.0856868,
      "category": "montagna",
      "visibility": "classica",
      "tags": {
        "man_made": "cross",
        "name": "Monte Nuria",
        "natural": "peak",
        "wikipedia": "it:Gruppo montuoso del Monte Nuria"
      },
      "beauty_score": 0.72
    },
    {
      "id": "node_2536723862",
      "name": "Colle della Fungara",
      "lat": 42.36167,
      "lon": 13.0922408,
      "category": "montagna",
      "visibility": "classica",
      "tags": {
        "name": "Colle della Fungara",
        "natural": "peak"
      },
      "beauty_score": 0.72
    },
    {
      "id": "node_7939184128",
      "name": "Costa del monte",
      "lat": 42.3725115,
      "lon": 13.0816269,
      "category": "montagna",
      "visibility": "classica",
      "tags": {
        "name": "Costa del monte",
        "place": "locality"
      },
      "beauty_score": 0.72
    },
    {
      "id": "node_8380108001",
      "name": "Colle del Tinello",
      "lat": 42.2797696,
      "lon": 13.1072718,
      "category": "montagna",
      "visibility": "classica",
      "tags": {
        "name": "Colle del Tinello",
        "natural": "peak"
      },
      "beauty_score": 0.72
    },
    {
      "id": "node_2536849291",
      "name": "Colle dei Prati",
      "lat": 42.2822693,
      "lon": 13.1094318,
      "category": "montagna",
      "visibility": "classica",
      "tags": {
        "name": "Colle dei Prati",
        "natural": "peak"
      },
      "beauty_score": 0.72
    },
    {
      "id": "node_2536847861",
      "name": "la Serra",
      "lat": 42.2764349,
      "lon": 13.1313257,
      "category": "montagna",
      "visibility": "classica",
      "tags": {
        "name": "la Serra",
        "natural": "peak"
      },
      "beauty_score": 0.72
    },
    {
      "id": "node_2536846841",
      "name": "Monte Mandrini",
      "lat": 42.2808427,
      "lon": 13.1330402,
      "category": "montagna",
      "visibility": "classica",
      "tags": {
        "name": "Monte Mandrini",
        "natural": "peak",
        "wikidata": "Q31619593"
      },
      "beauty_score": 0.72
    },
    {
      "id": "node_2536844341",
      "name": "Monte Marelli",
      "lat": 42.2926438,
      "lon": 13.1161714,
      "category": "montagna",
      "visibility": "classica",
      "tags": {
        "name": "Monte Marelli",
        "natural": "peak"
      },
      "beauty_score": 0.72
    },
    {
      "id": "node_2536852975",
      "name": "Colle Alto",
      "lat": 42.2789443,
      "lon": 13.154055,
      "category": "montagna",
      "visibility": "classica",
      "tags": {
        "name": "Colle Alto",
        "natural": "peak"
      },
      "beauty_score": 0.72
    },
    {
      "id": "node_2536843933",
      "name": "Colle dell'Oca",
      "lat": 42.2951146,
      "lon": 13.138738,
      "category": "montagna",
      "visibility": "classica",
      "tags": {
        "name": "Colle dell'Oca",
        "natural": "peak"
      },
      "beauty_score": 0.72
    },
    {
      "id": "node_2536733979",
      "name": "Monte le Rocchette",
      "lat": 42.3179027,
      "lon": 13.1080106,
      "category": "montagna",
      "visibility": "classica",
      "tags": {
        "name": "Monte le Rocchette",
        "natural": "peak"
      },
      "beauty_score": 0.72
    },
    {
      "id": "node_2536740752",
      "name": "Colle Difensa",
      "lat": 42.3125556,
      "lon": 13.1373647,
      "category": "montagna",
      "visibility": "classica",
      "tags": {
        "name": "Colle Difensa",
        "natural": "peak"
      },
      "beauty_score": 0.72
    },
    {
      "id": "node_2536742295",
      "name": "Monte Palombo",
      "lat": 42.3171729,
      "lon": 13.1509045,
      "category": "montagna",
      "visibility": "classica",
      "tags": {
        "name": "Monte Palombo",
        "natural": "peak"
      },
      "beauty_score": 0.72
    },
    {
      "id": "node_12181739768",
      "name": "Colle Peschioso",
      "lat": 42.280992,
      "lon": 13.1631875,
      "category": "montagna",
      "visibility": "classica",
      "tags": {
        "name": "Colle Peschioso",
        "natural": "peak"
      },
      "beauty_score": 0.72
    },
    {
      "id": "node_2536750812",
      "name": "Colle Ciccone",
      "lat": 42.2755229,
      "lon": 13.1774331,
      "category": "montagna",
      "visibility": "classica",
      "tags": {
        "name": "Colle Ciccone",
        "natural": "peak"
      },
      "beauty_score": 0.72
    },
    {
      "id": "node_2536749893",
      "name": "Colle Lungo",
      "lat": 42.2763501,
      "lon": 13.1854797,
      "category": "montagna",
      "visibility": "classica",
      "tags": {
        "name": "Colle Lungo",
        "natural": "peak"
      },
      "beauty_score": 0.72
    },
    {
      "id": "node_2536748496",
      "name": "Colle del Grillo",
      "lat": 42.2902327,
      "lon": 13.1946207,
      "category": "montagna",
      "visibility": "classica",
      "tags": {
        "name": "Colle del Grillo",
        "natural": "peak"
      },
      "beauty_score": 0.72
    },
    {
      "id": "node_12181739767",
      "name": "Colle del Grillo",
      "lat": 42.2915008,
      "lon": 13.1934643,
      "category": "montagna",
      "visibility": "classica",
      "tags": {
        "name": "Colle del Grillo",
        "natural": "peak"
      },
      "beauty_score": 0.72
    },
    {
      "id": "node_2536742824",
      "name": "Monte Quarticciolo",
      "lat": 42.3217443,
      "lon": 13.1672407,
      "category": "montagna",
      "visibility": "classica",
      "tags": {
        "name": "Monte Quarticciolo",
        "natural": "peak"
      },
      "beauty_score": 0.72
    },
    {
      "id": "node_2536744119",
      "name": "Monte tra le Serre",
      "lat": 42.315209,
      "lon": 13.1765533,
      "category": "montagna",
      "visibility": "classica",
      "tags": {
        "name": "Monte tra le Serre",
        "natural": "peak"
      },
      "beauty_score": 0.72
    },
    {
      "id": "node_2536745853",
      "name": "Serra dei Trontoni",
      "lat": 42.3018699,
      "lon": 13.1863595,
      "category": "montagna",
      "visibility": "classica",
      "tags": {
        "name": "Serra dei Trontoni",
        "natural": "peak"
      },
      "beauty_score": 0.72
    },
    {
      "id": "node_7939113651",
      "name": "Colle Cerasa",
      "lat": 42.339299,
      "lon": 13.1176929,
      "category": "montagna",
      "visibility": "classica",
      "tags": {
        "name": "Colle Cerasa",
        "natural": "peak"
      },
      "beauty_score": 0.72
    },
    {
      "id": "node_2536725036",
      "name": "Monte Trascinelli",
      "lat": 42.3475692,
      "lon": 13.1152273,
      "category": "montagna",
      "visibility": "classica",
      "tags": {
        "name": "Monte Trascinelli",
        "natural": "peak"
      },
      "beauty_score": 0.72
    },
    {
      "id": "node_7939113650",
      "name": "Colle di Piscignola",
      "lat": 42.3777822,
      "lon": 13.1186628,
      "category": "montagna",
      "visibility": "classica",
      "tags": {
        "name": "Colle di Piscignola",
        "natural": "peak"
      },
      "beauty_score": 0.72
    },
    {
      "id": "node_3667936884",
      "name": "Monte Vignole",
      "lat": 42.3579462,
      "lon": 13.1496405,
      "category": "montagna",
      "visibility": "classica",
      "tags": {
        "name": "Monte Vignole",
        "natural": "peak"
      },
      "beauty_score": 0.72
    },
    {
      "id": "node_2536721808",
      "name": "Monte Torrecane",
      "lat": 42.367495,
      "lon": 13.1342012,
      "category": "montagna",
      "visibility": "classica",
      "tags": {
        "name": "Monte Torrecane",
        "natural": "peak",
        "wikidata": "Q31612353"
      },
      "beauty_score": 0.72
    },
    {
      "id": "node_2536720434",
      "name": "Colle delle Pozzette",
      "lat": 42.375568,
      "lon": 13.142736,
      "category": "montagna",
      "visibility": "classica",
      "tags": {
        "name": "Colle delle Pozzette",
        "natural": "peak"
      },
      "beauty_score": 0.72
    },
    {
      "id": "node_2536826014",
      "name": "Monte di Crespiola",
      "lat": 42.3436839,
      "lon": 13.1747288,
      "category": "montagna",
      "visibility": "classica",
      "tags": {
        "name": "Monte di Crespiola",
        "natural": "peak"
      },
      "beauty_score": 0.72
    },
    {
      "id": "node_2536819464",
      "name": "Coppo Chiappino",
      "lat": 42.3329268,
      "lon": 13.1901705,
      "category": "montagna",
      "visibility": "classica",
      "tags": {
        "name": "Coppo Chiappino",
        "natural": "peak"
      },
      "beauty_score": 0.72
    },
    {
      "id": "node_2536821018",
      "name": "Colle dello Schiavo",
      "lat": 42.3307234,
      "lon": 13.1984831,
      "category": "montagna",
      "visibility": "classica",
      "tags": {
        "name": "Colle dello Schiavo",
        "natural": "peak"
      },
      "beauty_score": 0.72
    },
    {
      "id": "node_2536831351",
      "name": "Monte Caruso",
      "lat": 42.3608258,
      "lon": 13.2097269,
      "category": "montagna",
      "visibility": "classica",
      "tags": {
        "name": "Monte Caruso",
        "natural": "peak"
      },
      "beauty_score": 0.72
    },
    {
      "id": "node_12225934086",
      "name": "C.le Scarciofano",
      "lat": 42.1696706,
      "lon": 13.248953,
      "category": "montagna",
      "visibility": "classica",
      "tags": {
        "name": "C.le Scarciofano",
        "natural": "peak"
      },
      "beauty_score": 0.72
    },
    {
      "id": "node_2486592192",
      "name": "Monte Castelvecchio",
      "lat": 42.1760887,
      "lon": 13.2516095,
      "category": "montagna",
      "visibility": "classica",
      "tags": {
        "name": "Monte Castelvecchio",
        "natural": "peak"
      },
      "beauty_score": 0.72
    },
    {
      "id": "node_12223921253",
      "name": "C.le Civita",
      "lat": 42.1769644,
      "lon": 13.2562012,
      "category": "montagna",
      "visibility": "classica",
      "tags": {
        "name": "C.le Civita",
        "natural": "peak"
      },
      "beauty_score": 0.72
    },
    {
      "id": "node_2486588466",
      "name": "Colle Vena Francesca",
      "lat": 42.1809607,
      "lon": 13.2605385,
      "category": "montagna",
      "visibility": "classica",
      "tags": {
        "name": "Colle Vena Francesca",
        "natural": "peak"
      },
      "beauty_score": 0.72
    },
    {
      "id": "node_2486588081",
      "name": "Il Pago",
      "lat": 42.190723,
      "lon": 13.2488655,
      "category": "montagna",
      "visibility": "classica",
      "tags": {
        "name": "Il Pago",
        "natural": "peak"
      },
      "beauty_score": 0.72
    },
    {
      "id": "node_2536874385",
      "name": "Colle Cercito",
      "lat": 42.2018824,
      "lon": 13.2233761,
      "category": "montagna",
      "visibility": "classica",
      "tags": {
        "name": "Colle Cercito",
        "natural": "peak"
      },
      "beauty_score": 0.72
    },
    {
      "id": "node_2536766279",
      "name": "Colle Cesa Faiucca",
      "lat": 42.1988638,
      "lon": 13.2338904,
      "category": "montagna",
      "visibility": "classica",
      "tags": {
        "name": "Colle Cesa Faiucca",
        "natural": "peak"
      },
      "beauty_score": 0.72
    },
    {
      "id": "node_2536759235",
      "name": "Monte Costa",
      "lat": 42.2149805,
      "lon": 13.2364224,
      "category": "montagna",
      "visibility": "classica",
      "tags": {
        "name": "Monte Costa",
        "natural": "peak"
      },
      "beauty_score": 0.72
    },
    {
      "id": "node_2536765402",
      "name": "Monte San Mauro",
      "lat": 42.2085279,
      "lon": 13.2341908,
      "category": "montagna",
      "visibility": "classica",
      "tags": {
        "name": "Monte San Mauro",
        "natural": "peak"
      },
      "beauty_score": 0.72
    },
    {
      "id": "node_2536758723",
      "name": "Monte Castiglione",
      "lat": 42.2214944,
      "lon": 13.2271098,
      "category": "montagna",
      "visibility": "classica",
      "tags": {
        "name": "Monte Castiglione",
        "natural": "peak"
      },
      "beauty_score": 0.72
    },
    {
      "id": "node_2536766847",
      "name": "Colle Scrimone",
      "lat": 42.1992437,
      "lon": 13.2411002,
      "category": "montagna",
      "visibility": "classica",
      "tags": {
        "name": "Colle Scrimone",
        "natural": "peak"
      },
      "beauty_score": 0.72
    },
    {
      "id": "node_2536764131",
      "name": "Monte Frontino",
      "lat": 42.2075425,
      "lon": 13.2468508,
      "category": "montagna",
      "visibility": "classica",
      "tags": {
        "name": "Monte Frontino",
        "natural": "peak"
      },
      "beauty_score": 0.72
    },
    {
      "id": "node_2536762973",
      "name": "Colle Fossetta",
      "lat": 42.2117686,
      "lon": 13.2571505,
      "category": "montagna",
      "visibility": "classica",
      "tags": {
        "name": "Colle Fossetta",
        "natural": "peak"
      },
      "beauty_score": 0.72
    },
    {
      "id": "node_2536757253",
      "name": "Monte Calata",
      "lat": 42.2356036,
      "lon": 13.2244919,
      "category": "montagna",
      "visibility": "classica",
      "tags": {
        "name": "Monte Calata",
        "natural": "peak"
      },
      "beauty_score": 0.72
    },
    {
      "id": "node_2536755656",
      "name": "Maglia Cupa",
      "lat": 42.2417862,
      "lon": 13.2312478,
      "category": "montagna",
      "visibility": "classica",
      "tags": {
        "name": "Maglia Cupa",
        "natural": "peak"
      },
      "beauty_score": 0.72
    },
    {
      "id": "node_2536759925",
      "name": "Monte Macello",
      "lat": 42.2241639,
      "lon": 13.242688,
      "category": "montagna",
      "visibility": "classica",
      "tags": {
        "name": "Monte Macello",
        "natural": "peak"
      },
      "beauty_score": 0.72
    },
    {
      "id": "node_2536761539",
      "name": "Colle Bonomi",
      "lat": 42.2249918,
      "lon": 13.2605408,
      "category": "montagna",
      "visibility": "classica",
      "tags": {
        "name": "Colle Bonomi",
        "natural": "peak"
      },
      "beauty_score": 0.72
    },
    {
      "id": "node_2536755117",
      "name": "Maglia Rotonda",
      "lat": 42.2519504,
      "lon": 13.2208114,
      "category": "montagna",
      "visibility": "classica",
      "tags": {
        "name": "Maglia Rotonda",
        "natural": "peak"
      },
      "beauty_score": 0.72
    },
    {
      "id": "node_2536754150",
      "name": "Monte Fratta",
      "lat": 42.2477999,
      "lon": 13.2252862,
      "category": "montagna",
      "visibility": "classica",
      "tags": {
        "name": "Monte Fratta",
        "natural": "peak"
      },
      "beauty_score": 0.72
    },
    {
      "id": "node_11893625116",
      "name": "Colle Cuccule",
      "lat": 42.2690714,
      "lon": 13.2425579,
      "category": "montagna",
      "visibility": "classica",
      "tags": {
        "name": "Colle Cuccule",
        "natural": "peak"
      },
      "beauty_score": 0.72
    },
    {
      "id": "node_2536777269",
      "name": "Coppo Francesco",
      "lat": 42.2654974,
      "lon": 13.263459,
      "category": "montagna",
      "visibility": "classica",
      "tags": {
        "name": "Coppo Francesco",
        "natural": "peak"
      },
      "beauty_score": 0.72
    },
    {
      "id": "node_2536768892",
      "name": "il Cocuruzzo",
      "lat": 42.2260071,
      "lon": 13.2845734,
      "category": "montagna",
      "visibility": "classica",
      "tags": {
        "name": "il Cocuruzzo",
        "natural": "peak"
      },
      "beauty_score": 0.72
    },
    {
      "id": "node_2536769985",
      "name": "Monte Rotondo",
      "lat": 42.2349685,
      "lon": 13.2875058,
      "category": "montagna",
      "visibility": "classica",
      "tags": {
        "name": "Monte Rotondo",
        "natural": "peak"
      },
      "beauty_score": 0.72
    },
    {
      "id": "node_2536770307",
      "name": "Monte Cava",
      "lat": 42.23232,
      "lon": 13.292622,
      "category": "montagna",
      "visibility": "classica",
      "tags": {
        "name": "Monte Cava",
        "natural": "peak",
        "wikidata": "Q3777924",
        "wikipedia": "it:Gruppo montuoso Monte San Rocco-Monte Cava"
      },
      "beauty_score": 0.72
    },
    {
      "id": "node_3127809535",
      "name": "Male Passo",
      "lat": 42.2319114,
      "lon": 13.3026997,
      "category": "montagna",
      "visibility": "classica",
      "tags": {
        "name": "Male Passo",
        "natural": "saddle"
      },
      "beauty_score": 0.72
    },
    {
      "id": "node_2536770539",
      "name": "Monte San Rocco",
      "lat": 42.2307556,
      "lon": 13.3089484,
      "category": "montagna",
      "visibility": "classica",
      "tags": {
        "name": "Monte San Rocco",
        "natural": "peak"
      },
      "beauty_score": 0.72
    },
    {
      "id": "node_2536771424",
      "name": "Difesa del Dente",
      "lat": 42.2433734,
      "lon": 13.2908773,
      "category": "montagna",
      "visibility": "classica",
      "tags": {
        "name": "Difesa del Dente",
        "natural": "peak"
      },
      "beauty_score": 0.72
    },
    {
      "id": "node_2536776577",
      "name": "Colle Acetoni",
      "lat": 42.2592406,
      "lon": 13.2780073,
      "category": "montagna",
      "visibility": "classica",
      "tags": {
        "name": "Colle Acetoni",
        "natural": "peak"
      },
      "beauty_score": 0.72
    },
    {
      "id": "node_2536777791",
      "name": "Colle Peschiarolo",
      "lat": 42.2724204,
      "lon": 13.2684372,
      "category": "montagna",
      "visibility": "classica",
      "tags": {
        "name": "Colle Peschiarolo",
        "natural": "peak"
      },
      "beauty_score": 0.72
    },
    {
      "id": "node_2536774082",
      "name": "Colle Polledrasino",
      "lat": 42.2527608,
      "lon": 13.2931994,
      "category": "montagna",
      "visibility": "classica",
      "tags": {
        "name": "Colle Polledrasino",
        "natural": "peak"
      },
      "beauty_score": 0.72
    },
    {
      "id": "node_2536776225",
      "name": "Prata Sor Paolo",
      "lat": 42.2623849,
      "lon": 13.2925986,
      "category": "montagna",
      "visibility": "classica",
      "tags": {
        "name": "Prata Sor Paolo",
        "natural": "peak"
      },
      "beauty_score": 0.72
    },
    {
      "id": "node_2908951345",
      "name": "Iaccio dei Montoni",
      "lat": 42.1726312,
      "lon": 13.3420277,
      "category": "montagna",
      "visibility": "classica",
      "tags": {
        "name": "Iaccio dei Montoni",
        "natural": "peak"
      },
      "beauty_score": 0.72
    },
    {
      "id": "node_1317127343",
      "name": "Murolungo",
      "lat": 42.1768406,
      "lon": 13.3425622,
      "category": "montagna",
      "visibility": "classica",
      "tags": {
        "name": "Murolungo",
        "natural": "peak"
      },
      "beauty_score": 0.72
    },
    {
      "id": "node_2486610501",
      "name": "Monte Morrone",
      "lat": 42.1939411,
      "lon": 13.3272892,
      "category": "montagna",
      "visibility": "classica",
      "tags": {
        "name": "Monte Morrone",
        "natural": "peak"
      },
      "beauty_score": 0.72
    },
    {
      "id": "node_12809089403",
      "name": "Gigi Panei 1",
      "lat": 42.1831559,
      "lon": 13.3301465,
      "category": "montagna",
      "visibility": "classica",
      "tags": {
        "amenity": "shelter",
        "name": "Gigi Panei 1"
      },
      "beauty_score": 0.72
    },
    {
      "id": "node_3507509080",
      "name": "Cima ZIS",
      "lat": 42.1912343,
      "lon": 13.3366897,
      "category": "montagna",
      "visibility": "classica",
      "tags": {
        "name": "Cima ZIS",
        "natural": "peak"
      },
      "beauty_score": 0.72
    },
    {
      "id": "node_2909015251",
      "name": "Cimata di Macchia Triste",
      "lat": 42.1790484,
      "lon": 13.3639584,
      "category": "montagna",
      "visibility": "classica",
      "tags": {
        "name": "Cimata di Macchia Triste",
        "natural": "peak"
      },
      "beauty_score": 0.72
    },
    {
      "id": "node_5128024663",
      "name": "Malopasso",
      "lat": 42.1830795,
      "lon": 13.3665425,
      "category": "montagna",
      "visibility": "classica",
      "tags": {
        "name": "Malopasso",
        "natural": "saddle"
      },
      "beauty_score": 0.72
    },
    {
      "id": "node_3507509081",
      "name": "Punta dell'Uccettu",
      "lat": 42.1929296,
      "lon": 13.3572602,
      "category": "montagna",
      "visibility": "classica",
      "tags": {
        "name": "Punta dell'Uccettu",
        "natural": "peak"
      },
      "beauty_score": 0.72
    },
    {
      "id": "node_6896185163",
      "name": "Monte Ginepro",
      "lat": 42.2081651,
      "lon": 13.3320619,
      "category": "montagna",
      "visibility": "classica",
      "tags": {
        "name": "Monte Ginepro",
        "natural": "peak"
      },
      "beauty_score": 0.72
    },
    {
      "id": "node_9252597836",
      "name": "Rifugio Prato San Rocco",
      "lat": 42.2206467,
      "lon": 13.3364435,
      "category": "montagna",
      "visibility": "classica",
      "tags": {
        "name": "Rifugio Prato San Rocco",
        "operator": "Azienda Agricola Monte San Rocco",
        "phone": "+393483156450",
        "tourism": "alpine_hut"
      },
      "beauty_score": 0.72
    },
    {
      "id": "node_3623643566",
      "name": "Costone",
      "lat": 42.1766515,
      "lon": 13.389801,
      "category": "montagna",
      "visibility": "classica",
      "tags": {
        "name": "Costone",
        "natural": "peak"
      },
      "beauty_score": 0.72
    },
    {
      "id": "node_3623643564",
      "name": "Costone Occidentale",
      "lat": 42.1839828,
      "lon": 13.3790485,
      "category": "montagna",
      "visibility": "classica",
      "tags": {
        "name": "Costone Occidentale",
        "natural": "peak"
      },
      "beauty_score": 0.72
    },
    {
      "id": "node_2930705222",
      "name": "Cima nord del Passo del Puzzillo",
      "lat": 42.1930878,
      "lon": 13.3839873,
      "category": "montagna",
      "visibility": "classica",
      "tags": {
        "name": "Cima nord del Passo del Puzzillo",
        "natural": "peak"
      },
      "beauty_score": 0.72
    },
    {
      "id": "node_2930705225",
      "name": "Passo del Puzzillo",
      "lat": 42.1903606,
      "lon": 13.3831273,
      "category": "montagna",
      "visibility": "classica",
      "tags": {
        "name": "Passo del Puzzillo",
        "natural": "saddle"
      },
      "beauty_score": 0.72
    },
    {
      "id": "node_2930705226",
      "name": "Passo della Torricella",
      "lat": 42.1951887,
      "lon": 13.3859967,
      "category": "montagna",
      "visibility": "classica",
      "tags": {
        "name": "Passo della Torricella",
        "natural": "saddle"
      },
      "beauty_score": 0.72
    },
    {
      "id": "node_2920566532",
      "name": "Cimata di Puzzillo",
      "lat": 42.1818686,
      "lon": 13.3972806,
      "category": "montagna",
      "visibility": "classica",
      "tags": {
        "name": "Cimata di Puzzillo",
        "natural": "peak"
      },
      "beauty_score": 0.72
    },
    {
      "id": "node_9848519877",
      "name": "Colle delle Trincere",
      "lat": 42.1774103,
      "lon": 13.408969,
      "category": "montagna",
      "visibility": "classica",
      "tags": {
        "name": "Colle delle Trincere",
        "natural": "peak"
      },
      "beauty_score": 0.72
    },
    {
      "id": "node_3213806133",
      "name": "Cimata di Pezza - ovest",
      "lat": 42.1854925,
      "lon": 13.4047088,
      "category": "montagna",
      "visibility": "classica",
      "tags": {
        "name": "Cimata di Pezza - ovest",
        "natural": "peak"
      },
      "beauty_score": 0.72
    },
    {
      "id": "node_3213806132",
      "name": "Cimata di Pezza - est",
      "lat": 42.1919632,
      "lon": 13.4167495,
      "category": "montagna",
      "visibility": "classica",
      "tags": {
        "name": "Cimata di Pezza - est",
        "natural": "peak"
      },
      "beauty_score": 0.72
    },
    {
      "id": "node_2863701057",
      "name": "Monte La Torricella",
      "lat": 42.2048491,
      "lon": 13.3737662,
      "category": "montagna",
      "visibility": "classica",
      "tags": {
        "name": "Monte La Torricella",
        "natural": "peak"
      },
      "beauty_score": 0.72
    },
    {
      "id": "node_2930705221",
      "name": "Cima di Morretano",
      "lat": 42.1981862,
      "lon": 13.3859887,
      "category": "montagna",
      "visibility": "classica",
      "tags": {
        "name": "Cima di Morretano",
        "natural": "peak"
      },
      "beauty_score": 0.72
    },
    {
      "id": "node_2930705224",
      "name": "Passo del Morretano",
      "lat": 42.2007446,
      "lon": 13.3872964,
      "category": "montagna",
      "visibility": "classica",
      "tags": {
        "name": "Passo del Morretano",
        "natural": "saddle"
      },
      "beauty_score": 0.72
    },
    {
      "id": "node_1415180135",
      "name": "Monte Puzzillo",
      "lat": 42.2034509,
      "lon": 13.3940129,
      "category": "montagna",
      "visibility": "classica",
      "tags": {
        "name": "Monte Puzzillo",
        "natural": "peak"
      },
      "beauty_score": 0.72
    },
    {
      "id": "node_2863701335",
      "name": "Monte Cornacchia",
      "lat": 42.2152009,
      "lon": 13.3816824,
      "category": "montagna",
      "visibility": "classica",
      "tags": {
        "name": "Monte Cornacchia",
        "natural": "peak"
      },
      "beauty_score": 0.72
    },
    {
      "id": "node_2930705220",
      "name": "Anticima del Puzzillo",
      "lat": 42.2107026,
      "lon": 13.3856202,
      "category": "montagna",
      "visibility": "classica",
      "tags": {
        "name": "Anticima del Puzzillo",
        "natural": "peak"
      },
      "beauty_score": 0.72
    },
    {
      "id": "node_2910853785",
      "name": "Monte Orsello",
      "lat": 42.2474207,
      "lon": 13.3640695,
      "category": "montagna",
      "visibility": "classica",
      "tags": {
        "name": "Monte Orsello",
        "natural": "peak"
      },
      "beauty_score": 0.72
    },
    {
      "id": "node_2930705223",
      "name": "Monte Fratta",
      "lat": 42.2289282,
      "lon": 13.3697488,
      "category": "montagna",
      "visibility": "classica",
      "tags": {
        "name": "Monte Fratta",
        "natural": "peak"
      },
      "beauty_score": 0.72
    },
    {
      "id": "node_11895215541",
      "name": "Colle Comune",
      "lat": 42.2761588,
      "lon": 13.2342165,
      "category": "montagna",
      "visibility": "classica",
      "tags": {
        "name": "Colle Comune",
        "natural": "peak"
      },
      "beauty_score": 0.72
    },
    {
      "id": "node_2536809362",
      "name": "Colle Cornacchia",
      "lat": 42.2935588,
      "lon": 13.2279413,
      "category": "montagna",
      "visibility": "classica",
      "tags": {
        "name": "Colle Cornacchia",
        "natural": "peak"
      },
      "beauty_score": 0.72
    },
    {
      "id": "node_11895188166",
      "name": "Colle Prova",
      "lat": 42.2790046,
      "lon": 13.2399437,
      "category": "montagna",
      "visibility": "classica",
      "tags": {
        "name": "Colle Prova",
        "natural": "peak"
      },
      "beauty_score": 0.72
    },
    {
      "id": "node_2536806688",
      "name": "Castellaccio",
      "lat": 42.2964096,
      "lon": 13.240178,
      "category": "montagna",
      "visibility": "classica",
      "tags": {
        "name": "Castellaccio",
        "natural": "peak"
      },
      "beauty_score": 0.72
    },
    {
      "id": "node_2536812238",
      "name": "Colle Saraceno",
      "lat": 42.3067022,
      "lon": 13.2295559,
      "category": "montagna",
      "visibility": "classica",
      "tags": {
        "name": "Colle Saraceno",
        "natural": "peak"
      },
      "beauty_score": 0.72
    },
    {
      "id": "node_2536815289",
      "name": "Coppo della Conca",
      "lat": 42.3220299,
      "lon": 13.2146622,
      "category": "montagna",
      "visibility": "classica",
      "tags": {
        "name": "Coppo della Conca",
        "natural": "peak"
      },
      "beauty_score": 0.72
    },
    {
      "id": "node_2536806120",
      "name": "Orticaro",
      "lat": 42.3004495,
      "lon": 13.2427739,
      "category": "montagna",
      "visibility": "classica",
      "tags": {
        "name": "Orticaro",
        "natural": "peak"
      },
      "beauty_score": 0.72
    },
    {
      "id": "node_2536805237",
      "name": "la Serra",
      "lat": 42.3090524,
      "lon": 13.2474516,
      "category": "montagna",
      "visibility": "classica",
      "tags": {
        "name": "la Serra",
        "natural": "peak"
      },
      "beauty_score": 0.72
    },
    {
      "id": "node_2536783250",
      "name": "la Piaggia",
      "lat": 42.2828338,
      "lon": 13.2715271,
      "category": "montagna",
      "visibility": "classica",
      "tags": {
        "name": "la Piaggia",
        "natural": "peak"
      },
      "beauty_score": 0.72
    },
    {
      "id": "node_2536787615",
      "name": "Monte Ruella",
      "lat": 42.2746242,
      "lon": 13.2930835,
      "category": "montagna",
      "visibility": "classica",
      "tags": {
        "name": "Monte Ruella",
        "natural": "peak"
      },
      "beauty_score": 0.72
    },
    {
      "id": "node_12177913601",
      "name": "Le Forme",
      "lat": 42.2787376,
      "lon": 13.3101335,
      "category": "montagna",
      "visibility": "classica",
      "tags": {
        "name": "Le Forme",
        "tourism": "viewpoint"
      },
      "beauty_score": 0.72
    },
    {
      "id": "node_2536801222",
      "name": "Colle Munito",
      "lat": 42.2992465,
      "lon": 13.3135842,
      "category": "montagna",
      "visibility": "classica",
      "tags": {
        "name": "Colle Munito",
        "natural": "peak"
      },
      "beauty_score": 0.72
    },
    {
      "id": "node_2536822269",
      "name": "Cupola di San Pietro",
      "lat": 42.3381167,
      "lon": 13.2132459,
      "category": "montagna",
      "visibility": "classica",
      "tags": {
        "name": "Cupola di San Pietro",
        "natural": "peak"
      },
      "beauty_score": 0.72
    },
    {
      "id": "node_2536817572",
      "name": "Colle Tondo",
      "lat": 42.3300254,
      "lon": 13.2256077,
      "category": "montagna",
      "visibility": "classica",
      "tags": {
        "name": "Colle Tondo",
        "natural": "peak"
      },
      "beauty_score": 0.72
    },
    {
      "id": "node_2536833197",
      "name": "Monte Sant'Angelo",
      "lat": 42.3567016,
      "lon": 13.2320879,
      "category": "montagna",
      "visibility": "classica",
      "tags": {
        "name": "Monte Sant'Angelo",
        "natural": "peak"
      },
      "beauty_score": 0.72
    },
    {
      "id": "node_2536835016",
      "name": "Faggio della Notte",
      "lat": 42.3749656,
      "lon": 13.2171534,
      "category": "montagna",
      "visibility": "classica",
      "tags": {
        "name": "Faggio della Notte",
        "natural": "peak"
      },
      "beauty_score": 0.72
    },
    {
      "id": "node_2536833540",
      "name": "la Serra",
      "lat": 42.3695139,
      "lon": 13.2255219,
      "category": "montagna",
      "visibility": "classica",
      "tags": {
        "name": "la Serra",
        "natural": "peak"
      },
      "beauty_score": 0.72
    },
    {
      "id": "node_2536840436",
      "name": "Colle Salomone",
      "lat": 42.3726195,
      "lon": 13.2626866,
      "category": "montagna",
      "visibility": "classica",
      "tags": {
        "name": "Colle Salomone",
        "natural": "peak"
      },
      "beauty_score": 0.72
    },
    {
      "id": "node_2536800327",
      "name": "le Conche",
      "lat": 42.2741654,
      "lon": 13.3255146,
      "category": "montagna",
      "visibility": "classica",
      "tags": {
        "name": "le Conche",
        "natural": "peak"
      },
      "beauty_score": 0.72
    },
    {
      "id": "node_2536798092",
      "name": "Colle Raponaglia",
      "lat": 42.2852467,
      "lon": 13.3209656,
      "category": "montagna",
      "visibility": "classica",
      "tags": {
        "name": "Colle Raponaglia",
        "natural": "peak"
      },
      "beauty_score": 0.72
    },
    {
      "id": "node_4685210986",
      "name": "Monte Rotondo",
      "lat": 42.2883142,
      "lon": 13.3770213,
      "category": "montagna",
      "visibility": "classica",
      "tags": {
        "name": "Monte Rotondo",
        "natural": "peak"
      },
      "beauty_score": 0.72
    },
    {
      "id": "node_4685210988",
      "name": "Le Quartora",
      "lat": 42.2878645,
      "lon": 13.3938248,
      "category": "montagna",
      "visibility": "classica",
      "tags": {
        "name": "Le Quartora",
        "natural": "peak"
      },
      "beauty_score": 0.72
    },
    {
      "id": "node_4685210987",
      "name": "Colle Cerasitto",
      "lat": 42.2890153,
      "lon": 13.397588,
      "category": "montagna",
      "visibility": "classica",
      "tags": {
        "name": "Colle Cerasitto",
        "natural": "peak"
      },
      "beauty_score": 0.72
    },
    {
      "id": "node_8457377018",
      "name": "Colle Cocoruzzo",
      "lat": 42.2988308,
      "lon": 13.4186762,
      "category": "montagna",
      "visibility": "classica",
      "tags": {
        "name": "Colle Cocoruzzo",
        "natural": "peak"
      },
      "beauty_score": 0.72
    },
    {
      "id": "node_3452775201",
      "name": "Monte Luco",
      "lat": 42.3398803,
      "lon": 13.37509,
      "category": "montagna",
      "visibility": "classica",
      "tags": {
        "name": "Monte Luco",
        "natural": "peak",
        "wikidata": "Q31620048",
        "wikipedia": "it:Monte Luco (Appennino abruzzese)"
      },
      "beauty_score": 0.72
    },
    {
      "id": "node_777991395",
      "name": "Malepasso",
      "lat": 42.3356797,
      "lon": 13.4005705,
      "category": "montagna",
      "visibility": "classica",
      "tags": {
        "name": "Malepasso",
        "place": "neighbourhood",
        "wikidata": "Q18426804"
      },
      "beauty_score": 0.72
    },
    {
      "id": "node_5051731268",
      "name": "Belvedere Porta Tione",
      "lat": 42.3458079,
      "lon": 13.4008923,
      "category": "montagna",
      "visibility": "classica",
      "tags": {
        "name": "Belvedere Porta Tione",
        "tourism": "viewpoint"
      },
      "beauty_score": 0.72
    },
    {
      "id": "node_5783037732",
      "name": "MONTESMO",
      "lat": 42.3512933,
      "lon": 13.398714,
      "category": "montagna",
      "visibility": "classica",
      "tags": {
        "name": "MONTESMO"
      },
      "beauty_score": 0.72
    },
    {
      "id": "node_6255449135",
      "name": "Monte dei Paschi di Siena",
      "lat": 42.3462012,
      "lon": 13.3978481,
      "category": "montagna",
      "visibility": "classica",
      "tags": {
        "amenity": "bank",
        "brand": "Monte dei Paschi di Siena",
        "name": "Monte dei Paschi di Siena",
        "opening_hours": "Mo-Fr 08:20-13:25,14:35-15:55",
        "operator": "Monte dei Paschi di Siena",
        "phone": "+39 0862 48401",
        "short_name": "MPS L'Aquila",
        "website": "https://www.mps.it/"
      },
      "beauty_score": 0.72
    },
    {
      "id": "node_6898095914",
      "name": "Il Passo Possibile",
      "lat": 42.3511606,
      "lon": 13.4004217,
      "category": "montagna",
      "visibility": "classica",
      "tags": {
        "name": "Il Passo Possibile"
      },
      "beauty_score": 0.72
    },
    {
      "id": "node_6126379811",
      "name": "Piazzale Monte Meta",
      "lat": 42.3590328,
      "lon": 13.3952444,
      "category": "montagna",
      "visibility": "classica",
      "tags": {
        "name": "Piazzale Monte Meta",
        "place": "square"
      },
      "beauty_score": 0.72
    },
    {
      "id": "node_6317675077",
      "name": "La Rocchetta",
      "lat": 42.3762974,
      "lon": 13.3751593,
      "category": "montagna",
      "visibility": "classica",
      "tags": {
        "name": "La Rocchetta",
        "tourism": "viewpoint"
      },
      "beauty_score": 0.72
    },
    {
      "id": "node_5009195721",
      "name": "Belvedere",
      "lat": 42.3555403,
      "lon": 13.397369,
      "category": "montagna",
      "visibility": "classica",
      "tags": {
        "name": "Belvedere",
        "tourism": "viewpoint"
      },
      "beauty_score": 0.72
    },