{
  "region_id": "it-lazio-borghi",
  "country": "IT",
  "label_it": "Lazio • borghi",
  "generated_at": "2026-01-14T20:55:20.956Z",
  "places": [
    {
      "id": "node:414032311",
      "name": "Borgo Faiti",
      "lat": 41.4680806,
      "lon": 12.9948512,
      "type": "borghi",
      "visibility": "chicca",
      "tags": [
        "is_in=Latina, Lazio, Italy",
        "name=Borgo Faiti",
        "old_name=Foro Appio",
        "place=village",
        "website=http://www.borgofaiti.it",
        "wikidata=Q2774096",
        "wikipedia=it:Borgo Faiti"
      ],
      "score": 101
    },
    {
      "id": "node:72961877",
      "name": "Borgo Velino",
      "lat": 42.406033,
      "lon": 13.059283,
      "type": "borghi",
      "visibility": "chicca",
      "tags": [
        "gfoss_id=4846",
        "name=Borgo Velino",
        "place=village",
        "population=922",
        "source=geodati.gfoss.it",
        "wikidata=Q30022997"
      ],
      "score": 95
    },
    {
      "id": "node:414029703",
      "name": "Borgo Bainsizza",
      "lat": 41.4842005,
      "lon": 12.7913956,
      "type": "borghi",
      "visibility": "chicca",
      "tags": [
        "alt_name=Casolare",
        "is_in=Latina, Lazio, Italy",
        "name=Borgo Bainsizza",
        "place=village",
        "wikidata=Q18453646"
      ],
      "score": 95
    },
    {
      "id": "node:414033474",
      "name": "Borgo Grappa",
      "lat": 41.391801,
      "lon": 12.9479024,
      "type": "borghi",
      "visibility": "chicca",
      "tags": [
        "is_in=Latina, Lazio, Italy",
        "name=Borgo Grappa",
        "place=village",
        "wikidata=Q3642495",
        "wikimedia_commons=Category:Borgo Grappa",
        "wikipedia=it:Borgo Grappa"
      ],
      "score": 95
    },
    {
      "id": "node:417769957",
      "name": "Borgo Santa Maria",
      "lat": 41.4629928,
      "lon": 12.808278,
      "type": "borghi",
      "visibility": "chicca",
      "tags": [
        "name=Borgo Santa Maria",
        "old_name=Gnif Gnaf",
        "place=village",
        "wikidata=Q18453658",
        "wikipedia=it:Borgo Santa Maria (Latina)"
      ],
      "score": 95
    },
    {
      "id": "node:457008233",
      "name": "Borgo San Pietro",
      "lat": 42.2725901,
      "lon": 13.0637606,
      "type": "borghi",
      "visibility": "chicca",
      "tags": [
        "name=Borgo San Pietro",
        "place=village",
        "wikidata=Q3642533",
        "wikipedia=it:Borgo San Pietro (Petrella Salto)"
      ],
      "score": 95
    },
    {
      "id": "node:1732838829",
      "name": "Borgo Flora",
      "lat": 41.5481464,
      "lon": 12.8314986,
      "type": "borghi",
      "visibility": "chicca",
      "tags": [
        "is_in=Latina, Lazio, Italy",
        "name=Borgo Flora",
        "place=village",
        "wikidata=Q2467983",
        "wikipedia=it:Borgo Flora"
      ],
      "score": 95
    },
    {
      "id": "node:2132546545",
      "name": "Borgonuovo",
      "lat": 42.3232497,
      "lon": 12.5923694,
      "type": "borghi",
      "visibility": "chicca",
      "tags": [
        "name=Borgonuovo",
        "place=village",
        "wikidata=Q18453972"
      ],
      "score": 95
    },
    {
      "id": "node:2461585081",
      "name": "Borgo Sabotino",
      "lat": 41.4274512,
      "lon": 12.8195922,
      "type": "borghi",
      "visibility": "chicca",
      "tags": [
        "alt_name=Passo Genovese",
        "is_in=Latina, Lazio, Italy",
        "name=Borgo Sabotino",
        "place=village",
        "postal_code=04100",
        "wikidata=Q3642520",
        "wikipedia=it:Borgo Sabotino"
      ],
      "score": 95
    },
    {
      "id": "node:2461598753",
      "name": "Borgo Piave",
      "lat": 41.4808508,
      "lon": 12.8659567,
      "type": "borghi",
      "visibility": "chicca",
      "tags": [
        "name=Borgo Piave",
        "place=village",
        "wikidata=Q18453654",
        "wikipedia=sr:Борго Пјаве (Латина)"
      ],
      "score": 95
    },
    {
      "id": "node:2461598763",
      "name": "Borgo Podgora",
      "lat": 41.5117482,
      "lon": 12.8556029,
      "type": "borghi",
      "visibility": "chicca",
      "tags": [
        "name=Borgo Podgora",
        "place=village",
        "wikidata=Q1120731",
        "wikipedia=it:Borgo Podgora"
      ],
      "score": 95
    },
    {
      "id": "node:3794774663",
      "name": "Torano di Borgorose",
      "lat": 42.1530976,
      "lon": 13.2598747,
      "type": "borghi",
      "visibility": "chicca",
      "tags": [
        "name=Torano di Borgorose",
        "place=village",
        "wikidata=Q2500339",
        "wikipedia=it:Torano di Borgorose"
      ],
      "score": 95
    },
    {
      "id": "node:4424268310",
      "name": "Borgo Quinzio",
      "lat": 42.1624559,
      "lon": 12.7164388,
      "type": "borghi",
      "visibility": "chicca",
      "tags": [
        "ele=180",
        "name=Borgo Quinzio",
        "place=village",
        "population=940",
        "wikidata=Q3642517",
        "wikimedia_commons=Category:Borgo Quinzio",
        "wikipedia=it:Borgo Quinzio"
      ],
      "score": 95
    },
    {
      "id": "node:414032596",
      "name": "Borgo San Michele",
      "lat": 41.4409825,
      "lon": 12.9678393,
      "type": "borghi",
      "visibility": "chicca",
      "tags": [
        "is_in=Latina, Lazio, Italy",
        "name=Borgo San Michele",
        "place=village"
      ],
      "score": 85
    },
    {
      "id": "node:414032912",
      "name": "Borgo Isonzo",
      "lat": 41.4406096,
      "lon": 12.9090952,
      "type": "borghi",
      "visibility": "chicca",
      "tags": [
        "name=Borgo Isonzo",
        "place=village"
      ],
      "score": 85
    },
    {
      "id": "node:2461598748",
      "name": "Borgo Carso",
      "lat": 41.5366011,
      "lon": 12.8914426,
      "type": "borghi",
      "visibility": "chicca",
      "tags": [
        "name=Borgo Carso",
        "place=village"
      ],
      "score": 85
    },
    {
      "id": "node:3220281540",
      "name": "Borgo San Martino",
      "lat": 41.9745999,
      "lon": 12.16107,
      "type": "borghi",
      "visibility": "chicca",
      "tags": [
        "name=Borgo San Martino",
        "place=village"
      ],
      "score": 85
    },
    {
      "id": "node:4405999155",
      "name": "Borgo Santa Fumia",
      "lat": 41.7331624,
      "lon": 12.5809303,
      "type": "borghi",
      "visibility": "chicca",
      "tags": [
        "name=Borgo Santa Fumia",
        "place=hamlet",
        "population=181",
        "wikidata=Q3967234",
        "wikipedia=it:Spregamore"
      ],
      "score": 85
    },
    {
      "id": "node:4829549074",
      "name": "Borgo Santa Maria",
      "lat": 42.1532978,
      "lon": 12.6805907,
      "type": "borghi",
      "visibility": "chicca",
      "tags": [
        "name=Borgo Santa Maria",
        "place=village"
      ],
      "score": 85
    },
    {
      "id": "node:452628835",
      "name": "Borgo Le Carcarelle",
      "lat": 42.3487247,
      "lon": 12.0977227,
      "type": "borghi",
      "visibility": "chicca",
      "tags": [
        "ele=457",
        "gfoss_id=54138",
        "istat_id=2147483647",
        "name=Borgo Le Carcarelle",
        "place=hamlet",
        "population=45",
        "source=Istat 2001 - geodati.gfoss.it"
      ],
      "score": 75
    },
    {
      "id": "node:650443135",
      "name": "Borgo San Pietro",
      "lat": 42.4968428,
      "lon": 12.8823682,
      "type": "borghi",
      "visibility": "chicca",
      "tags": [
        "ele=531",
        "gfoss_id=54648",
        "istat_id=2147483647",
        "name=Borgo San Pietro",
        "place=hamlet",
        "population=304",
        "source=Istat 2001 - geodati.gfoss.it"
      ],
      "score": 75
    },
    {
      "id": "node:773160948",
      "name": "Borgo Colli",
      "lat": 42.4922878,
      "lon": 12.878655,
      "type": "borghi",
      "visibility": "chicca",
      "tags": [
        "ele=483",
        "gfoss_id=54650",
        "istat_id=2147483647",
        "name=Borgo Colli",
        "place=hamlet",
        "population=43",
        "source=Istat 2001 - geodati.gfoss.it"
      ],
      "score": 75
    },
    {
      "id": "node:1167085337",
      "name": "Borgo Tufette",
      "lat": 41.5131705,
      "lon": 12.9855948,
      "type": "borghi",
      "visibility": "chicca",
      "tags": [
        "name=Borgo Tufette",
        "place=hamlet"
      ],
      "score": 75
    },
    {
      "id": "node:2152322400",
      "name": "Borgo San Martino",
      "lat": 41.8422448,
      "lon": 12.8277532,
      "type": "borghi",
      "visibility": "chicca",
      "tags": [
        "addr:city=Zagarolo",
        "addr:country=IT",
        "is_in=Zagarolo",
        "name=Borgo San Martino",
        "place=hamlet"
      ],
      "score": 75
    },
    {
      "id": "node:3419497729",
      "name": "Borgo Sant'Antonio",
      "lat": 41.3041143,
      "lon": 13.3005146,
      "type": "borghi",
      "visibility": "chicca",
      "tags": [
        "name=Borgo Sant'Antonio",
        "place=hamlet"
      ],
      "score": 75
    },
    {
      "id": "node:4625703792",
      "name": "Borgo San Giorgio",
      "lat": 41.8778232,
      "lon": 12.2265394,
      "type": "borghi",
      "visibility": "chicca",
      "tags": [
        "name=Borgo San Giorgio",
        "place=hamlet"
      ],
      "score": 75
    },
    {
      "id": "node:4659893477",
      "name": "Borgo Falconieri",
      "lat": 41.922776,
      "lon": 12.1817833,
      "type": "borghi",
      "visibility": "chicca",
      "tags": [
        "name=Borgo Falconieri",
        "place=hamlet"
      ],
      "score": 75
    },
    {
      "id": "node:4712126832",
      "name": "Borgo Sant' Isidoro",
      "lat": 42.0273891,
      "lon": 12.5071551,
      "type": "borghi",
      "visibility": "chicca",
      "tags": [
        "name=Borgo Sant' Isidoro",
        "place=hamlet"
      ],
      "score": 75
    },
    {
      "id": "node:5987516930",
      "name": "Borgo Mandela",
      "lat": 42.0292149,
      "lon": 12.9226525,
      "type": "borghi",
      "visibility": "chicca",
      "tags": [
        "name=Borgo Mandela",
        "place=hamlet"
      ],
      "score": 75
    },
    {
      "id": "node:11035376539",
      "name": "Borgonovo",
      "lat": 41.9502477,
      "lon": 12.7145608,
      "type": "borghi",
      "visibility": "chicca",
      "tags": [
        "name=Borgonovo",
        "place=hamlet"
      ],
      "score": 75
    },
    {
      "id": "node:72959755",
      "name": "Acuto",
      "lat": 41.791521,
      "lon": 13.174394,
      "type": "borghi",
      "visibility": "chicca",
      "tags": [
        "gfoss_id=5067",
        "name=Acuto",
        "place=village",
        "population=1857",
        "source=geodati.gfoss.it",
        "website=https://comune.acuto.fr.it/",
        "wikidata=Q116377",
        "wikimedia_commons=Category:Acuto",
        "wikipedia=it:Acuto (Italia)"
      ],
      "score": 71
    },
    {
      "id": "node:72959792",
      "name": "Casalvieri",
      "lat": 41.6314023,
      "lon": 13.7129928,
      "type": "borghi",
      "visibility": "chicca",
      "tags": [
        "addr:postcode=03034",
        "ele=383",
        "gfoss_id=5083",
        "name=Casalvieri",
        "place=village",
        "population=2579",
        "source:ele=as written on the city sign (s.l.m.)",
        "website=https://www.comune.casalvieri.fr.it/",
        "wikidata=Q116584",
        "wikimedia_commons=Category:Casalvieri",
        "wikipedia=it:Casalvieri"
      ],
      "score": 71
    },
    {
      "id": "node:72959853",
      "name": "Castro dei Volsci",
      "lat": 41.5090635,
      "lon": 13.4065751,
      "type": "borghi",
      "visibility": "chicca",
      "tags": [
        "gfoss_id=5088",
        "name=Castro dei Volsci",
        "place=village",
        "population=5039",
        "source=geodati.gfoss.it",
        "website=https://www.comune.castrodeivolsci.fr.it/",
        "wikidata=Q116660",
        "wikimedia_commons=Category:Castro dei Volsci",
        "wikipedia=it:Castro dei Volsci"
      ],
      "score": 71
    },
    {
      "id": "node:72959871",
      "name": "Collepardo",
      "lat": 41.764322,
      "lon": 13.369499,
      "type": "borghi",
      "visibility": "chicca",
      "tags": [
        "gfoss_id=5093",
        "name=Collepardo",
        "place=village",
        "population=928",
        "source=geodati.gfoss.it",
        "website=http://www.collepardo.it/",
        "wikidata=Q116746",
        "wikimedia_commons=Category:Collepardo",
        "wikipedia=it:Collepardo"
      ],
      "score": 71
    },
    {
      "id": "node:72959928",
      "name": "Filettino",
      "lat": 41.891424,
      "lon": 13.327496,
      "type": "borghi",
      "visibility": "chicca",
      "tags": [
        "gfoss_id=5099",
        "name=Filettino",
        "place=village",
        "population=550",
        "source=geodati.gfoss.it",
        "website=http://www.comunefilettino.it/webnew/",
        "wikidata=Q116836",
        "wikimedia_commons=Category:Filettino",
        "wikipedia=it:Filettino"
      ],
      "score": 71
    },
    {
      "id": "node:72959948",
      "name": "Patrica",
      "lat": 41.592217,
      "lon": 13.243998,
      "type": "borghi",
      "visibility": "chicca",
      "tags": [
        "gfoss_id=5113",
        "name=Patrica",
        "place=village",
        "population=2915",
        "source=geodati.gfoss.it",
        "website=https://www.comune.patrica.fr.it/",
        "wikidata=Q116967",
        "wikimedia_commons=Category:Patrica",
        "wikipedia=it:Patrica"
      ],
      "score": 71
    },
    {
      "id": "node:72959966",
      "name": "Picinisco",
      "lat": 41.6462629,
      "lon": 13.8677827,
      "type": "borghi",
      "visibility": "chicca",
      "tags": [
        "gfoss_id=5115",
        "name=Picinisco",
        "place=village",
        "population=1206",
        "source=geodati.gfoss.it",
        "website=http://www.comune.picinisco.fr.it",
        "wikidata=Q116989",
        "wikimedia_commons=Category:Picinisco",
        "wikipedia=it:Picinisco"
      ],
      "score": 71
    },
    {
      "id": "node:72960072",
      "name": "Ripi",
      "lat": 41.6122559,
      "lon": 13.4247486,
      "type": "borghi",
      "visibility": "chicca",
      "tags": [
        "contact:facebook=https://www.facebook.com/Comune-di-Ripi-884837801532112",
        "contact:youtube=https://www.youtube.com/channel/UCN8UKW-zfi-quzGbEBO6c2w/videos",
        "gfoss_id=5123",
        "name=Ripi",
        "place=village",
        "population=5282",
        "source=geodati.gfoss.it",
        "website=https://comune.ripi.fr.it/",
        "wikidata=Q117198",
        "wikimedia_commons=Category:Ripi",
        "wikipedia=it:Ripi"
      ],
      "score": 71
    },
    {
      "id": "node:72960162",
      "name": "Strangolagalli",
      "lat": 41.6010682,
      "lon": 13.4919694,
      "type": "borghi",
      "visibility": "chicca",
      "tags": [
        "contact:facebook=https://www.facebook.com/comunedistrangolagalli",
        "contact:twitter=https://twitter.com/strangolcity",
        "gfoss_id=5140",
        "name=Strangolagalli",
        "place=village",
        "population=2503",
        "source=geodati.gfoss.it",
        "website=https://www.comune.strangolagalli.fr.it/",
        "wikidata=Q117388",
        "wikimedia_commons=Category:Strangolagalli",
        "wikipedia=it:Strangolagalli"
      ],
      "score": 71
    },
    {
      "id": "node:72960209",
      "name": "Vallecorsa",
      "lat": 41.444615,
      "lon": 13.405204,
      "type": "borghi",
      "visibility": "chicca",
      "tags": [
        "gfoss_id=5147",
        "name=Vallecorsa",
        "place=village",
        "population=3115",
        "source=geodati.gfoss.it",
        "website=https://www.comune.vallecorsa.fr.it/",
        "wikidata=Q117498",
        "wikimedia_commons=Category:Vallecorsa",
        "wikipedia=it:Vallecorsa"
      ],
      "score": 71
    },
    {
      "id": "node:72960218",
      "name": "Trevi nel Lazio",
      "lat": 41.8629591,
      "lon": 13.2463131,
      "type": "borghi",
      "visibility": "chicca",
      "tags": [
        "gfoss_id=5145",
        "name=Trevi nel Lazio",
        "place=village",
        "population=1822",
        "source=geodati.gfoss.it",
        "website=http://www.comune.trevinellazio.fr.it/",
        "wikidata=Q117471",
        "wikimedia_commons=Category:Trevi nel Lazio",
        "wikipedia=it:Trevi nel Lazio"
      ],
      "score": 71
    },
    {
      "id": "node:72960252",
      "name": "Villa Santo Stefano",
      "lat": 41.517416,
      "lon": 13.310201,
      "type": "borghi",
      "visibility": "chicca",
      "tags": [
        "gfoss_id=5155",
        "name=Villa Santo Stefano",
        "place=village",
        "population=1763",
        "source=geodati.gfoss.it",
        "website=https://www.comune.villasantostefano.fr.it/",
        "wikidata=Q117612",
        "wikimedia_commons=Category:Villa Santo Stefano",
        "wikipedia=it:Villa Santo Stefano"
      ],
      "score": 71
    },
    {
      "id": "node:72960276",
      "name": "Arce",
      "lat": 41.5877162,
      "lon": 13.5754288,
      "type": "borghi",
      "visibility": "chicca",
      "tags": [
        "contact:facebook=https://it-it.facebook.com/comunearce/",
        "gfoss_id=5073",
        "name=Arce",
        "place=village",
        "population=6029",
        "source=geodati.gfoss.it",
        "website=https://www.comune.arce.fr.it/",
        "wikidata=Q116423",
        "wikimedia_commons=Category:Arce",
        "wikipedia=it:Arce (Italia)"
      ],
      "score": 71
    },
    {
      "id": "node:72960321",
      "name": "Amaseno",
      "lat": 41.467815,
      "lon": 13.336002,
      "type": "borghi",
      "visibility": "chicca",
      "tags": [
        "gfoss_id=5070",
        "name=Amaseno",
        "place=village",
        "population=4228",
        "source=geodati.gfoss.it",
        "website=https://www.comune.amaseno.fr.it/it",
        "wikidata=Q116399",
        "wikimedia_commons=Category:Amaseno",
        "wikipedia=it:Amaseno"
      ],
      "score": 71
    },
    {
      "id": "node:72960414",
      "name": "Atina",
      "lat": 41.620199,
      "lon": 13.7999785,
      "type": "borghi",
      "visibility": "chicca",
      "tags": [
        "addr:postcode=03042",
        "ele=481",
        "gfoss_id=5076",
        "name=Atina",
        "place=village",
        "population=4211",
        "source=geodati.gfoss.it",
        "website=https://www.comune.atina.fr.it/",
        "wikidata=Q116531",
        "wikimedia_commons=Category:Atina",
        "wikipedia=it:Atina"
      ],
      "score": 71
    },
    {
      "id": "node:72960593",
      "name": "Pico",
      "lat": 41.4509361,
      "lon": 13.5593827,
      "type": "borghi",
      "visibility": "chicca",
      "tags": [
        "gfoss_id=5116",
        "name=Pico",
        "place=village",
        "population=3123",
        "source=geodati.gfoss.it",
        "website=https://www.comune.pico.fr.it",
        "wikidata=Q117032",
        "wikimedia_commons=Category:Pico (Italy)",
        "wikipedia=it:Pico (Italia)"
      ],
      "score": 71
    },
    {
      "id": "node:72960598",
      "name": "Piglio",
      "lat": 41.8308503,
      "lon": 13.146399,
      "type": "borghi",
      "visibility": "chicca",
      "tags": [
        "gfoss_id=5118",
        "name=Piglio",
        "place=village",
        "population=4700",
        "source=geodati.gfoss.it",
        "website=https://www.comune.piglio.fr.it/home",
        "wikidata=Q117128",
        "wikimedia_commons=Category:Piglio",
        "wikipedia=it:Piglio"
      ],
      "score": 71
    },
    {
      "id": "node:72960603",
      "name": "Fumone",
      "lat": 41.7273402,
      "lon": 13.2899092,
      "type": "borghi",
      "visibility": "chicca",
      "tags": [
        "gfoss_id=5104",
        "name=Fumone",
        "place=village",
        "population=2210",
        "source:population=wikipedia:it, 2010-12-31",
        "website=http://www.comunedifumone.it/",
        "wikidata=Q116884",
        "wikipedia=it:Fumone"
      ],
      "score": 71
    },
    {
      "id": "node:72960609",
      "name": "Giuliano di Roma",
      "lat": 41.5393232,
      "lon": 13.2796473,
      "type": "borghi",
      "visibility": "chicca",
      "tags": [
        "gfoss_id=5106",
        "name=Giuliano di Roma",
        "place=village",
        "population=2228",
        "source=geodati.gfoss.it",
        "website=https://www.comune.giulianodiroma.fr.it/",
        "wikidata=Q116937",
        "wikimedia_commons=Category:Giuliano di Roma",
        "wikipedia=it:Giuliano di Roma"
      ],
      "score": 71
    },
    {
      "id": "node:72960613",
      "name": "Guarcino",
      "lat": 41.799022,
      "lon": 13.313397,
      "type": "borghi",
      "visibility": "chicca",
      "tags": [
        "gfoss_id=5107",
        "name=Guarcino",
        "place=village",
        "population=1662",
        "source=geodati.gfoss.it",
        "website=https://www.comune.guarcino.fr.it/",
        "wikidata=Q116943",
        "wikimedia_commons=Category:Guarcino",
        "wikipedia=it:Guarcino"
      ],
      "score": 71
    },
    {
      "id": "node:72960629",
      "name": "Sgurgola",
      "lat": 41.6709477,
      "lon": 13.1489087,
      "type": "borghi",
      "visibility": "chicca",
      "tags": [
        "gfoss_id=5138",
        "name=Sgurgola",
        "place=village",
        "population=2556",
        "source=geodati.gfoss.it",
        "website=https://www.comune.sgurgola.fr.it/",
        "wikidata=Q117368",
        "wikimedia_commons=Category:Sgurgola",
        "wikipedia=it:Sgurgola"
      ],
      "score": 71
    },
    {
      "id": "node:72960644",
      "name": "Serrone",
      "lat": 41.842121,
      "lon": 13.095192,
      "type": "borghi",
      "visibility": "chicca",
      "tags": [
        "gfoss_id=5136",
        "name=Serrone",
        "place=village",
        "population=2943",
        "source=geodati.gfoss.it",
        "website=https://comune.serrone.fr.it/",
        "wikidata=Q117354",
        "wikimedia_commons=Category:Serrone",
        "wikipedia=it:Serrone"
      ],
      "score": 71
    },
    {
      "id": "node:72960660",
      "name": "Terelle",
      "lat": 41.552121,
      "lon": 13.778411,
      "type": "borghi",
      "visibility": "chicca",
      "tags": [
        "gfoss_id=5142",
        "name=Terelle",
        "place=village",
        "population=287",
        "population:date=2024-01-01",
        "source=geodati.gfoss.it",
        "source:population=http://dati.istat.it/",
        "website=https://comune.terelle.fr.it/",
        "wikidata=Q117404",
        "wikipedia=it:Terelle"
      ],
      "score": 71
    },
    {
      "id": "node:72960672",
      "name": "Supino",
      "lat": 41.6102092,
      "lon": 13.224731,
      "type": "borghi",
      "visibility": "chicca",
      "tags": [
        "gfoss_id=5141",
        "name=Supino",
        "place=village",
        "population=4783",
        "source=geodati.gfoss.it",
        "website=https://www.comune.supino.fr.it/",
        "wikidata=Q117395",
        "wikimedia_commons=Category:Supino",
        "wikipedia=it:Supino (Italia)"
      ],
      "score": 71
    },
    {
      "id": "node:72960812",
      "name": "Torre Cajetani",
      "lat": 41.7877197,
      "lon": 13.2672973,
      "type": "borghi",
      "visibility": "chicca",
      "tags": [
        "gfoss_id=5143",
        "name=Torre Cajetani",
        "place=village",
        "population=1279",
        "source=geodati.gfoss.it",
        "website=https://www.comune.torrecajetani.fr.it/",
        "wikidata=Q117454",
        "wikimedia_commons=Category:Torre Cajetani",
        "wikipedia=it:Torre Cajetani"
      ],
      "score": 71
    },
    {
      "id": "node:72960855",
      "name": "Trivigliano",
      "lat": 41.775721,
      "lon": 13.272296,
      "type": "borghi",
      "visibility": "chicca",
      "tags": [
        "gfoss_id=5146",
        "name=Trivigliano",
        "place=village",
        "population=1430",
        "source=geodati.gfoss.it",
        "website=https://www.comune.trivigliano.fr.it/",
        "wikidata=Q117492",
        "wikimedia_commons=Category:Trivigliano",
        "wikipedia=it:Trivigliano"
      ],
      "score": 71
    },
    {
      "id": "node:72960915",
      "name": "Maenza",
      "lat": 41.5233613,
      "lon": 13.1805494,
      "type": "borghi",
      "visibility": "chicca",
      "tags": [
        "gfoss_id=5045",
        "name=Maenza",
        "place=village",
        "population=2949",
        "population:date=2025-01-01",
        "source=geodati.gfoss.it",
        "source:population=https://demo.istat.it/app/?l=it&a=2025&i=POS",
        "website=https://www.comunedimaenza.it/",
        "wikidata=Q128103",
        "wikimedia_commons=Category:Maenza",
        "wikipedia=it:Maenza"
      ],
      "score": 71
    },
    {
      "id": "node:72960998",
      "name": "Sperlonga",
      "lat": 41.260212,
      "lon": 13.433107,
      "type": "borghi",
      "visibility": "chicca",
      "tags": [
        "contact:facebook=https://it-it.facebook.com/comunedisperlonga/",
        "contact:youtube=https://www.youtube.com/channel/UCom1fDdEP7nPihmIb8ER34A",
        "gfoss_id=5062",
        "name=Sperlonga",
        "name:uk=Сперлонга",
        "place=village",
        "population=3102",
        "source=geodati.gfoss.it",
        "website=https://www.comune.sperlonga.lt.it/",
        "wikidata=Q128217",
        "wikimedia_commons=Category:Sperlonga",
        "wikipedia=it:Sperlonga"
      ],
      "score": 71
    },
    {
      "id": "node:72961012",
      "name": "Sermoneta",
      "lat": 41.549314,
      "lon": 12.984893,
      "type": "borghi",
      "visibility": "chicca",
      "tags": [
        "gfoss_id=5059",
        "name=Sermoneta",
        "place=village",
        "population=9842",
        "source=geodati.gfoss.it",
        "website=https://www.comunedisermoneta.it",
        "wikidata=Q128202",
        "wikimedia_commons=Category:Sermoneta",
        "wikipedia=it:Sermoneta"
      ],
      "score": 71
    },
    {
      "id": "node:72961016",
      "name": "Roccagorga",
      "lat": 41.5253154,
      "lon": 13.1559249,
      "type": "borghi",
      "visibility": "chicca",
      "tags": [
        "contact:facebook=https://www.facebook.com/Roccagorga",
        "contact:instagram=https://www.instagram.com/comunediroccagorga",
        "gfoss_id=5053",
        "name=Roccagorga",
        "place=village",
        "population=4386",
        "source=geodati.gfoss.it",
        "website=https://www.comuneroccagorga.it/",
        "wikidata=Q128161",
        "wikimedia_commons=Category:Roccagorga",
        "wikipedia=it:Roccagorga"
      ],
      "score": 71
    },
    {
      "id": "node:72961029",
      "name": "Lenola",
      "lat": 41.406115,
      "lon": 13.459406,
      "type": "borghi",
      "visibility": "chicca",
      "tags": [
        "gfoss_id=5044",
        "name=Lenola",
        "place=village",
        "population=4119",
        "population:date=2025-01-01",
        "source=geodati.gfoss.it",
        "source:population=https://demo.istat.it/app/?l=it&a=2025&i=POS",
        "website=https://comune.lenola.lt.it/",
        "wikidata=Q128101",
        "wikimedia_commons=Category:Lenola",
        "wikipedia=it:Lenola"
      ],
      "score": 71
    },
    {
      "id": "node:72961089",
      "name": "Bassiano",
      "lat": 41.5497551,
      "lon": 13.032233,
      "type": "borghi",
      "visibility": "chicca",
      "tags": [
        "contact:facebook=https://www.facebook.com/comunedibassiano",
        "gfoss_id=5034",
        "is_in=Latina, Lazio, Italy",
        "name=Bassiano",
        "place=village",
        "population=1421",
        "population:date=2025-01-01",
        "source=geodati.gfoss.it",
        "source:population=https://demo.istat.it/app/?l=it&a=2025&i=POS",
        "website=https://www.comune.bassiano.lt.it",
        "wikidata=Q128057",
        "wikimedia_commons=Category:Bassiano",
        "wikipedia=it:Bassiano"
      ],
      "score": 71
    },
    {
      "id": "node:72961172",
      "name": "Rocca Massima",
      "lat": 41.6794147,
      "lon": 12.9194152,
      "type": "borghi",
      "visibility": "chicca",
      "tags": [
        "gfoss_id=5054",
        "name=Rocca Massima",
        "place=village",
        "population=1104",
        "source=geodati.gfoss.it",
        "website=http://www.comune.roccamassima.latina.it/",
        "wikidata=Q128157",
        "wikimedia_commons=Category:Rocca Massima",
        "wikipedia=it:Rocca Massima"
      ],
      "score": 71
    },
    {
      "id": "node:72961204",
      "name": "Norma",
      "lat": 41.585964,
      "lon": 12.9744412,
      "type": "borghi",
      "visibility": "chicca",
      "tags": [
        "ele=444",
        "gfoss_id=5048",
        "name=Norma",
        "place=village",
        "population=3751",
        "population:date=2025-01-01",
        "source=geodati.gfoss.it;local knowledge",
        "source:population=https://demo.istat.it/app/?l=it&a=2025&i=POS",
        "website=https://www.comune.norma.lt.it/",
        "wikidata=Q128119",
        "wikimedia_commons=Category:Norma (comune, Italy)",
        "wikipedia=it:Norma (Italia)"
      ],
      "score": 71
    },
    {
      "id": "node:72961536",
      "name": "Orvinio",
      "lat": 42.132126,
      "lon": 12.939684,
      "type": "borghi",
      "visibility": "chicca",
      "tags": [
        "gfoss_id=4885",
        "name=Orvinio",
        "place=village",
        "population=427",
        "source=geodati.gfoss.it",
        "website=https://comune.orvinio.ri.it/",
        "wikidata=Q224272",
        "wikimedia_commons=Category:Orvinio",
        "wikipedia=it:Orvinio"
      ],
      "score": 71
    },
    {
      "id": "node:72961574",
      "name": "Poggio Bustone",
      "lat": 42.501834,
      "lon": 12.888178,
      "type": "borghi",
      "visibility": "chicca",
      "tags": [
        "gfoss_id=4889",
        "name=Poggio Bustone",
        "place=village",
        "population=1908",
        "source=http://demo.istat.it/bilmens/query.php?anno=2020&lingua=ita&Rip=S3&Reg=R12&Pro=P057&Com=51&submit=Tavola",
        "website=https://www.comune.poggiobustone.ri.it/",
        "wikidata=Q224300",
        "wikimedia_commons=Category:Poggio Bustone",
        "wikipedia=it:Poggio Bustone"
      ],
      "score": 71
    },
    {
      "id": "node:72961991",
      "name": "Morro Reatino",
      "lat": 42.5266508,
      "lon": 12.8323214,
      "type": "borghi",
      "visibility": "chicca",
      "tags": [
        "gfoss_id=4883",
        "name=Morro Reatino",
        "place=village",
        "population=371",
        "source=geodati.gfoss.it",
        "source:population=wikipedia:it 31-12-2010",
        "website=https://www.comune.morroreatino.ri.it/",
        "wikidata=Q224264",
        "wikipedia=it:Morro Reatino"
      ],
      "score": 71
    },
    {
      "id": "node:72962158",
      "name": "Arsoli",
      "lat": 42.040525,
      "lon": 13.018387,
      "type": "borghi",
      "visibility": "chicca",
      "tags": [
        "gfoss_id=4921",
        "name=Arsoli",
        "place=village",
        "population=1537",
        "source=geodati.gfoss.it",
        "website=https://www.comune.arsoli.rm.it/",
        "wikidata=Q30022373",
        "wikimedia_commons=Category:Arsoli",
        "wikipedia=it:Arsoli"
      ],
      "score": 71
    },
    {
      "id": "node:72962192",
      "name": "Bellegra",
      "lat": 41.883422,
      "lon": 13.02679,
      "type": "borghi",
      "visibility": "chicca",
      "tags": [
        "gfoss_id=4923",
        "name=Bellegra",
        "place=village",
        "population=3029",
        "source=geodati.gfoss.it",
        "website=https://www.comune.bellegra.roma.it/",
        "wikidata=Q241780",
        "wikimedia_commons=Category:Bellegra",
        "wikipedia=it:Bellegra"
      ],
      "score": 71
    },
    {
      "id": "node:72962262",
      "name": "Agosta",
      "lat": 41.981624,
      "lon": 13.032688,
      "type": "borghi",
      "visibility": "chicca",
      "tags": [
        "gfoss_id=4913",
        "name=Agosta",
        "place=village",
        "population=1617",
        "source=geodati.gfoss.it",
        "website=http://www.comunediagosta.it/",
        "wikidata=Q241659",
        "wikimedia_commons=Category:Agosta",
        "wikipedia=it:Agosta"
      ],
      "score": 71
    },
    {
      "id": "node:72962312",
      "name": "Leonessa",
      "lat": 42.56315,
      "lon": 12.9638499,
      "type": "borghi",
      "visibility": "chicca",
      "tags": [
        "gfoss_id=4871",
        "name=Leonessa",
        "place=village",
        "population=2734",
        "source=geodati.gfoss.it",
        "website=http://www.comunedileonessa.eu/",
        "wikidata=Q224172",
        "wikimedia_commons=Category:Leonessa",
        "wikipedia=it:Leonessa"
      ],
      "score": 71
    },
    {
      "id": "node:72962389",
      "name": "Cineto Romano",
      "lat": 42.0498104,
      "lon": 12.9630733,
      "type": "borghi",
      "visibility": "chicca",
      "tags": [
        "gfoss_id=4942",
        "name=Cineto Romano",
        "place=village",
        "population=612",
        "source=geodati.gfoss.it",
        "website=https://cineto.it/",
        "wikidata=Q143674",
        "wikimedia_commons=Category:Cineto Romano",
        "wikipedia=it:Cineto Romano"
      ],
      "score": 71
    },
    {
      "id": "node:72962429",
      "name": "Castel San Pietro Romano",
      "lat": 41.84572,
      "lon": 12.894887,
      "type": "borghi",
      "visibility": "chicca",
      "tags": [
        "addr:country=IT",
        "gfoss_id=4936",
        "name=Castel San Pietro Romano",
        "place=village",
        "population=743",
        "source=geodati.gfoss.it",
        "website=http://www.comune.castelsanpietroromano.rm.it",
        "wikidata=Q242120",
        "wikimedia_commons=Category:Castel San Pietro Romano",
        "wikipedia=it:Castel San Pietro Romano"
      ],
      "score": 71
    },
    {
      "id": "node:72962495",
      "name": "Ciciliano",
      "lat": 41.9616174,
      "lon": 12.9409322,
      "type": "borghi",
      "visibility": "chicca",
      "tags": [
        "contact:facebook=https://www.facebook.com/profile.php?id=100064675309871",
        "gfoss_id=4941",
        "name=Ciciliano",
        "place=village",
        "population=1133",
        "source=geodati.gfoss.it",
        "website=https://www.comune.ciciliano.rm.it/",
        "wikidata=Q242521",
        "wikimedia_commons=Category:Ciciliano",
        "wikipedia=it:Ciciliano"
      ],
      "score": 71
    },
    {
      "id": "node:72962520",
      "name": "Casape",
      "lat": 41.906517,
      "lon": 12.8852871,
      "type": "borghi",
      "visibility": "chicca",
      "tags": [
        "gfoss_id=4932",
        "name=Casape",
        "place=village",
        "population=746",
        "source=geodati.gfoss.it",
        "website=https://comune.casape.rm.it",
        "wikidata=Q242007",
        "wikimedia_commons=Category:Casape",
        "wikipedia=it:Casape"
      ],
      "score": 71
    },
    {
      "id": "node:72962535",
      "name": "Castel Gandolfo",
      "lat": 41.7425222,
      "lon": 12.6488774,
      "type": "borghi",
      "visibility": "chicca",
      "tags": [
        "gfoss_id=4933",
        "name=Castel Gandolfo",
        "place=village",
        "population=8997",
        "source=geodati.gfoss.it",
        "website=https://www.comune.castelgandolfo.rm.it/",
        "wikidata=Q242105",
        "wikimedia_commons=Category:Castel Gandolfo",
        "wikipedia=it:Castel Gandolfo"
      ],
      "score": 71
    },
    {
      "id": "node:72962543",
      "name": "Castel Madama",
      "lat": 41.9769358,
      "lon": 12.8691904,
      "type": "borghi",
      "visibility": "chicca",
      "tags": [
        "contact:facebook=https://www.facebook.com/Comune-Castel-Madama-386771514839637/",
        "gfoss_id=4934",
        "name=Castel Madama",
        "place=village",
        "population=7399",
        "source=geodati.gfoss.it",
        "website=http://www.comunedicastelmadama.it/",
        "wikidata=Q242114",
        "wikimedia_commons=Category:Castel Madama",
        "wikipedia=it:Castel Madama"
      ],
      "score": 71
    },
    {
      "id": "node:72962554",
      "name": "Castelnuovo di Porto",
      "lat": 42.1253987,
      "lon": 12.5007367,
      "type": "borghi",
      "visibility": "chicca",
      "tags": [
        "contact:facebook=https://www.facebook.com/comunecastelnuovodiporto/",
        "contact:instagram=https://www.instagram.com/comune_castelnuovodiporto/",
        "contact:twitter=https://mobile.twitter.com/castelnuovodp",
        "contact:youtube=https://m.youtube.com/channel/UC3u4QqBVTlpvwmYGstnarqg",
        "gfoss_id=4935",
        "name=Castelnuovo di Porto",
        "place=village",
        "population=8630",
        "source=geodati.gfoss.it",
        "website=http://www.comune.castelnuovodiporto.rm.it/",
        "wikidata=Q242126",
        "wikimedia_commons=Category:Castelnuovo di Porto",
        "wikipedia=it:Castelnuovo di Porto"
      ],
      "score": 71
    },
    {
      "id": "node:72962597",
      "name": "Canterano",
      "lat": 41.9420762,
      "lon": 13.0373148,
      "type": "borghi",
      "visibility": "chicca",
      "tags": [
        "gfoss_id=4928",
        "name=Canterano",
        "place=village",
        "population=372",
        "source=geodati.gfoss.it",
        "website=https://www.comune.canterano.rm.it/",
        "wikidata=Q241931",
        "wikimedia_commons=Category:Canterano",
        "wikipedia=it:Canterano"
      ],
      "score": 71
    },
    {
      "id": "node:72962635",
      "name": "Marcellina",
      "lat": 42.0236897,
      "lon": 12.8070452,
      "type": "borghi",
      "visibility": "chicca",
      "tags": [
        "gfoss_id=4967",
        "name=Marcellina",
        "place=village",
        "population=7280",
        "source=geodati.gfoss.it",
        "website=https://www.comune.marcellina.rm.it/",
        "wikidata=Q242917",
        "wikimedia_commons=Category:Marcellina",
        "wikipedia=it:Marcellina (Italia)"
      ],
      "score": 71
    },
    {
      "id": "node:72962646",
      "name": "Marano Equo",
      "lat": 41.994024,
      "lon": 13.015988,
      "type": "borghi",
      "visibility": "chicca",
      "tags": [
        "gfoss_id=4966",
        "name=Marano Equo",
        "place=village",
        "population=783",
        "source=istat 2014",
        "website=https://www.comunemaranoequo.it/",
        "wikidata=Q242901",
        "wikimedia_commons=Category:Marano Equo",
        "wikipedia=it:Marano Equo"
      ],
      "score": 71
    },
    {
      "id": "node:72962662",
      "name": "Labico",
      "lat": 41.789519,
      "lon": 12.880888,
      "type": "borghi",
      "visibility": "chicca",
      "tags": [
        "addr:country=IT",
        "contact:facebook=https://www.facebook.com/ComuneLabico",
        "gfoss_id=4960",
        "name=Labico",
        "place=village",
        "population=6379",
        "source=geodati.gfoss.it",
        "website=https://www.labico.com/home",
        "wikidata=Q242779",
        "wikimedia_commons=Category:Labico",
        "wikipedia=it:Labico"
      ],
      "score": 71
    },
    {
      "id": "node:72962667",
      "name": "Jenne",
      "lat": 41.888823,
      "lon": 13.169593,
      "type": "borghi",
      "visibility": "chicca",
      "tags": [
        "gfoss_id=4959",
        "name=Jenne",
        "place=village",
        "population=497",
        "source=geodati.gfoss.it",
        "website=https://www.comune.jenne.rm.it/",
        "wikidata=Q242720",
        "wikimedia_commons=Category:Jenne",
        "wikipedia=it:Jenne"
      ],
      "score": 71
    },
    {
      "id": "node:72962692",
      "name": "Gorga",
      "lat": 41.655017,
      "lon": 13.109095,
      "type": "borghi",
      "visibility": "chicca",
      "tags": [
        "gfoss_id=4956",
        "name=Gorga",
        "place=village",
        "population=764",
        "source=geodati.gfoss.it",
        "website=https://www.comune.gorga.rm.it/",
        "wikidata=Q242698",
        "wikimedia_commons=Category:Gorga",
        "wikipedia=it:Gorga (Italia)"
      ],
      "score": 71
    },
    {
      "id": "node:72962717",
      "name": "Genazzano",
      "lat": 41.8296733,
      "lon": 12.9722464,
      "type": "borghi",
      "visibility": "chicca",
      "tags": [
        "gfoss_id=4953",
        "name=Genazzano",
        "place=village",
        "population=6036",
        "source=geodati.gfoss.it",
        "website=https://www.comune.genazzano.roma.it",
        "wikidata=Q242675",
        "wikimedia_commons=Category:Genazzano",
        "wikipedia=it:Genazzano"
      ],
      "score": 71
    },
    {
      "id": "node:72962788",
      "name": "Colonna",
      "lat": 41.833718,
      "lon": 12.753184,
      "type": "borghi",
      "visibility": "chicca",
      "tags": [
        "gfoss_id=4946",
        "name=Colonna",
        "place=village",
        "population=4287",
        "source=geodati.gfoss.it",
        "website=https://www.comune.colonna.roma.it/",
        "wikidata=Q242558",
        "wikimedia_commons=Category:Colonna (Italy)",
        "wikipedia=it:Colonna (Italia)"
      ],
      "score": 71
    },
    {
      "id": "node:72962854",
      "name": "Rocca Canterano",
      "lat": 41.956523,
      "lon": 13.021788,
      "type": "borghi",
      "visibility": "chicca",
      "tags": [
        "gfoss_id=4995",
        "name=Rocca Canterano",
        "place=village",
        "population=251",
        "source=geodati.gfoss.it",
        "website=http://www.comune.roccacanterano.rm.it/",
        "wikidata=Q243207",
        "wikimedia_commons=Category:Rocca Canterano",
        "wikipedia=it:Rocca Canterano"
      ],
      "score": 71
    },
    {
      "id": "node:72962874",
      "name": "Pisoniano",
      "lat": 41.9060525,
      "lon": 12.958888,
      "type": "borghi",
      "visibility": "chicca",
      "tags": [
        "gfoss_id=4988",
        "name=Pisoniano",
        "place=village",
        "population=734",
        "source=geodati.gfoss.it",
        "website=https://comune.pisoniano.rm.it/",
        "wikidata=Q243152",
        "wikimedia_commons=Category:Pisoniano",
        "wikipedia=it:Pisoniano"
      ],
      "score": 71
    },
    {
      "id": "node:72962907",
      "name": "Percile",
      "lat": 42.0947174,
      "lon": 12.9093645,
      "type": "borghi",
      "visibility": "chicca",
      "tags": [
        "gfoss_id=4987",
        "name=Percile",
        "place=village",
        "population=216",
        "source=geodati.gfoss.it",
        "website=https://www.percilecomune.it/",
        "wikidata=Q243148",
        "wikimedia_commons=Category:Percile",
        "wikipedia=it:Percile"
      ],
      "score": 71
    },
    {
      "id": "node:72962927",
      "name": "Olevano Romano",
      "lat": 41.860621,
      "lon": 13.03309,
      "type": "borghi",
      "visibility": "chicca",
      "tags": [
        "gfoss_id=4984",
        "name=Olevano Romano",
        "place=village",
        "population=6354",
        "source=geodati.gfoss.it",
        "website=https://www.comune.olevanoromano.rm.it",
        "wikidata=Q243128",
        "wikimedia_commons=Category:Olevano Romano",
        "wikipedia=it:Olevano Romano"
      ],
      "score": 71
    },
    {
      "id": "node:72963089",
      "name": "Anticoli Corrado",
      "lat": 42.009524,
      "lon": 12.989087,
      "type": "borghi",
      "visibility": "chicca",
      "tags": [
        "gfoss_id=4917",
        "name=Anticoli Corrado",
        "place=village",
        "population=910",
        "source=geodati.gfoss.it",
        "website=https://www.comune.anticolicorrado.rm.it/",
        "wikidata=Q241708",
        "wikimedia_commons=Category:Anticoli Corrado",
        "wikipedia=it:Anticoli Corrado"
      ],
      "score": 71
    },
    {
      "id": "node:72963102",
      "name": "Cerreto Laziale",
      "lat": 41.9444034,
      "lon": 12.9828053,
      "type": "borghi",
      "visibility": "chicca",
      "tags": [
        "gfoss_id=4938",
        "name=Cerreto Laziale",
        "place=village",
        "population=1057",
        "source=geodati.gfoss.it",
        "website=https://www.comunecerretolaziale.rm.it/",
        "wikidata=Q242139",
        "wikimedia_commons=Category:Cerreto Laziale",
        "wikipedia=it:Cerreto Laziale"
      ],
      "score": 71
    },
    {
      "id": "node:72963114",
      "name": "Carpineto Romano",
      "lat": 41.6044133,
      "lon": 13.0847775,
      "type": "borghi",
      "visibility": "chicca",
      "tags": [
        "contact:facebook=https://www.facebook.com/comune.carpinetoromano/",
        "gfoss_id=4931",
        "name=Carpineto Romano",
        "place=village",
        "population=4936",
        "source=geodati.gfoss.it",
        "website=https://www.carpinetoromano.it/",
        "wikidata=Q242000",
        "wikimedia_commons=Category:Carpineto Romano",
        "wikipedia=it:Carpineto Romano"
      ],
      "score": 71
    },
    {
      "id": "node:72963142",
      "name": "Capranica Prenestina",
      "lat": 41.8629967,
      "lon": 12.9518024,
      "type": "borghi",
      "visibility": "chicca",
      "tags": [
        "gfoss_id=4930",
        "name=Capranica Prenestina",
        "place=village",
        "population=334",
        "source=geodati.gfoss.it",
        "website=https://www.comunecapranicaprenestina.it",
        "wikidata=Q241990",
        "wikimedia_commons=Category:Capranica Prenestina",
        "wikipedia=it:Capranica Prenestina"
      ],
      "score": 71
    },
    {
      "id": "node:72963186",
      "name": "Gavignano",
      "lat": 41.699118,
      "lon": 13.051793,
      "type": "borghi",
      "visibility": "chicca",
      "tags": [
        "gfoss_id=4952",
        "name=Gavignano",
        "place=village",
        "population=1760",
        "source=geodati.gfoss.it",
        "website=https://www.comune.gavignano.rm.it/",
        "wikidata=Q242668",
        "wikimedia_commons=Category:Gavignano",
        "wikipedia=it:Gavignano (Italia)"
      ],
      "score": 71
    },
    {
      "id": "node:72963196",
      "name": "Gallicano nel Lazio",
      "lat": 41.8720696,
      "lon": 12.8185343,
      "type": "borghi",
      "visibility": "chicca",
      "tags": [
        "addr:country=IT",
        "contact:facebook=https://www.facebook.com/comunedigallicanonellazio/",
        "gfoss_id=4951",
        "name=Gallicano nel Lazio",
        "place=village",
        "population=6334",
        "postal_code=00010",
        "source=geodati.gfoss.it",
        "website=https://comune.gallicanonellazio.rm.it/",
        "wikidata=Q242661",
        "wikimedia_commons=Category:Gallicano nel Lazio",
        "wikipedia=it:Gallicano nel Lazio"
      ],
      "score": 71
    },
    {
      "id": "node:72963246",
      "name": "Sacrofano",
      "lat": 42.104946,
      "lon": 12.4454599,
      "type": "borghi",
      "visibility": "chicca",
      "tags": [
        "contact:facebook=https://www.facebook.com/Sacrofano/",
        "contact:instagram=https://www.instagram.com/comune_di_sacrofano/",
        "contact:twitter=https://twitter.com/ComuneSacrofano",
        "contact:youtube=https://www.youtube.com/channel/UCHWdYwg5xtE4s9LE540LPPg/featured",
        "gfoss_id=5004",
        "name=Sacrofano",
        "place=village",
        "population=7119",
        "source=geodati.gfoss.it",
        "source:population=wikipedia 2008",
        "website=https://www.comunedisacrofano.it/",
        "wikidata=Q243311",
        "wikimedia_commons=Category:Sacrofano",
        "wikipedia=it:Sacrofano"
      ],
      "score": 71
    },
    {
      "id": "node:72963263",
      "name": "Rocca Santo Stefano",
      "lat": 41.910522,
      "lon": 13.023789,
      "type": "borghi",
      "visibility": "chicca",
      "tags": [
        "gfoss_id=5000",
        "name=Rocca Santo Stefano",
        "place=village",
        "population=1009",
        "source=geodati.gfoss.it",
        "website=https://www.comune.roccasantostefano.rm.it/",
        "wikidata=Q243216",
        "wikimedia_commons=Category:Rocca Santo Stefano",
        "wikipedia=it:Rocca Santo Stefano"
      ],
      "score": 71
    },
    {
      "id": "node:72963272",
      "name": "Roviano",
      "lat": 42.0259335,
      "lon": 12.9944175,
      "type": "borghi",
      "visibility": "chicca",
      "tags": [
        "gfoss_id=5003",
        "name=Roviano",
        "place=village",
        "population=1386",
        "source=geodati.gfoss.it",
        "website=http://www.comuneroviano.rm.it/",
        "wikidata=Q243271",
        "wikimedia_commons=Category:Roviano",
        "wikipedia=it:Roviano"
      ],
      "score": 71
    },
    {
      "id": "node:72963294",
      "name": "Subiaco",
      "lat": 41.9267153,
      "lon": 13.0944317,
      "type": "borghi",
      "visibility": "chicca",
      "tags": [
        "gfoss_id=5014",
        "name=Subiaco",
        "place=village",
        "population=9074",
        "source=geodati.gfoss.it",
        "source:population=Wikipedia it, 2010-12-31",
        "website=http://www.comune.subiaco.rm.it/",
        "wikidata=Q243467",
        "wikimedia_commons=Category:Subiaco",
        "wikipedia=it:Subiaco"
      ],
      "score": 71
    },
    {
      "id": "node:72963313",
      "name": "San Vito Romano",
      "lat": 41.879821,
      "lon": 12.979389,
      "type": "borghi",
      "visibility": "chicca",
      "tags": [
        "ele=655",
        "gfoss_id=5011",
        "name=San Vito Romano",
        "place=village",
        "population=3309",
        "source=geodati.gfoss.it",
        "website=https://www.comune.sanvitoromano.rm.it",
        "wikidata=Q243377",
        "wikimedia_commons=Category:San Vito Romano",
        "wikipedia=it:San Vito Romano"
      ],
      "score": 71
    },
    {
      "id": "node:72963331",
      "name": "Trevignano Romano",
      "lat": 42.1559258,
      "lon": 12.2461954,
      "type": "borghi",
      "visibility": "chicca",
      "tags": [
        "contact:facebook=http://www.facebook.com/ComuneTrevignanoRomano/",
        "contact:twitter=http://twitter.com/3vignanoromano",
        "gfoss_id=5018",
        "name=Trevignano Romano",
        "place=village",
        "population=5949",
        "source=geodati.gfoss.it",
        "website=https://www.comune.trevignanoromano.rm.it/",
        "wikidata=Q243497",
        "wikimedia_commons=Category:Trevignano Romano",
        "wikipedia=it:Trevignano Romano"
      ],
      "score": 71
    },
    {
      "id": "node:72963384",
      "name": "Vallepietra",
      "lat": 41.9269887,
      "lon": 13.2306665,
      "type": "borghi",
      "visibility": "chicca",
      "tags": [
        "gfoss_id=5019",
        "name=Vallepietra",
        "place=village",
        "population=376",
        "source=geodati.gfoss.it",
        "website=http://www.comunevallepietra.it/",
        "wikidata=Q243500",
        "wikimedia_commons=Category:Vallepietra",
        "wikipedia=it:Vallepietra"
      ],
      "score": 71
    },
    {
      "id": "node:72963421",
      "name": "San Gregorio da Sassola",
      "lat": 41.9177118,
      "lon": 12.8720735,
      "type": "borghi",
      "visibility": "chicca",
      "tags": [
        "gfoss_id=5006",
        "name=San Gregorio da Sassola",
        "place=village",
        "population=1444",
        "source=geodati.gfoss.it",
        "website=https://www.comune.sangregoriodasassola.rm.it/",
        "wikidata=Q243364",
        "wikimedia_commons=Category:San Gregorio da Sassola",
        "wikipedia=it:San Gregorio da Sassola"
      ],
      "score": 71
    },
    {
      "id": "node:72963469",
      "name": "Segni",
      "lat": 41.6914426,
      "lon": 13.0231783,
      "type": "borghi",
      "visibility": "chicca",
      "tags": [
        "gfoss_id=5013",
        "name=Segni",
        "place=village",
        "population=9159",
        "website=https://www.comune.segni.rm.it/",
        "wikidata=Q243458",
        "wikimedia_commons=Category:Segni",
        "wikipedia=it:Segni (Italia)"
      ],
      "score": 71
    },
    {
      "id": "node:72963479",
      "name": "Vivaro Romano",
      "lat": 42.1000928,
      "lon": 13.0065553,
      "type": "borghi",
      "visibility": "chicca",
      "tags": [
        "gfoss_id=5024",
        "name=Vivaro Romano",
        "place=village",
        "population=156",
        "population:date=2025-01-01",
        "source=geodati.gfoss.it",
        "source:population=wikipedia",
        "website=http://www.comunevivaroromano.it/",
        "wikidata=Q243525",
        "wikimedia_commons=Category:Vivaro Romano",
        "wikipedia=it:Vivaro Romano"
      ],
      "score": 71
    },
    {
      "id": "node:72963487",
      "name": "Vicovaro",
      "lat": 42.0179411,
      "lon": 12.8972303,
      "type": "borghi",
      "visibility": "chicca",
      "tags": [
        "gfoss_id=5023",
        "name=Vicovaro",
        "place=village",
        "population=3714",
        "source=geodati.gfoss.it",
        "website=https://www.comunedivicovaro.it/",
        "wikidata=Q243521",
        "wikimedia_commons=Category:Vicovaro",
        "wikipedia=it:Vicovaro"
      ],
      "score": 71
    },
    {
      "id": "node:72963572",
      "name": "Vallinfreda",
      "lat": 42.0842815,
      "lon": 12.9966119,
      "type": "borghi",
      "visibility": "chicca",
      "tags": [
        "gfoss_id=5020",
        "name=Vallinfreda",
        "place=village",
        "population=290",
        "source=geodati.gfoss.it",
        "website=http://www.comunevallinfreda.rm.it/",
        "wikidata=Q243509",
        "wikimedia_commons=Category:Vallinfreda",
        "wikipedia=it:Vallinfreda"
      ],
      "score": 71
    },
    {
      "id": "node:72963600",
      "name": "Licenza",
      "lat": 42.0731126,
      "lon": 12.9014677,
      "type": "borghi",
      "visibility": "chicca",
      "tags": [
        "gfoss_id=4962",
        "name=Licenza",
        "place=village",
        "population=957",
        "source=geodati.gfoss.it",
        "website=https://www.comune.licenza.rm.it/",
        "wikidata=Q242844",
        "wikimedia_commons=Category:Licenza",
        "wikipedia=it:Licenza (Italia)"
      ],
      "score": 71
    },
    {
      "id": "node:72963608",
      "name": "Magliano Romano",
      "lat": 42.1598932,
      "lon": 12.4368996,
      "type": "borghi",
      "visibility": "chicca",
      "tags": [
        "contact:facebook=https://www.facebook.com/ComuneMaglianoRomano",
        "gfoss_id=4963",
        "name=Magliano Romano",
        "place=village",
        "population=1322",
        "source=geodati.gfoss.it",
        "website=http://www.comunedimaglianoromano.it/",
        "wikidata=Q242870",
        "wikimedia_commons=Category:Magliano Romano",
        "wikipedia=it:Magliano Romano"
      ],
      "score": 71
    },
    {
      "id": "node:72963697",
      "name": "Poli",
      "lat": 41.8873266,
      "lon": 12.8931264,
      "type": "borghi",
      "visibility": "chicca",
      "tags": [
        "gfoss_id=4989",
        "name=Poli",
        "place=village",
        "population=2163",
        "source=geodati.gfoss.it",
        "website=https://www.comune.poli.rm.it/",
        "wikidata=Q243168",
        "wikimedia_commons=Category:Poli",
        "wikipedia=it:Poli (Italia)"
      ],
      "score": 71
    },
    {
      "id": "node:72963702",
      "name": "Riofreddo",
      "lat": 42.0605168,
      "lon": 13.0003344,
      "type": "borghi",
      "visibility": "chicca",
      "tags": [
        "gfoss_id=4994",
        "name=Riofreddo",
        "place=village",
        "population=764",
        "source=geodati.gfoss.it",
        "website=http://www.comunediriofreddo.it/",
        "wikidata=Q243199",
        "wikimedia_commons=Category:Riofreddo",
        "wikipedia=it:Riofreddo"
      ],
      "score": 71
    },
    {
      "id": "node:72963709",
      "name": "Rocca di Cave",
      "lat": 41.84642,
      "lon": 12.945488,
      "type": "borghi",
      "visibility": "chicca",
      "tags": [
        "gfoss_id=4996",
        "name=Rocca di Cave",
        "place=village",
        "population=358",
        "source=geodati.gfoss.it",
        "website=https://comune.roccadicave.rm.it",
        "wikidata=Q243220",
        "wikimedia_commons=Category:Rocca di Cave",
        "wikipedia=it:Rocca di Cave"
      ],
      "score": 71
    },
    {
      "id": "node:72963725",
      "name": "Orte",
      "lat": 42.4605984,
      "lon": 12.3856056,
      "type": "borghi",
      "visibility": "chicca",
      "tags": [
        "name=Orte",
        "place=village",
        "population=7781",
        "source=geodati.gfoss.it",
        "website=http://www.comune.orte.vt.it",
        "wikidata=Q176180",
        "wikipedia=it:Orte"
      ],
      "score": 71
    },
    {
      "id": "node:72963845",
      "name": "Valentano",
      "lat": 42.5684597,
      "lon": 11.8187556,
      "type": "borghi",
      "visibility": "chicca",
      "tags": [
        "gfoss_id=4831",
        "name=Valentano",
        "place=village",
        "population=2935",
        "postal_code=01018",
        "source=geodati.gfoss.it",
        "website=https://www.comune.valentano.vt.it/",
        "wikidata=Q180050",
        "wikipedia=it:Valentano"
      ],
      "score": 71
    },
    {
      "id": "node:72963916",
      "name": "Sutri",
      "lat": 42.247023,
      "lon": 12.215067,
      "type": "borghi",
      "visibility": "chicca",
      "tags": [
        "gfoss_id=4827",
        "name=Sutri",
        "place=village",
        "population=6709",
        "source=geodati.gfoss.it",
        "website=https://www.comune.sutri.vt.it/",
        "wikidata=Q177741",
        "wikimedia_commons=Category:Sutri",
        "wikipedia=it:Sutri"
      ],
      "score": 71
    },
    {
      "id": "node:72964051",
      "name": "Barbarano Romano",
      "lat": 42.2498341,
      "lon": 12.0673735,
      "type": "borghi",
      "visibility": "chicca",
      "tags": [
        "gfoss_id=4782",
        "name=Barbarano Romano",
        "place=village",
        "population=950",
        "source=geodati.gfoss.it",
        "website=https://www.comunebarbaranoromano.it/",
        "wikidata=Q159510",
        "wikimedia_commons=Category:Barbarano Romano",
        "wikipedia=it:Barbarano Romano"
      ],
      "score": 71
    },
    {
      "id": "node:72964078",
      "name": "Bolsena",
      "lat": 42.6441069,
      "lon": 11.9849554,
      "type": "borghi",
      "visibility": "chicca",
      "tags": [
        "gfoss_id=4786",
        "name=Bolsena",
        "place=village",
        "population=4111",
        "source=geodati.gfoss.it",
        "website=https://www.comune.bolsena.vt.it/",
        "wikidata=Q159685",
        "wikimedia_commons=Category:Bolsena",
        "wikipedia=it:Bolsena"
      ],
      "score": 71
    },
    {
      "id": "node:72964080",
      "name": "Blera",
      "lat": 42.272522,
      "lon": 12.031662,
      "type": "borghi",
      "visibility": "chicca",
      "tags": [
        "gfoss_id=4785",
        "name=Blera",
        "place=village",
        "population=3208",
        "source=geodati.gfoss.it",
        "website=http://www.comuneblera.gov.it/",
        "wikidata=Q159678",
        "wikimedia_commons=Category:Blera (Italy)",
        "wikipedia=it:Blera"
      ],
      "score": 71
    },
    {
      "id": "node:72964091",
      "name": "Fabrica di Roma",
      "lat": 42.335126,
      "lon": 12.299767,
      "type": "borghi",
      "visibility": "chicca",
      "tags": [
        "contact:facebook=https://www.facebook.com/comunedifabricadiroma/",
        "contact:youtube=https://www.youtube.com/channel/UC7--b89mwD60FC0zh6AfgUA",
        "gfoss_id=4802",
        "name=Fabrica di Roma",
        "place=village",
        "population=8340",
        "source=geodati.gfoss.it",
        "website=https://comune.fabricadiroma.vt.it/",
        "wikidata=Q160967",
        "wikimedia_commons=Category:Fabrica di Roma",
        "wikipedia=it:Fabrica di Roma"
      ],
      "score": 71
    },
    {
      "id": "node:72964305",
      "name": "Bassano Romano",
      "lat": 42.2183916,
      "lon": 12.1930062,
      "type": "borghi",
      "visibility": "chicca",
      "tags": [
        "gfoss_id=4783",
        "name=Bassano Romano",
        "place=village",
        "population=4277",
        "source=geodati.gfoss.it",
        "website=https://www.comune.bassanoromano.vt.it/",
        "wikidata=Q159520",
        "wikimedia_commons=Category:Bassano Romano",
        "wikipedia=it:Bassano Romano"
      ],
      "score": 71
    },
    {
      "id": "node:72964345",
      "name": "Vejano",
      "lat": 42.216757,
      "lon": 12.0952017,
      "type": "borghi",
      "visibility": "chicca",
      "tags": [
        "gfoss_id=4834",
        "name=Vejano",
        "place=village",
        "population=2085",
        "source=geodati.gfoss.it",
        "website=https://comune.vejano.vt.it/",
        "wikidata=Q180259",
        "wikimedia_commons=Category:Vejano",
        "wikipedia=it:Vejano"
      ],
      "score": 71
    },
    {
      "id": "node:72964353",
      "name": "Vitorchiano",
      "lat": 42.465427,
      "lon": 12.172462,
      "type": "borghi",
      "visibility": "chicca",
      "tags": [
        "contact:facebook=https://www.facebook.com/comunedivitorchiano",
        "contact:instagram=https://www.instagram.com/visit_vitorchiano",
        "gfoss_id=4838",
        "name=Vitorchiano",
        "place=village",
        "population=3214",
        "source=geodati.gfoss.it",
        "website=https://comune.vitorchiano.vt.it/home",
        "wikidata=Q180355",
        "wikimedia_commons=Category:Vitorchiano",
        "wikipedia=it:Vitorchiano"
      ],
      "score": 71
    },
    {
      "id": "node:519207619",
      "name": "Guadagnolo",
      "lat": 41.9136821,
      "lon": 12.9277459,
      "type": "borghi",
      "visibility": "chicca",
      "tags": [
        "name=Guadagnolo",
        "place=village",
        "population=55",
        "postal_code=00030",
        "website=https://www.comunecapranicaprenestina.it/la_frazione_di_guadagnolo.htm",
        "wikidata=Q3118669",
        "wikipedia=it:Guadagnolo"
      ],
      "score": 71
    },
    {
      "id": "node:1464632409",
      "name": "Tolfa",
      "lat": 42.1496129,
      "lon": 11.9381951,
      "type": "borghi",
      "visibility": "chicca",
      "tags": [
        "gfoss_id=5016",
        "name=Tolfa",
        "place=village",
        "population=5169",
        "postal_code=00059",
        "source:population=wikipedia:it 31-5-2015",
        "website=https://comune.tolfa.rm.it/",
        "wikidata=Q243488",
        "wikimedia_commons=Category:Tolfa",
        "wikipedia=it:Tolfa"
      ],
      "score": 71
    },
    {
      "id": "node:1771222491",
      "name": "Valleluce",
      "lat": 41.5663755,
      "lon": 13.8571048,
      "type": "borghi",
      "visibility": "chicca",
      "tags": [
        "name=Valleluce",
        "place=village",
        "website=https://www.valleluce.it/",
        "wikidata=Q18453589"
      ],
      "score": 71
    },
    {
      "id": "node:1812809988",
      "name": "Vico nel Lazio",
      "lat": 41.7771496,
      "lon": 13.3419239,
      "type": "borghi",
      "visibility": "chicca",
      "tags": [
        "gfoss_id=5152",
        "name=Vico nel Lazio",
        "place=village",
        "population=2314",
        "postal_code=03010",
        "source:population=wikipedia:it, 31.12.2010",
        "url=http://www.viconellazio.org/",
        "website=https://www.comune.viconellazio.fr.it/",
        "wikidata=Q117585",
        "wikimedia_commons=Category:Vico nel Lazio",
        "wikipedia=it:Vico nel Lazio"
      ],
      "score": 71
    },
    {
      "id": "node:2461585084",
      "name": "Fogliano",
      "lat": 41.3968641,
      "lon": 12.9155836,
      "type": "borghi",
      "visibility": "chicca",
      "tags": [
        "name=Fogliano",
        "place=village",
        "website=www.villaggiofogliano.it",
        "wikidata=Q3825948",
        "wikipedia=it:Lago di Fogliano"
      ],
      "score": 71
    },
    {
      "id": "node:2773689927",
      "name": "Paliano",
      "lat": 41.8060233,
      "lon": 13.0580683,
      "type": "borghi",
      "visibility": "chicca",
      "tags": [
        "name=Paliano",
        "place=village",
        "population=7933",
        "population:date=2022-06-30",
        "source:population=wikipedia",
        "website=https://www.comune.paliano.fr.it",
        "wikidata=Q116961",
        "wikimedia_commons=Category:Paliano",
        "wikipedia=it:Paliano"
      ],
      "score": 71
    },
    {
      "id": "node:4318757045",
      "name": "Bagnoregio",
      "lat": 42.62698,
      "lon": 12.0908718,
      "type": "borghi",
      "visibility": "chicca",
      "tags": [
        "name=Bagnoregio",
        "place=village",
        "population=3614",
        "postal_code=01022",
        "website=http://www.comune.bagnoregio.vt.it/",
        "wikidata=Q159498",
        "wikimedia_commons=Category:Bagnoregio",
        "wikipedia=it:Bagnoregio"
      ],
      "score": 71
    },
    {
      "id": "node:4390210696",
      "name": "Morlupo",
      "lat": 42.1488565,
      "lon": 12.5030127,
      "type": "borghi",
      "visibility": "chicca",
      "tags": [
        "contact:facebook=https://www.facebook.com/comunedimorlupo/",
        "contact:instagram=https://www.instagram.com/comunedimorlupo",
        "contact:telegram=https://telegram.me/comunedimorlupo",
        "contact:twitter=https://twitter.com/comunedimorlupo",
        "contact:youtube=https://www.youtube.com/channel/UC8PN-pOINwSaDcX6-Czjdrw",
        "name=Morlupo",
        "place=village",
        "population=8630",
        "website=https://comune.morlupo.roma.it/",
        "wikidata=Q243022",
        "wikimedia_commons=Category:Morlupo",
        "wikipedia=it:Morlupo"
      ],
      "score": 71
    },
    {
      "id": "node:72959721",
      "name": "Broccostella",
      "lat": 41.7027311,
      "lon": 13.6378198,
      "type": "borghi",
      "visibility": "classica",
      "tags": [
        "gfoss_id=5080",
        "name=Broccostella",
        "place=village",
        "population=2646",
        "source=geodati.gfoss.it",
        "wikidata=Q30023167",
        "wikipedia=it:Broccostella"
      ],
      "score": 65
    },
    {
      "id": "node:72959723",
      "name": "Castelnuovo Parano",
      "lat": 41.3788737,
      "lon": 13.7553846,
      "type": "borghi",
      "visibility": "classica",
      "tags": [
        "gfoss_id=5086",
        "name=Castelnuovo Parano",
        "place=village",
        "population=876",
        "source=geodati.gfoss.it",
        "wikidata=Q30024302"
      ],
      "score": 65
    },
    {
      "id": "node:72959736",
      "name": "Fontana Liri",
      "lat": 41.61002,
      "lon": 13.550305,
      "type": "borghi",
      "visibility": "classica",
      "tags": [
        "gfoss_id=5101",
        "name=Fontana Liri",
        "place=village",
        "population=3215",
        "source=geodati.gfoss.it",
        "wikidata=Q116844",
        "wikipedia=it:Fontana Liri"
      ],
      "score": 65
    },
    {
      "id": "node:72959744",
      "name": "Acquafondata",
      "lat": 41.542822,
      "lon": 13.952815,
      "type": "borghi",
      "visibility": "classica",
      "tags": [
        "gfoss_id=5066",
        "name=Acquafondata",
        "place=village",
        "population=316",
        "source=geodati.gfoss.it",
        "wikidata=Q30021932"
      ],
      "score": 65
    },
    {
      "id": "node:72959773",
      "name": "Campoli Appennino",
      "lat": 41.7379172,
      "lon": 13.6784797,
      "type": "borghi",
      "visibility": "classica",
      "tags": [
        "gfoss_id=5081",
        "name=Campoli Appennino",
        "place=village",
        "population=1804",
        "source=geodati.gfoss.it",
        "wikidata=Q116564",
        "wikimedia_commons=Category:Campoli Appennino",
        "wikipedia=it:Campoli Appennino"
      ],
      "score": 65
    },
    {
      "id": "node:72959783",
      "name": "Casalattico",
      "lat": 41.6224124,
      "lon": 13.7255588,
      "type": "borghi",
      "visibility": "classica",
      "tags": [
        "gfoss_id=5082",
        "name=Casalattico",
        "place=village",
        "population=675",
        "source=geodati.gfoss.it",
        "wikidata=Q116573",
        "wikipedia=it:Casalattico"
      ],
      "score": 65
    },
    {
      "id": "node:72959863",
      "name": "Castelliri",
      "lat": 41.679221,
      "lon": 13.551404,
      "type": "borghi",
      "visibility": "classica",
      "tags": [
        "gfoss_id=5085",
        "name=Castelliri",
        "place=village",
        "population=3560",
        "source=geodati.gfoss.it",
        "wikidata=Q116604",
        "wikipedia=it:Castelliri"
      ],
      "score": 65
    },
    {
      "id": "node:72959877",
      "name": "Cervaro",
      "lat": 41.4811575,
      "lon": 13.9051132,
      "type": "borghi",
      "visibility": "classica",
      "tags": [
        "gfoss_id=5091",
        "name=Cervaro",
        "place=village",
        "population=7022",
        "source=geodati.gfoss.it",
        "wikidata=Q116724",
        "wikipedia=it:Cervaro (comune)"
      ],
      "score": 65
    },
    {
      "id": "node:72959883",
      "name": "Colle San Magno",
      "lat": 41.55122,
      "lon": 13.694909,
      "type": "borghi",
      "visibility": "classica",
      "tags": [
        "gfoss_id=5094",
        "name=Colle San Magno",
        "place=village",
        "population=819",
        "source=geodati.gfoss.it",
        "wikidata=Q116742",
        "wikipedia=it:Colle San Magno"
      ],
      "score": 65
    },
    {
      "id": "node:72959911",
      "name": "Falvaterra",
      "lat": 41.505118,
      "lon": 13.523806,
      "type": "borghi",
      "visibility": "classica",
      "tags": [
        "gfoss_id=5097",
        "name=Falvaterra",
        "place=village",
        "population=630",
        "source=geodati.gfoss.it",
        "wikidata=Q116828",
        "wikimedia_commons=Category:Falvaterra",
        "wikipedia=it:Falvaterra"
      ],
      "score": 65
    },
    {
      "id": "node:72959918",
      "name": "Gallinaro",
      "lat": 41.653423,
      "lon": 13.79781,
      "type": "borghi",
      "visibility": "classica",
      "tags": [
        "gfoss_id=5105",
        "name=Gallinaro",
        "place=village",
        "population=1221",
        "source=geodati.gfoss.it",
        "wikidata=Q116902",
        "wikipedia=it:Gallinaro"
      ],
      "score": 65
    },
    {
      "id": "node:72959955",
      "name": "Morolo",
      "lat": 41.638218,
      "lon": 13.197097,
      "type": "borghi",
      "visibility": "classica",
      "tags": [
        "gfoss_id=5110",
        "name=Morolo",
        "place=village",
        "population=3090",
        "source=geodati.gfoss.it",
        "wikidata=Q116956",
        "wikimedia_commons=Category:Morolo",
        "wikipedia=it:Morolo"
      ],
      "score": 65
    },
    {
      "id": "node:72959992",
      "name": "Posta Fibreno",
      "lat": 41.690323,
      "lon": 13.697407,
      "type": "borghi",
      "visibility": "classica",
      "tags": [
        "gfoss_id=5122",
        "name=Posta Fibreno",
        "place=village",
        "population=1274",
        "source=geodati.gfoss.it",
        "wikidata=Q117189",
        "wikipedia=it:Posta Fibreno"
      ],
      "score": 65
    },
    {
      "id": "node:72960007",
      "name": "Pignataro Interamna",
      "lat": 41.439218,
      "lon": 13.786212,
      "type": "borghi",
      "visibility": "classica",
      "tags": [
        "gfoss_id=5119",
        "name=Pignataro Interamna",
        "place=village",
        "population=2447",
        "source=geodati.gfoss.it",
        "wikidata=Q30028880"
      ],
      "score": 65
    },
    {
      "id": "node:72960055",
      "name": "San Giovanni Incarico",
      "lat": 41.5017386,
      "lon": 13.5578577,
      "type": "borghi",
      "visibility": "classica",
      "tags": [
        "gfoss_id=5129",
        "name=San Giovanni Incarico",
        "place=village",
        "population=3587",
        "source=geodati.gfoss.it",
        "wikidata=Q117242",
        "wikimedia_commons=Category:San Giovanni Incarico",
        "wikipedia=it:San Giovanni Incarico"
      ],
      "score": 65
    },
    {
      "id": "node:72960081",
      "name": "Rocca d'Arce",
      "lat": 41.58712,
      "lon": 13.585106,
      "type": "borghi",
      "visibility": "classica",
      "tags": [
        "gfoss_id=5124",
        "name=Rocca d'Arce",
        "place=village",
        "population=1031",
        "source=geodati.gfoss.it",
        "wikidata=Q117204",
        "wikipedia=it:Rocca d'Arce"
      ],
      "score": 65
    },
    {
      "id": "node:72960105",
      "name": "Sant'Elia Fiumerapido",
      "lat": 41.5399074,
      "lon": 13.8657582,
      "type": "borghi",
      "visibility": "classica",
      "tags": [
        "gfoss_id=5133",
        "name=Sant'Elia Fiumerapido",
        "place=village",
        "population=5658",
        "population:date=2024-01-01",
        "source=geodati.gfoss.it",
        "source:population=http://dati.istat.it/Index.aspx",
        "wikidata=Q117333",
        "wikipedia=it:Sant'Elia Fiumerapido"
      ],
      "score": 65
    },
    {
      "id": "node:72960171",
      "name": "Settefrati",
      "lat": 41.669624,
      "lon": 13.850011,
      "type": "borghi",
      "visibility": "classica",
      "tags": [
        "gfoss_id=5137",
        "name=Settefrati",
        "place=village",
        "population=855",
        "source=geodati.gfoss.it",
        "wikidata=Q117362",
        "wikimedia_commons=Category:Settefrati",
        "wikipedia=it:Settefrati"
      ],
      "score": 65
    },
    {
      "id": "node:72960258",
      "name": "Villa Santa Lucia",
      "lat": 41.51242,
      "lon": 13.770011,
      "type": "borghi",
      "visibility": "classica",
      "tags": [
        "gfoss_id=5154",
        "name=Villa Santa Lucia",
        "place=village",
        "population=2622",
        "source=geodati.gfoss.it",
        "wikidata=Q117602",
        "wikipedia=it:Villa Santa Lucia"
      ],
      "score": 65
    },
    {
      "id": "node:72960299",
      "name": "Aquino",
      "lat": 41.491119,
      "lon": 13.70471,
      "type": "borghi",
      "visibility": "classica",
      "tags": [
        "gfoss_id=5072",
        "name=Aquino",
        "place=village",
        "population=5337",
        "source=geodati.gfoss.it",
        "wikidata=Q116415",
        "wikipedia=it:Aquino"
      ],
      "score": 65
    },
    {
      "id": "node:72960339",
      "name": "Alvito",
      "lat": 41.6884643,
      "lon": 13.7432643,
      "type": "borghi",
      "visibility": "classica",
      "tags": [
        "gfoss_id=5069",
        "name=Alvito",
        "place=village",
        "population=3031",
        "source=geodati.gfoss.it",
        "wikidata=Q116390",
        "wikimedia_commons=Category:Alvito (Italy)",
        "wikipedia=it:Alvito (Italia)"
      ],
      "score": 65
    },
    {
      "id": "node:72960434",
      "name": "Arpino",
      "lat": 41.6479826,
      "lon": 13.6101414,
      "type": "borghi",
      "visibility": "classica",
      "tags": [
        "gfoss_id=5075",
        "name=Arpino",
        "place=village",
        "population=7262",
        "wikidata=Q116440",
        "wikimedia_commons=Category:Arpino, Lazio",
        "wikipedia=it:Arpino"
      ],
      "score": 65
    },
    {
      "id": "node:72960449",
      "name": "Arnara",
      "lat": 41.5843756,
      "lon": 13.3882719,
      "type": "borghi",
      "visibility": "classica",
      "tags": [
        "gfoss_id=5074",
        "name=Arnara",
        "place=village",
        "population=2454",
        "source=geodati.gfoss.it",
        "wikidata=Q30022352"
      ],
      "score": 65
    },
    {
      "id": "node:72960462",
      "name": "Ceprano",
      "lat": 41.545579,
      "lon": 13.5155537,
      "type": "borghi",
      "visibility": "classica",
      "tags": [
        "gfoss_id=5090",
        "name=Ceprano",
        "place=village",
        "population=8246",
        "source=geodati.gfoss.it",
        "wikidata=Q116716",
        "wikimedia_commons=Category:Ceprano",
        "wikipedia=it:Ceprano"
      ],
      "score": 65
    },
    {
      "id": "node:72960479",
      "name": "Esperia",
      "lat": 41.3839494,
      "lon": 13.6806101,
      "type": "borghi",
      "visibility": "classica",
      "tags": [
        "gfoss_id=5096",
        "name=Esperia",
        "place=village",
        "population=4131",
        "source=geodati.gfoss.it",
        "wikidata=Q30025572"
      ],
      "score": 65
    },
    {
      "id": "node:72960537",
      "name": "Fontechiari",
      "lat": 41.6679656,
      "lon": 13.6755758,
      "type": "borghi",
      "visibility": "classica",
      "tags": [
        "gfoss_id=5102",
        "name=Fontechiari",
        "place=village",
        "population=1288",
        "source=geodati.gfoss.it",
        "wikidata=Q116859",
        "wikimedia_commons=Category:Fontechiari",
        "wikipedia=it:Fontechiari"
      ],
      "score": 65
    },
    {
      "id": "node:72960551",
      "name": "Boville Ernica",
      "lat": 41.6425255,
      "lon": 13.472583,
      "type": "borghi",
      "visibility": "classica",
      "tags": [
        "gfoss_id=5079",
        "name=Boville Ernica",
        "place=village",
        "population=8873",
        "source=geodati.gfoss.it",
        "wikidata=Q116552",
        "wikipedia=it:Boville Ernica"
      ],
      "score": 65
    },
    {
      "id": "node:72960567",
      "name": "Castrocielo",
      "lat": 41.5292828,
      "lon": 13.6939382,
      "type": "borghi",
      "visibility": "classica",
      "tags": [
        "gfoss_id=5087",
        "name=Castrocielo",
        "place=village",
        "population=3750",
        "source=geodati.gfoss.it",
        "wikidata=Q116698",
        "wikipedia=it:Castrocielo"
      ],
      "score": 65
    },
    {
      "id": "node:72960588",
      "name": "Pastena",
      "lat": 41.4682439,
      "lon": 13.4917372,
      "type": "borghi",
      "visibility": "classica",
      "tags": [
        "gfoss_id=5112",
        "name=Pastena",
        "place=village",
        "population=1672",
        "source=geodati.gfoss.it",
        "wikidata=Q116964",
        "wikipedia=it:Pastena"
      ],
      "score": 65
    },
    {
      "id": "node:72960589",
      "name": "Pescosolido",
      "lat": 41.748124,
      "lon": 13.656605,
      "type": "borghi",
      "visibility": "classica",
      "tags": [
        "gfoss_id=5114",
        "name=Pescosolido",
        "place=village",
        "population=1568",
        "source=geodati.gfoss.it",
        "wikidata=Q30028751",
        "wikimedia_commons=Category:Pescosolido",
        "wikipedia=it:Pescosolido"
      ],
      "score": 65
    },
    {
      "id": "node:72960693",
      "name": "Roccasecca",
      "lat": 41.5523208,
      "lon": 13.6672577,
      "type": "borghi",
      "visibility": "classica",
      "tags": [
        "gfoss_id=5125",
        "name=Roccasecca",
        "place=village",
        "population=7442",
        "source=geodati.gfoss.it",
        "wikidata=Q117211",
        "wikimedia_commons=Category:Roccasecca",
        "wikipedia=it:Roccasecca"
      ],
      "score": 65
    },
    {
      "id": "node:72960720",
      "name": "San Donato Val di Comino",
      "lat": 41.7089421,
      "lon": 13.8125922,
      "type": "borghi",
      "visibility": "classica",
      "tags": [
        "gfoss_id=5127",
        "name=San Donato Val di Comino",
        "place=village",
        "population=1859",
        "population:date=2024-12-31",
        "source=geodati.gfoss.it;wikipedia",
        "source:population=wikipedia",
        "wikidata=Q30029862",
        "wikimedia_commons=Category:San Donato Val di Comino",
        "wikipedia=it:San Donato Val di Comino"
      ],
      "score": 65
    },
    {
      "id": "node:72960725",
      "name": "Vicalvi",
      "lat": 41.676723,
      "lon": 13.706407,
      "type": "borghi",
      "visibility": "classica",
      "tags": [
        "gfoss_id=5151",
        "name=Vicalvi",
        "place=village",
        "population=801",
        "source=geodati.gfoss.it",
        "wikidata=Q30031692",
        "wikipedia=it:Vicalvi"
      ],
      "score": 65
    },
    {
      "id": "node:72960760",
      "name": "Spigno Saturnia",
      "lat": 41.3063513,
      "lon": 13.7318836,
      "type": "borghi",
      "visibility": "classica",
      "tags": [
        "gfoss_id=5063",
        "name=Spigno Saturnia",
        "place=village",
        "population=2719",
        "source=geodati.gfoss.it",
        "wikidata=Q128222",
        "wikipedia=it:Spigno Saturnia"
      ],
      "score": 65
    },
    {
      "id": "node:72960774",
      "name": "Villa Latina",
      "lat": 41.6193536,
      "lon": 13.8361614,
      "type": "borghi",
      "visibility": "classica",
      "tags": [
        "gfoss_id=5153",
        "name=Villa Latina",
        "place=village",
        "population=1247",
        "source=geodati.gfoss.it",
        "wikidata=Q117593",
        "wikipedia=it:Villa Latina"
      ],
      "score": 65
    },
    {
      "id": "node:72960879",
      "name": "Prossedi",
      "lat": 41.516216,
      "lon": 13.2607,
      "type": "borghi",
      "visibility": "classica",
      "tags": [
        "gfoss_id=5052",
        "name=Prossedi",
        "place=village",
        "population=1248",
        "source=geodati.gfoss.it",
        "wikidata=Q128143",
        "wikimedia_commons=Category:Prossedi",
        "wikipedia=it:Prossedi"
      ],
      "score": 65
    },
    {
      "id": "node:72961071",
      "name": "Campodimele",
      "lat": 41.3904463,
      "lon": 13.5303355,
      "type": "borghi",
      "visibility": "classica",
      "tags": [
        "gfoss_id=5035",
        "name=Campodimele",
        "place=village",
        "population=555",
        "population:date=2025-01-01",
        "source=geodati.gfoss.it",
        "source:population=https://demo.istat.it/app/?l=it&a=2025&i=POS",
        "wikidata=Q128060",
        "wikipedia=it:Campodimele"
      ],
      "score": 65
    },
    {
      "id": "node:72961101",
      "name": "Greccio",
      "lat": 42.4447959,
      "lon": 12.7518078,
      "type": "borghi",
      "visibility": "classica",
      "tags": [
        "gfoss_id=4869",
        "name=Greccio",
        "place=village",
        "population=1529",
        "source=geodati.gfoss.it",
        "wikidata=Q224144",
        "wikipedia=it:Greccio"
      ],
      "score": 65
    },
    {
      "id": "node:72961155",
      "name": "Santi Cosma e Damiano",
      "lat": 41.3001731,
      "lon": 13.8139274,
      "type": "borghi",
      "visibility": "classica",
      "tags": [
        "gfoss_id=5058",
        "name=Santi Cosma e Damiano",
        "place=village",
        "population=6532",
        "source=geodati.gfoss.it",
        "wikidata=Q128185",
        "wikimedia_commons=Category:Santi Cosma e Damiano (comune, Italy)",
        "wikipedia=it:Santi Cosma e Damiano (Italia)"
      ],
      "score": 65
    },
    {
      "id": "node:72961209",
      "name": "Castel Sant'Angelo",
      "lat": 42.3938693,
      "lon": 13.0234552,
      "type": "borghi",
      "visibility": "classica",
      "tags": [
        "gfoss_id=4853",
        "name=Castel Sant'Angelo",
        "place=village",
        "population=1282",
        "source=geodati.gfoss.it",
        "wikidata=Q30024143"
      ],
      "score": 65
    },
    {
      "id": "node:72961234",
      "name": "Collevecchio",
      "lat": 42.3349731,
      "lon": 12.5529751,
      "type": "borghi",
      "visibility": "classica",
      "tags": [
        "gfoss_id=4859",
        "name=Collevecchio",
        "place=village",
        "population=1480",
        "source=geodati.gfoss.it",
        "wikidata=Q224073",
        "wikimedia_commons=Category:Collevecchio",
        "wikipedia=it:Collevecchio"
      ],
      "score": 65
    },
    {
      "id": "node:72961293",
      "name": "Montopoli di Sabina",
      "lat": 42.245927,
      "lon": 12.692077,
      "type": "borghi",
      "visibility": "classica",
      "tags": [
        "gfoss_id=4882",
        "name=Montopoli di Sabina",
        "place=village",
        "population=4138",
        "source=geodati.gfoss.it",
        "wikidata=Q224259",
        "wikimedia_commons=Category:Montopoli di Sabina",
        "wikipedia=it:Montopoli di Sabina"
      ],
      "score": 65
    },
    {
      "id": "node:72961587",
      "name": "Poggio Moiano",
      "lat": 42.202627,
      "lon": 12.879382,
      "type": "borghi",
      "visibility": "classica",
      "tags": [
        "gfoss_id=4892",
        "name=Poggio Moiano",
        "place=village",
        "population=2510",
        "source=geodati.gfoss.it",
        "wikidata=Q224320",
        "wikimedia_commons=Category:Poggio Moiano",
        "wikipedia=it:Poggio Moiano"
      ],
      "score": 65
    },
    {
      "id": "node:72961643",
      "name": "Forano",
      "lat": 42.2965835,
      "lon": 12.595375,
      "type": "borghi",
      "visibility": "classica",
      "tags": [
        "gfoss_id=4867",
        "name=Forano",
        "place=village",
        "population=2453",
        "source=geodati.gfoss.it",
        "wikidata=Q224136",
        "wikimedia_commons=Category:Forano",
        "wikipedia=it:Forano"
      ],
      "score": 65
    },
    {
      "id": "node:72961664",
      "name": "Longone Sabino",
      "lat": 42.27313,
      "lon": 12.967383,
      "type": "borghi",
      "visibility": "classica",
      "tags": [
        "gfoss_id=4872",
        "name=Longone Sabino",
        "place=village",
        "population=682",
        "source=geodati.gfoss.it",
        "wikidata=Q224176",
        "wikipedia=it:Longone Sabino"
      ],
      "score": 65
    },
    {
      "id": "node:72961760",
      "name": "Borbona",
      "lat": 42.512536,
      "lon": 13.135983,
      "type": "borghi",
      "visibility": "classica",
      "tags": [
        "gfoss_id=4844",
        "name=Borbona",
        "place=village",
        "population=725",
        "source=geodati.gfoss.it",
        "wikidata=Q30022946"
      ],
      "score": 65
    },
    {
      "id": "node:72961794",
      "name": "Antrodoco",
      "lat": 42.416134,
      "lon": 13.078683,
      "type": "borghi",
      "visibility": "classica",
      "tags": [
        "gfoss_id=4841",
        "name=Antrodoco",
        "place=village",
        "population=2845",
        "source=geodati.gfoss.it",
        "wikidata=Q30022251"
      ],
      "score": 65
    },
    {
      "id": "node:72961823",
      "name": "Varco Sabino",
      "lat": 42.239829,
      "lon": 13.019884,
      "type": "borghi",
      "visibility": "classica",
      "tags": [
        "gfoss_id=4911",
        "name=Varco Sabino",
        "place=village",
        "population=263",
        "source=geodati.gfoss.it",
        "wikidata=Q224719",
        "wikipedia=it:Varco Sabino"
      ],
      "score": 65
    },
    {
      "id": "node:72961899",
      "name": "Rocca Sinibalda",
      "lat": 42.274429,
      "lon": 12.925582,
      "type": "borghi",
      "visibility": "classica",
      "tags": [
        "gfoss_id=4900",
        "name=Rocca Sinibalda",
        "place=village",
        "population=795",
        "source=Istat 2017",
        "wikidata=Q224430",
        "wikipedia=it:Rocca Sinibalda"
      ],
      "score": 65
    },
    {
      "id": "node:72961916",
      "name": "Rivodutri",
      "lat": 42.516434,
      "lon": 12.854977,
      "type": "borghi",
      "visibility": "classica",
      "tags": [
        "gfoss_id=4898",
        "name=Rivodutri",
        "name:ru=Риводутри",
        "place=village",
        "population=1310",
        "source:population=wikipedia:it, 31.12.2010",
        "wikidata=Q224405",
        "wikipedia=it:Rivodutri"
      ],
      "score": 65
    },
    {
      "id": "node:72961928",
      "name": "Posta",
      "lat": 42.5235514,
      "lon": 13.0960137,
      "type": "borghi",
      "visibility": "classica",
      "tags": [
        "gfoss_id=4895",
        "name=Posta",
        "place=village",
        "population=824",
        "wikidata=Q30029104"
      ],
      "score": 65
    },
    {
      "id": "node:72961965",
      "name": "Tarano",
      "lat": 42.355928,
      "lon": 12.594973,
      "type": "borghi",
      "visibility": "classica",
      "tags": [
        "gfoss_id=4905",
        "name=Tarano",
        "place=village",
        "population=1198",
        "source=geodati.gfoss.it",
        "wikidata=Q30031003"
      ],
      "score": 65
    },
    {
      "id": "node:72961976",
      "name": "Scandriglia",
      "lat": 42.1655328,
      "lon": 12.8419253,
      "type": "borghi",
      "visibility": "classica",
      "tags": [
        "gfoss_id=4902",
        "name=Scandriglia",
        "place=village",
        "population=3108",
        "source=geodati.gfoss.it",
        "wikidata=Q224521",
        "wikimedia_commons=Category:Scandriglia",
        "wikipedia=it:Scandriglia"
      ],
      "score": 65
    },
    {
      "id": "node:72962031",
      "name": "Poggio Mirteto",
      "lat": 42.2655187,
      "lon": 12.6873028,
      "type": "borghi",
      "visibility": "classica",
      "tags": [
        "ele=246",
        "name=Poggio Mirteto",
        "old_name=Podium Myrtetum",
        "place=village",
        "population=3343",
        "url=http://italia.indettaglio.it/ita/lazio/poggiomirteto.html",
        "wikidata=Q30028948",
        "wikimedia_commons=Category:Poggio Mirteto",
        "wikipedia=it:Poggio Mirteto",
        "wikivoyage=it:Poggio Mirteto"
      ],
      "score": 65
    },
    {
      "id": "node:72962056",
      "name": "Pescorocchiano",
      "lat": 42.20643,
      "lon": 13.146188,
      "type": "borghi",
      "visibility": "classica",
      "tags": [
        "gfoss_id=4887",
        "name=Pescorocchiano",
        "place=village",
        "population=2553",
        "source=geodati.gfoss.it",
        "wikidata=Q224293",
        "wikipedia=it:Pescorocchiano"
      ],
      "score": 65
    },
    {
      "id": "node:72962173",
      "name": "Arcinazzo Romano",
      "lat": 41.879722,
      "lon": 13.114392,
      "type": "borghi",
      "visibility": "classica",
      "tags": [
        "gfoss_id=4919",
        "name=Arcinazzo Romano",
        "place=village",
        "population=1334",
        "source=geodati.gfoss.it",
        "wikidata=Q241725",
        "wikimedia_commons=Category:Arcinazzo Romano",
        "wikipedia=it:Arcinazzo Romano"
      ],
      "score": 65
    },
    {
      "id": "node:72962338",
      "name": "Poggio San Lorenzo",
      "lat": 42.252428,
      "lon": 12.84418,
      "type": "borghi",
      "visibility": "classica",
      "tags": [
        "gfoss_id=4894",
        "name=Poggio San Lorenzo",
        "place=village",
        "population=523",
        "source=geodati.gfoss.it",
        "wikidata=Q224328",
        "wikipedia=it:Poggio San Lorenzo"
      ],
      "score": 65
    },
    {
      "id": "node:72962365",
      "name": "Stimigliano",
      "lat": 42.2993298,
      "lon": 12.5657272,
      "type": "borghi",
      "visibility": "classica",
      "tags": [
        "gfoss_id=4904",
        "name=Stimigliano",
        "place=village",
        "population=1744",
        "source=geodati.gfoss.it",
        "wikidata=Q224587",
        "wikimedia_commons=Category:Stimigliano",
        "wikipedia=it:Stimigliano"
      ],
      "score": 65
    },
    {
      "id": "node:72962417",
      "name": "Civitella San Paolo",
      "lat": 42.198525,
      "lon": 12.576475,
      "type": "borghi",
      "visibility": "classica",
      "tags": [
        "gfoss_id=4944",
        "name=Civitella San Paolo",
        "place=village",
        "population=1547",
        "source=geodati.gfoss.it",
        "wikidata=Q242539",
        "wikipedia=it:Civitella San Paolo"
      ],
      "score": 65
    },
    {
      "id": "node:72962704",
      "name": "Gerano",
      "lat": 41.933119,
      "lon": 12.9937759,
      "type": "borghi",
      "visibility": "classica",
      "tags": [
        "gfoss_id=4955",
        "name=Gerano",
        "place=village",
        "population=1201",
        "source=geodati.gfoss.it",
        "wikidata=Q242692",
        "wikimedia_commons=Category:Gerano",
        "wikipedia=it:Gerano"
      ],
      "score": 65
    },
    {
      "id": "node:72962834",
      "name": "Roccagiovine",
      "lat": 42.0498018,
      "lon": 12.9002574,
      "type": "borghi",
      "visibility": "classica",
      "tags": [
        "gfoss_id=4998",
        "name=Roccagiovine",
        "place=village",
        "population=297",
        "source=geodati.gfoss.it",
        "wikidata=Q243236",
        "wikimedia_commons=Category:Roccagiovine",
        "wikipedia=it:Roccagiovine"
      ],
      "score": 65
    },
    {
      "id": "node:72962857",
      "name": "Ponzano Romano",
      "lat": 42.2577967,
      "lon": 12.5716266,
      "type": "borghi",
      "visibility": "classica",
      "tags": [
        "gfoss_id=4991",
        "name=Ponzano Romano",
        "place=village",
        "population=1028",
        "source=geodati.gfoss.it",
        "wikidata=Q243182",
        "wikimedia_commons=Category:Ponzano Romano",
        "wikipedia=it:Ponzano Romano"
      ],
      "score": 65
    },
    {
      "id": "node:72962994",
      "name": "Moricone",
      "lat": 42.117096,
      "lon": 12.7716393,
      "type": "borghi",
      "visibility": "classica",
      "tags": [
        "gfoss_id=4978",
        "name=Moricone",
        "place=village",
        "population=2354",
        "source=geodati.gfoss.it",
        "wikidata=Q243015",
        "wikimedia_commons=Category:Moricone",
        "wikipedia=it:Moricone"
      ],
      "score": 65
    },
    {
      "id": "node:72963022",
      "name": "Allumiere",
      "lat": 42.156218,
      "lon": 11.9038323,
      "type": "borghi",
      "visibility": "classica",
      "tags": [
        "gfoss_id=4915",
        "name=Allumiere",
        "place=village",
        "population=4187",
        "source=geodati.gfoss.it",
        "wikidata=Q241680",
        "wikimedia_commons=Category:Allumiere",
        "wikipedia=it:Allumiere"
      ],
      "score": 65
    },
    {
      "id": "node:72963034",
      "name": "Affile",
      "lat": 41.884122,
      "lon": 13.095391,
      "type": "borghi",
      "visibility": "classica",
      "tags": [
        "gfoss_id=4912",
        "name=Affile",
        "place=village",
        "population=1644",
        "source=geodati.gfoss.it",
        "wikidata=Q239180",
        "wikimedia_commons=Category:Affile",
        "wikipedia=it:Affile"
      ],
      "score": 65
    },
    {
      "id": "node:72963255",
      "name": "Sambuci",
      "lat": 41.986123,
      "lon": 12.937986,
      "type": "borghi",
      "visibility": "classica",
      "tags": [
        "gfoss_id=5005",
        "name=Sambuci",
        "place=village",
        "population=891",
        "source=geodati.gfoss.it",
        "wikidata=Q243324",
        "wikimedia_commons=Category:Sambuci",
        "wikipedia=it:Sambuci"
      ],
      "score": 65
    },
    {
      "id": "node:72963306",
      "name": "Sant'Angelo Romano",
      "lat": 42.035122,
      "lon": 12.712681,
      "type": "borghi",
      "visibility": "classica",
      "tags": [
        "gfoss_id=5009",
        "name=Sant'Angelo Romano",
        "place=village",
        "population=5018",
        "source=geodati.gfoss.it",
        "wikidata=Q243408",
        "wikimedia_commons=Category:Sant'Angelo Romano",
        "wikipedia=it:Sant'Angelo Romano"
      ],
      "score": 65
    },
    {
      "id": "node:72963399",
      "name": "Roiate",
      "lat": 41.872322,
      "lon": 13.067291,
      "type": "borghi",
      "visibility": "classica",
      "tags": [
        "gfoss_id=5001",
        "name=Roiate",
        "place=village",
        "population=798",
        "source=geodati.gfoss.it",
        "wikidata=Q243243",
        "wikimedia_commons=Category:Roiate",
        "wikipedia=it:Roiate"
      ],
      "score": 65
    },
    {
      "id": "node:72963411",
      "name": "San Polo dei Cavalieri",
      "lat": 42.0095334,
      "lon": 12.8384043,
      "type": "borghi",
      "visibility": "classica",
      "tags": [
        "gfoss_id=5007",
        "name=San Polo dei Cavalieri",
        "place=village",
        "population=2310",
        "source=geodati.gfoss.it",
        "wikidata=Q243371",
        "wikimedia_commons=Category:San Polo dei Cavalieri",
        "wikipedia=it:San Polo dei Cavalieri"
      ],
      "score": 65
    },
    {
      "id": "node:72963435",
      "name": "Sant'Oreste",
      "lat": 42.2347915,
      "lon": 12.518905,
      "type": "borghi",
      "visibility": "classica",
      "tags": [
        "gfoss_id=5010",
        "name=Sant'Oreste",
        "place=village",
        "population=3536",
        "source=geodati.gfoss.it",
        "wikidata=Q243416",
        "wikimedia_commons=Category:Sant'Oreste",
        "wikipedia=it:Sant'Oreste (Italia)"
      ],
      "score": 65
    },
    {
      "id": "node:72963623",
      "name": "Mandela",
      "lat": 42.0308068,
      "lon": 12.9233231,
      "type": "borghi",
      "visibility": "classica",
      "tags": [
        "gfoss_id=4964",
        "name=Mandela",
        "place=village",
        "population=771",
        "source=geodati.gfoss.it",
        "wikidata=Q242878",
        "wikimedia_commons=Category:Mandela (Italy)",
        "wikipedia=it:Mandela (Italia)"
      ],
      "score": 65
    },
    {
      "id": "node:72963646",
      "name": "Mazzano Romano",
      "lat": 42.2046516,
      "lon": 12.3996308,
      "type": "borghi",
      "visibility": "classica",
      "tags": [
        "capital=8",
        "gfoss_id=4969",
        "name=Mazzano Romano",
        "place=village",
        "population=2536",
        "population:source=geodati.gfoss.it",
        "wikidata=Q242935",
        "wikimedia_commons=Category:Mazzano Romano",
        "wikipedia=it:Mazzano Romano"
      ],
      "score": 65
    },
    {
      "id": "node:72963662",
      "name": "Montorio Romano",
      "lat": 42.1384107,
      "lon": 12.8074769,
      "type": "borghi",
      "visibility": "classica",
      "tags": [
        "gfoss_id=4977",
        "name=Montorio Romano",
        "place=village",
        "population=1829",
        "source=geodati.gfoss.it",
        "wikidata=Q243008",
        "wikimedia_commons=Category:Montorio Romano",
        "wikipedia=it:Montorio Romano"
      ],
      "score": 65
    },
    {
      "id": "node:72963718",
      "name": "Ronciglione",
      "lat": 42.2902415,
      "lon": 12.2138064,
      "type": "borghi",
      "visibility": "classica",
      "tags": [
        "gfoss_id=4823",
        "name=Ronciglione",
        "place=village",
        "population=8669",
        "source=geodati.gfoss.it",
        "wikidata=Q177695",
        "wikimedia_commons=Category:Ronciglione",
        "wikipedia=it:Ronciglione"
      ],
      "score": 65
    },