{"version":"1.0","updated":"2026-01-05","bbox":{"minLat":41.1,"maxLat":43.9,"minLon":12,"maxLon":15.35},"note":"IT-only places inside Abruzzo+neighbors bbox. Derived from places_index_eu_uk.json","count":534,"places":[{"id":"gn_3169070","name":"Rome","country":"IT","lat":41.89193,"lon":12.51133,"population":2318895,"type":"citta","visibility":"conosciuta","tags":[]},{"id":"gn_3183539","name":"Acilia-Castel Fusano-Ostia Antica","country":"IT","lat":41.76337,"lon":12.33078,"population":129362,"type":"citta","visibility":"chicca","tags":[]},{"id":"gn_3171180","name":"Perugia","country":"IT","lat":43.1122,"lon":12.38878,"population":120137,"type":"citta","visibility":"chicca","tags":[]},{"id":"gn_3171168","name":"Pescara","country":"IT","lat":42.4584,"lon":14.20283,"population":119554,"type":"citta","visibility":"chicca","tags":[]},{"id":"gn_3165771","name":"Terni","country":"IT","lat":42.56335,"lon":12.64329,"population":111189,"type":"citta","visibility":"chicca","tags":[]},{"id":"gn_3183089","name":"Ancona","country":"IT","lat":43.60717,"lon":13.5103,"population":89994,"type":"citta","visibility":"chicca","tags":[]},{"id":"gn_3174741","name":"Lido di Ostia","country":"IT","lat":41.73212,"lon":12.27654,"population":85301,"type":"citta","visibility":"chicca","tags":["mare","spiagge"]},{"id":"gn_3175058","name":"Latina","country":"IT","lat":41.46614,"lon":12.9043,"population":76305,"type":"citta","visibility":"chicca","tags":[]},{"id":"gn_3182957","name":"Aprilia","country":"IT","lat":41.59452,"lon":12.65419,"population":74977,"type":"citta","visibility":"chicca","tags":[]},{"id":"gn_6534228","name":"Guidonia Montecelio","country":"IT","lat":41.99362,"lon":12.72238,"population":67516,"type":"citta","visibility":"chicca","tags":[]},{"id":"gn_3177219","name":"Fano","country":"IT","lat":43.84052,"lon":13.01665,"population":60978,"type":"citta","visibility":"chicca","tags":[]},{"id":"gn_3182179","name":"Benevento","country":"IT","lat":41.1307,"lon":14.77816,"population":58418,"type":"citta","visibility":"chicca","tags":[]},{"id":"gn_3176854","name":"Foligno","country":"IT","lat":42.95488,"lon":12.70268,"population":56918,"type":"citta","visibility":"chicca","tags":[]},{"id":"gn_3165803","name":"Teramo","country":"IT","lat":42.66123,"lon":13.69901,"population":54338,"type":"citta","visibility":"chicca","tags":[]},{"id":"gn_3164630","name":"Velletri","country":"IT","lat":41.68573,"lon":12.77753,"population":52911,"type":"citta","visibility":"chicca","tags":[]},{"id":"gn_3172287","name":"Nettuno","country":"IT","lat":41.45794,"lon":12.66393,"population":49873,"type":"citta","visibility":"chicca","tags":[]},{"id":"gn_3180991","name":"Campobasso","country":"IT","lat":41.55947,"lon":14.66737,"population":49230,"type":"citta","visibility":"chicca","tags":[]},{"id":"gn_3164039","name":"Viterbo","country":"IT","lat":42.41937,"lon":12.1056,"population":47134,"type":"citta","visibility":"chicca","tags":[]},{"id":"gn_3172729","name":"Montesilvano Marina","country":"IT","lat":42.5114,"lon":14.14507,"population":45991,"type":"citta","visibility":"chicca","tags":["mare","spiagge"]},{"id":"gn_3168550","name":"San Benedetto del Tronto","country":"IT","lat":42.9568,"lon":13.87676,"population":45873,"type":"citta","visibility":"chicca","tags":[]},{"id":"gn_3183005","name":"Anzio","country":"IT","lat":41.45263,"lon":12.62157,"population":45403,"type":"citta","visibility":"chicca","tags":[]},{"id":"gn_3176515","name":"Frosinone","country":"IT","lat":41.63976,"lon":13.34109,"population":44505,"type":"citta","visibility":"chicca","tags":[]},{"id":"gn_3178796","name":"Chieti","country":"IT","lat":42.34827,"lon":14.16494,"population":44444,"type":"citta","visibility":"chicca","tags":[]},{"id":"gn_3173914","name":"Marino","country":"IT","lat":41.76984,"lon":12.65917,"population":44142,"type":"citta","visibility":"chicca","tags":[]},{"id":"gn_3170102","name":"Civitanova Marche","country":"IT","lat":43.30491,"lon":13.72068,"population":42251,"type":"citta","visibility":"chicca","tags":[]},{"id":"gn_3182749","name":"Ascoli Piceno","country":"IT","lat":42.85351,"lon":13.57395,"population":41741,"type":"citta","visibility":"chicca","tags":[]},{"id":"gn_3164672","name":"Vasto","country":"IT","lat":42.1115,"lon":14.70649,"population":41409,"type":"citta","visibility":"chicca","tags":[]},{"id":"gn_3176843","name":"Fondi","country":"IT","lat":41.35787,"lon":13.42718,"population":39762,"type":"citta","visibility":"chicca","tags":[]},{"id":"gn_3169412","name":"Rieti","country":"IT","lat":42.40476,"lon":12.85735,"population":39068,"type":"citta","visibility":"chicca","tags":[]},{"id":"gn_3178738","name":"Ciampino","country":"IT","lat":41.80064,"lon":12.60158,"population":38277,"type":"citta","visibility":"chicca","tags":[]},{"id":"gn_3182636","name":"Avezzano","country":"IT","lat":42.02896,"lon":13.42641,"population":37808,"type":"citta","visibility":"chicca","tags":[]},{"id":"gn_3172768","name":"Monterotondo","country":"IT","lat":42.05159,"lon":12.61969,"population":37225,"type":"citta","visibility":"chicca","tags":[]},{"id":"gn_3175628","name":"Jesi","country":"IT","lat":43.52142,"lon":13.24368,"population":36985,"type":"citta","visibility":"chicca","tags":[]},{"id":"gn_3175173","name":"Lanciano","country":"IT","lat":42.22718,"lon":14.39024,"population":34791,"type":"citta","visibility":"chicca","tags":[]},{"id":"gn_3176923","name":"Fiumicino","country":"IT","lat":41.77093,"lon":12.23662,"population":34556,"type":"citta","visibility":"chicca","tags":[]},{"id":"gn_3175298","name":"Ladispoli","country":"IT","lat":41.95068,"lon":12.075,"population":34204,"type":"citta","visibility":"chicca","tags":[]},{"id":"gn_3175121","name":"L'Aquila","country":"IT","lat":42.35055,"lon":13.39954,"population":33691,"type":"citta","visibility":"chicca","tags":[]},{"id":"gn_6698333","name":"Casal Palocco","country":"IT","lat":41.74845,"lon":12.34726,"population":32706,"type":"citta","visibility":"chicca","tags":[]},{"id":"gn_3174526","name":"Lucera","country":"IT","lat":41.5055,"lon":15.3391,"population":32222,"type":"citta","visibility":"chicca","tags":[]},{"id":"gn_3165773","name":"Termoli","country":"IT","lat":41.99994,"lon":14.99389,"population":31044,"type":"citta","visibility":"chicca","tags":[]},{"id":"gn_3165762","name":"Terracina","country":"IT","lat":41.29174,"lon":13.24359,"population":30980,"type":"citta","visibility":"chicca","tags":[]},{"id":"gn_3166740","name":"Senigallia","country":"IT","lat":43.71626,"lon":13.20882,"population":30882,"type":"citta","visibility":"chicca","tags":[]},{"id":"gn_3174380","name":"Macerata","country":"IT","lat":43.29789,"lon":13.45293,"population":30842,"type":"citta","visibility":"chicca","tags":[]},{"id":"gn_3173160","name":"Mondragone","country":"IT","lat":41.11399,"lon":13.89157,"population":28683,"type":"citta","visibility":"chicca","tags":[]},{"id":"gn_3176738","name":"Formia","country":"IT","lat":41.25632,"lon":13.60888,"population":28521,"type":"citta","visibility":"chicca","tags":[]},{"id":"gn_3178631","name":"Cisterna di Latina","country":"IT","lat":41.5908,"lon":12.82808,"population":27362,"type":"citta","visibility":"chicca","tags":[]},{"id":"gn_12188855","name":"Casal de' Pazzi","country":"IT","lat":41.92884,"lon":12.56582,"population":27206,"type":"citta","visibility":"chicca","tags":[]},{"id":"gn_3183356","name":"Albano Laziale","country":"IT","lat":41.72748,"lon":12.659,"population":26684,"type":"citta","visibility":"chicca","tags":[]},{"id":"gn_3177250","name":"Falconara Marittima","country":"IT","lat":43.62558,"lon":13.39954,"population":25948,"type":"citta","visibility":"chicca","tags":[]},{"id":"gn_11257324","name":"Spinaceto","country":"IT","lat":41.77861,"lon":12.44236,"population":24219,"type":"citta","visibility":"chicca","tags":[]},{"id":"gn_3166387","name":"Sora","country":"IT","lat":41.71829,"lon":13.61356,"population":23758,"type":"citta","visibility":"chicca","tags":[]},{"id":"gn_3177315","name":"Fabriano","country":"IT","lat":43.33941,"lon":12.90327,"population":23230,"type":"citta","visibility":"chicca","tags":[]},{"id":"gn_3178619","name":"Città di Castello","country":"IT","lat":43.46556,"lon":12.2375,"population":22497,"type":"citta","visibility":"chicca","tags":["storia"]},{"id":"gn_3170342","name":"Pomezia","country":"IT","lat":41.66931,"lon":12.50124,"population":22346,"type":"citta","visibility":"chicca","tags":[]},{"id":"gn_3170072","name":"Porto Sant'Elpidio","country":"IT","lat":43.25297,"lon":13.7597,"population":22233,"type":"citta","visibility":"chicca","tags":["mare","spiagge"]},{"id":"gn_3165624","name":"Tivoli","country":"IT","lat":41.95952,"lon":12.8016,"population":22018,"type":"citta","visibility":"chicca","tags":[]},{"id":"gn_3176605","name":"Francavilla al Mare","country":"IT","lat":42.42158,"lon":14.28217,"population":21095,"type":"citta","visibility":"chicca","tags":[]},{"id":"gn_3166034","name":"Sulmona","country":"IT","lat":42.04945,"lon":13.92578,"population":21086,"type":"citta","visibility":"chicca","tags":[]},{"id":"gn_3179781","name":"Cassino","country":"IT","lat":41.48581,"lon":13.82835,"population":21074,"type":"citta","visibility":"chicca","tags":[]},{"id":"gn_3175678","name":"Guidonia","country":"IT","lat":41.99232,"lon":12.71876,"population":20943,"type":"citta","visibility":"chicca","tags":[]},{"id":"gn_6534284","name":"Tor Lupara","country":"IT","lat":41.99771,"lon":12.61814,"population":20843,"type":"citta","visibility":"chicca","tags":[]},{"id":"gn_3178398","name":"Colleferro","country":"IT","lat":41.72722,"lon":13.00481,"population":20736,"type":"citta","visibility":"chicca","tags":[]},{"id":"gn_12188858","name":"Giardinetti-Tor Vergata","country":"IT","lat":41.85305,"lon":12.61853,"population":20680,"type":"citta","visibility":"chicca","tags":[]},{"id":"gn_3176203","name":"Genzano di Roma","country":"IT","lat":41.70706,"lon":12.68904,"population":20582,"type":"citta","visibility":"chicca","tags":[]},{"id":"gn_3176053","name":"Giulianova","country":"IT","lat":42.75381,"lon":13.9665,"population":20490,"type":"citta","visibility":"chicca","tags":[]},{"id":"gn_8394392","name":"Marina di Ardea-Tor San Lorenzo","country":"IT","lat":41.55439,"lon":12.54115,"population":20216,"type":"citta","visibility":"chicca","tags":["mare","spiagge"]},{"id":"gn_3176589","name":"Frascati","country":"IT","lat":41.8091,"lon":12.67942,"population":20036,"type":"citta","visibility":"chicca","tags":[]},{"id":"gn_3176438","name":"Gaeta","country":"IT","lat":41.21408,"lon":13.57082,"population":19936,"type":"citta","visibility":"chicca","tags":[]},{"id":"gn_3166236","name":"Spoleto","country":"IT","lat":42.74071,"lon":12.73899,"population":19266,"type":"citta","visibility":"chicca","tags":[]},{"id":"gn_3175775","name":"Grottaferrata","country":"IT","lat":41.78664,"lon":12.67144,"population":18144,"type":"citta","visibility":"chicca","tags":[]},{"id":"gn_3177099","name":"Fermo","country":"IT","lat":43.16296,"lon":13.72274,"population":18109,"type":"citta","visibility":"chicca","tags":[]},{"id":"gn_3182289","name":"Bastia umbra","country":"IT","lat":43.06425,"lon":12.54612,"population":17831,"type":"citta","visibility":"chicca","tags":[]},{"id":"gn_3182851","name":"Ariccia","country":"IT","lat":41.72063,"lon":12.6723,"population":17487,"type":"citta","visibility":"chicca","tags":[]},{"id":"gn_6620312","name":"Torvaianica","country":"IT","lat":41.62112,"lon":12.46197,"population":17235,"type":"citta","visibility":"chicca","tags":[]},{"id":"gn_3167751","name":"San Salvo","country":"IT","lat":42.04413,"lon":14.73335,"population":17123,"type":"citta","visibility":"chicca","tags":[]},{"id":"gn_3182897","name":"Ardea","country":"IT","lat":41.60742,"lon":12.54158,"population":17078,"type":"citta","visibility":"chicca","tags":[]},{"id":"gn_3173582","name":"Mentana","country":"IT","lat":42.03539,"lon":12.64413,"population":17047,"type":"citta","visibility":"chicca","tags":[]},{"id":"gn_3165435","name":"Torremaggiore","country":"IT","lat":41.68894,"lon":15.29408,"population":16955,"type":"citta","visibility":"chicca","tags":[]},{"id":"gn_3175445","name":"Isernia","country":"IT","lat":41.59603,"lon":14.23399,"population":16945,"type":"citta","visibility":"chicca","tags":[]},{"id":"gn_3171848","name":"Osimo","country":"IT","lat":43.48539,"lon":13.48222,"population":16610,"type":"citta","visibility":"chicca","tags":[]},{"id":"gn_3168936","name":"Roseto degli Abruzzi","country":"IT","lat":42.67164,"lon":14.01481,"population":16538,"type":"citta","visibility":"chicca","tags":[]},{"id":"gn_3165595","name":"Tolentino","country":"IT","lat":43.20918,"lon":13.28524,"population":16504,"type":"citta","visibility":"chicca","tags":[]},{"id":"gn_12188859","name":"Casal Bertone","country":"IT","lat":41.89821,"lon":12.53413,"population":16273,"type":"citta","visibility":"chicca","tags":[]},{"id":"gn_3173391","name":"Minturno","country":"IT","lat":41.26294,"lon":13.74583,"population":16236,"type":"citta","visibility":"chicca","tags":[]},{"id":"gn_3166571","name":"Sezze","country":"IT","lat":41.50032,"lon":13.06176,"population":16071,"type":"citta","visibility":"chicca","tags":[]},{"id":"gn_3178999","name":"Cerveteri","country":"IT","lat":41.9908,"lon":12.09082,"population":15883,"type":"citta","visibility":"chicca","tags":[]},{"id":"gn_3170073","name":"Porto San Giorgio","country":"IT","lat":43.17784,"lon":13.79411,"population":15558,"type":"citta","visibility":"chicca","tags":["mare","spiagge"]},{"id":"gn_3180601","name":"Capua","country":"IT","lat":41.10519,"lon":14.21269,"population":15438,"type":"citta","visibility":"chicca","tags":[]},{"id":"gn_8378910","name":"Villanova","country":"IT","lat":41.96357,"lon":12.75633,"population":15117,"type":"citta","visibility":"chicca","tags":[]},{"id":"gn_3169181","name":"Rocca di Papa","country":"IT","lat":41.7658,"lon":12.70188,"population":15036,"type":"citta","visibility":"chicca","tags":[]},{"id":"gn_3171606","name":"Palestrina","country":"IT","lat":41.83274,"lon":12.88178,"population":14925,"type":"citta","visibility":"chicca","tags":[]},{"id":"gn_3179697","name":"Castelfidardo","country":"IT","lat":43.45916,"lon":13.55044,"population":14892,"type":"citta","visibility":"chicca","tags":[]},{"id":"gn_3179243","name":"Ceccano","country":"IT","lat":41.57236,"lon":13.32901,"population":14805,"type":"citta","visibility":"chicca","tags":[]},{"id":"gn_3175771","name":"Grottammare","country":"IT","lat":42.98182,"lon":13.86765,"population":14572,"type":"citta","visibility":"chicca","tags":[]},{"id":"gn_3175687","name":"Gubbio","country":"IT","lat":43.34996,"lon":12.57309,"population":14378,"type":"citta","visibility":"chicca","tags":[]},{"id":"gn_3169540","name":"Recanati","country":"IT","lat":43.40381,"lon":13.55379,"population":14337,"type":"citta","visibility":"chicca","tags":[]},{"id":"gn_3183061","name":"Anguillara Sabazia","country":"IT","lat":42.0792,"lon":12.28368,"population":14121,"type":"citta","visibility":"chicca","tags":[]},{"id":"gn_3178855","name":"Chiaravalle","country":"IT","lat":43.60114,"lon":13.32511,"population":13465,"type":"citta","visibility":"chicca","tags":[]},{"id":"gn_3171886","name":"Ortona","country":"IT","lat":42.35087,"lon":14.40342,"population":13327,"type":"citta","visibility":"chicca","tags":[]},{"id":"gn_3164778","name":"Valmontone","country":"IT","lat":41.77323,"lon":12.91856,"population":13001,"type":"citta","visibility":"chicca","tags":[]},{"id":"gn_3175106","name":"Lariano","country":"IT","lat":41.71847,"lon":12.82868,"population":12893,"type":"citta","visibility":"chicca","tags":[]},{"id":"gn_3166520","name":"Silvi","country":"IT","lat":42.54984,"lon":14.11759,"population":12551,"type":"citta","visibility":"chicca","tags":[]},{"id":"gn_3177102","name":"Ferentino","country":"IT","lat":41.69119,"lon":13.2562,"population":12539,"type":"citta","visibility":"chicca","tags":[]},{"id":"gn_3181628","name":"Bracciano","country":"IT","lat":42.10271,"lon":12.16565,"population":12459,"type":"citta","visibility":"chicca","tags":[]},{"id":"gn_3167736","name":"Sansepolcro","country":"IT","lat":43.57258,"lon":12.13858,"population":12364,"type":"citta","visibility":"chicca","tags":[]},{"id":"gn_7506720","name":"Villa Adriana","country":"IT","lat":41.95499,"lon":12.77216,"population":12008,"type":"citta","visibility":"chicca","tags":[]},{"id":"gn_3178595","name":"Civita Castellana","country":"IT","lat":42.29304,"lon":12.40885,"population":11745,"type":"citta","visibility":"chicca","tags":["storia"]},{"id":"gn_3163932","name":"Zagarolo","country":"IT","lat":41.84159,"lon":12.8154,"population":11509,"type":"citta","visibility":"chicca","tags":[]},{"id":"gn_3172896","name":"Montegranaro","country":"IT","lat":43.23099,"lon":13.63047,"population":11493,"type":"citta","visibility":"chicca","tags":[]},{"id":"gn_3177046","name":"Fiano Romano","country":"IT","lat":42.15538,"lon":12.59467,"population":11417,"type":"citta","visibility":"chicca","tags":[]},{"id":"gn_12188856","name":"Tor Tre Teste","country":"IT","lat":41.88233,"lon":12.58518,"population":11417,"type":"citta","visibility":"chicca","tags":[]},{"id":"gn_3164472","name":"Vetralla","country":"IT","lat":42.31787,"lon":12.07323,"population":11231,"type":"citta","visibility":"chicca","tags":[]},{"id":"gn_6534279","name":"Piedimonte Matese","country":"IT","lat":41.35082,"lon":14.36803,"population":11220,"type":"citta","visibility":"chicca","tags":[]},{"id":"gn_6534273","name":"Alba Adriatica","country":"IT","lat":42.83176,"lon":13.9259,"population":11165,"type":"citta","visibility":"chicca","tags":[]},{"id":"gn_8948733","name":"La Massimina-Casal Lumbroso","country":"IT","lat":41.87332,"lon":12.35694,"population":11112,"type":"citta","visibility":"chicca","tags":[]},{"id":"gn_3165052","name":"Umbertide","country":"IT","lat":43.30341,"lon":12.33749,"population":11040,"type":"citta","visibility":"chicca","tags":[]},{"id":"gn_3175427","name":"Isola del Liri","country":"IT","lat":41.68678,"lon":13.59679,"population":10805,"type":"citta","visibility":"chicca","tags":[]},{"id":"gn_3182778","name":"Artena","country":"IT","lat":41.74126,"lon":12.90667,"population":10805,"type":"citta","visibility":"chicca","tags":[]},{"id":"gn_3172931","name":"Montefiascone","country":"IT","lat":42.54255,"lon":12.03192,"population":10637,"type":"citta","visibility":"chicca","tags":[]},{"id":"gn_8948749","name":"Chiugiana-La Commenda","country":"IT","lat":43.09823,"lon":12.30818,"population":10604,"type":"citta","visibility":"chicca","tags":[]},{"id":"gn_3168485","name":"San Cesareo","country":"IT","lat":41.82113,"lon":12.80447,"population":10529,"type":"citta","visibility":"chicca","tags":[]},{"id":"gn_3173833","name":"Martinsicuro","country":"IT","lat":42.88031,"lon":13.91326,"population":10317,"type":"citta","visibility":"chicca","tags":[]},{"id":"gn_3170075","name":"Porto Recanati","country":"IT","lat":43.43296,"lon":13.66165,"population":10308,"type":"citta","visibility":"chicca","tags":["mare","spiagge"]},{"id":"gn_3183365","name":"Alatri","country":"IT","lat":41.73187,"lon":13.3412,"population":10308,"type":"citta","visibility":"chicca","tags":[]},{"id":"gn_3169811","name":"Priverno","country":"IT","lat":41.47047,"lon":13.17867,"population":10005,"type":"citta","visibility":"chicca","tags":[]},{"id":"gn_7302105","name":"Lavinio","country":"IT","lat":41.5035,"lon":12.58973,"population":10000,"type":"citta","visibility":"chicca","tags":[]},{"id":"gn_3179216","name":"Celano","country":"IT","lat":42.08077,"lon":13.517,"population":9966,"type":"citta","visibility":"chicca","tags":[]},{"id":"gn_3182854","name":"Ariano Irpino-Martiri","country":"IT","lat":41.16024,"lon":15.10625,"population":9779,"type":"citta","visibility":"chicca","tags":[]},{"id":"gn_3175722","name":"Gualdo Tadino","country":"IT","lat":43.22941,"lon":12.77862,"population":9748,"type":"citta","visibility":"chicca","tags":[]},{"id":"gn_3173870","name":"Marsciano","country":"IT","lat":42.92093,"lon":12.35066,"population":9631,"type":"citta","visibility":"chicca","tags":[]},{"id":"gn_8378897","name":"Sambuceto","country":"IT","lat":42.42168,"lon":14.18747,"population":9596,"type":"citta","visibility":"chicca","tags":[]},{"id":"gn_3182533","name":"Bagni di Tivoli","country":"IT","lat":41.95,"lon":12.71667,"population":9418,"type":"citta","visibility":"chicca","tags":[]},{"id":"gn_3164621","name":"Venafro","country":"IT","lat":41.48275,"lon":14.04773,"population":9384,"type":"citta","visibility":"chicca","tags":[]},{"id":"gn_3176946","name":"Fiuggi","country":"IT","lat":41.7978,"lon":13.22386,"population":9325,"type":"citta","visibility":"chicca","tags":[]},{"id":"gn_3183098","name":"Anagni","country":"IT","lat":41.7435,"lon":13.15542,"population":9206,"type":"citta","visibility":"chicca","tags":[]},{"id":"gn_3179241","name":"Cecchina","country":"IT","lat":41.70161,"lon":12.64972,"population":9141,"type":"citta","visibility":"chicca","tags":[]},{"id":"gn_3169149","name":"Rocca Priora","country":"IT","lat":41.76585,"lon":12.76577,"population":9034,"type":"citta","visibility":"chicca","tags":[]},{"id":"gn_3173722","name":"Matelica","country":"IT","lat":43.25788,"lon":13.0075,"population":8891,"type":"citta","visibility":"chicca","tags":[]},{"id":"gn_8394394","name":"Villalba","country":"IT","lat":41.95387,"lon":12.72938,"population":8831,"type":"citta","visibility":"chicca","tags":[]},{"id":"gn_3168764","name":"Sabaudia","country":"IT","lat":41.30025,"lon":13.02815,"population":8743,"type":"citta","visibility":"chicca","tags":[]},{"id":"gn_3167732","name":"San Severino Marche","country":"IT","lat":43.23028,"lon":13.1799,"population":8655,"type":"citta","visibility":"chicca","tags":[]},{"id":"gn_3178014","name":"Corridonia","country":"IT","lat":43.24677,"lon":13.5069,"population":8626,"type":"citta","visibility":"chicca","tags":[]},{"id":"gn_8468835","name":"Centobuchi","country":"IT","lat":42.89521,"lon":13.84809,"population":8384,"type":"citta","visibility":"chicca","tags":[]},{"id":"gn_3175392","name":"Itri","country":"IT","lat":41.29034,"lon":13.53,"population":8360,"type":"citta","visibility":"chicca","tags":[]},{"id":"gn_3179288","name":"Cave","country":"IT","lat":41.81682,"lon":12.94055,"population":8210,"type":"citta","visibility":"chicca","tags":[]},{"id":"gn_3170286","name":"Pontecorvo","country":"IT","lat":41.45861,"lon":13.66618,"population":7994,"type":"borgo","visibility":"chicca","tags":[]},{"id":"gn_3167347","name":"Sant'Egidio alla Vibrata","country":"IT","lat":42.81705,"lon":13.72164,"population":7753,"type":"borgo","visibility":"chicca","tags":[]},{"id":"gn_8948754","name":"Piattoni-Villa Sant'Antonio","country":"IT","lat":42.8663,"lon":13.7112,"population":7733,"type":"borgo","visibility":"chicca","tags":[]},{"id":"gn_6693938","name":"Marina di Cerveteri","country":"IT","lat":41.97997,"lon":12.05295,"population":7720,"type":"borgo","visibility":"chicca","tags":["mare","spiagge"]},{"id":"gn_3167559","name":"Santa Maria degli Angeli","country":"IT","lat":43.05691,"lon":12.57497,"population":7719,"type":"borgo","visibility":"chicca","tags":[]},{"id":"gn_3170076","name":"Porto Potenza Picena","country":"IT","lat":43.35751,"lon":13.69746,"population":7596,"type":"borgo","visibility":"chicca","tags":["mare","spiagge"]},{"id":"gn_3177100","name":"Fermignano","country":"IT","lat":43.69311,"lon":12.65437,"population":7309,"type":"borgo","visibility":"chicca","tags":[]},{"id":"gn_6534675","name":"Castel di Lama","country":"IT","lat":42.86435,"lon":13.71929,"population":7216,"type":"borgo","visibility":"chicca","tags":[]},{"id":"gn_3174567","name":"Loreto","country":"IT","lat":43.43617,"lon":13.61232,"population":7212,"type":"borgo","visibility":"chicca","tags":[]},{"id":"gn_3169012","name":"Ronciglione","country":"IT","lat":42.28899,"lon":12.21479,"population":7211,"type":"borgo","visibility":"chicca","tags":[]},{"id":"gn_3181061","name":"Campagnano di Roma","country":"IT","lat":42.1357,"lon":12.37358,"population":7179,"type":"borgo","visibility":"chicca","tags":[]},{"id":"gn_3166301","name":"Sparanise","country":"IT","lat":41.18788,"lon":14.09628,"population":7175,"type":"borgo","visibility":"chicca","tags":[]},{"id":"gn_8616976","name":"Santa Lucia","country":"IT","lat":41.9824,"lon":12.65625,"population":7053,"type":"borgo","visibility":"chicca","tags":[]},{"id":"gn_3169908","name":"Pratola Peligna","country":"IT","lat":42.09701,"lon":13.87467,"population":7043,"type":"borgo","visibility":"chicca","tags":[]},{"id":"gn_8426434","name":"Latina Scalo","country":"IT","lat":41.53157,"lon":12.94567,"population":6883,"type":"borgo","visibility":"chicca","tags":[]},{"id":"gn_8410825","name":"Marco Simone","country":"IT","lat":41.95544,"lon":12.64775,"population":6839,"type":"borgo","visibility":"chicca","tags":[]},{"id":"gn_3169395","name":"Rignano Flaminio","country":"IT","lat":42.2055,"lon":12.48068,"population":6822,"type":"borgo","visibility":"chicca","tags":[]},{"id":"gn_3172797","name":"Monte Porzio Catone","country":"IT","lat":41.81585,"lon":12.71432,"population":6821,"type":"borgo","visibility":"chicca","tags":[]},{"id":"gn_3176630","name":"Fossombrone","country":"IT","lat":43.69017,"lon":12.81173,"population":6808,"type":"borgo","visibility":"chicca","tags":[]},{"id":"gn_3169443","name":"Riano","country":"IT","lat":42.09347,"lon":12.51462,"population":6784,"type":"borgo","visibility":"chicca","tags":[]},{"id":"gn_8948759","name":"Selcetta","country":"IT","lat":41.76529,"lon":12.47533,"population":6772,"type":"borgo","visibility":"chicca","tags":[]},{"id":"gn_3176544","name":"Fregene","country":"IT","lat":41.85051,"lon":12.19671,"population":6727,"type":"borgo","visibility":"chicca","tags":[]},{"id":"gn_3166813","name":"Segni","country":"IT","lat":41.68893,"lon":13.01934,"population":6713,"type":"borgo","visibility":"chicca","tags":[]},{"id":"gn_3165141","name":"Troia","country":"IT","lat":41.36428,"lon":15.3173,"population":6614,"type":"borgo","visibility":"chicca","tags":[]},{"id":"gn_3164024","name":"Vitulazio","country":"IT","lat":41.16302,"lon":14.21341,"population":6550,"type":"borgo","visibility":"chicca","tags":[]},{"id":"gn_3178974","name":"Cesano","country":"IT","lat":42.07375,"lon":12.33711,"population":6549,"type":"borgo","visibility":"chicca","tags":[]},{"id":"gn_3172720","name":"Monte Urano","country":"IT","lat":43.19039,"lon":13.6618,"population":6527,"type":"borgo","visibility":"chicca","tags":[]},{"id":"gn_3168393","name":"San Felice Circeo","country":"IT","lat":41.23716,"lon":13.09416,"population":6497,"type":"borgo","visibility":"chicca","tags":[]},{"id":"gn_3175156","name":"Lanuvio","country":"IT","lat":41.67297,"lon":12.69403,"population":6467,"type":"borgo","visibility":"chicca","tags":[]},{"id":"gn_3173877","name":"Marotta","country":"IT","lat":43.76397,"lon":13.14772,"population":6465,"type":"borgo","visibility":"chicca","tags":[]},{"id":"gn_3172586","name":"Morlupo","country":"IT","lat":42.15002,"lon":12.50306,"population":6424,"type":"borgo","visibility":"chicca","tags":[]},{"id":"gn_3170196","name":"Pontinia","country":"IT","lat":41.41097,"lon":13.04259,"population":6407,"type":"borgo","visibility":"chicca","tags":[]},{"id":"gn_3174006","name":"Marcellina","country":"IT","lat":42.02436,"lon":12.80445,"population":6406,"type":"borgo","visibility":"chicca","tags":[]},{"id":"gn_3174915","name":"Le Grazie di Ancona","country":"IT","lat":43.60081,"lon":13.51529,"population":6385,"type":"borgo","visibility":"chicca","tags":[]},{"id":"gn_3178099","name":"Cori","country":"IT","lat":41.64358,"lon":12.91121,"population":6376,"type":"borgo","visibility":"chicca","tags":[]},{"id":"gn_3174273","name":"Magione","country":"IT","lat":43.14179,"lon":12.21169,"population":6363,"type":"borgo","visibility":"chicca","tags":[]},{"id":"gn_3172756","name":"Monte San Giusto","country":"IT","lat":43.23565,"lon":13.59316,"population":6213,"type":"borgo","visibility":"chicca","tags":[]},{"id":"gn_6589958","name":"Tortoreto Lido","country":"IT","lat":42.79956,"lon":13.94205,"population":6203,"type":"borgo","visibility":"chicca","tags":["mare","spiagge"]},{"id":"gn_3172322","name":"Nepi","country":"IT","lat":42.24221,"lon":12.34355,"population":6186,"type":"borgo","visibility":"chicca","tags":[]},{"id":"gn_6694861","name":"Ara Nova","country":"IT","lat":41.933,"lon":12.2398,"population":6158,"type":"borgo","visibility":"chicca","tags":[]},{"id":"gn_3174508","name":"Lucrezia","country":"IT","lat":43.7731,"lon":12.93995,"population":6154,"type":"borgo","visibility":"chicca","tags":[]},{"id":"gn_3165314","name":"Trasacco","country":"IT","lat":41.95742,"lon":13.5327,"population":6144,"type":"borgo","visibility":"chicca","tags":[]},{"id":"gn_3174043","name":"Manziana","country":"IT","lat":42.12998,"lon":12.12537,"population":6125,"type":"borgo","visibility":"chicca","tags":[]},{"id":"gn_9036385","name":"Ponte Sasso","country":"IT","lat":43.79893,"lon":13.09452,"population":6060,"type":"borgo","visibility":"chicca","tags":[]},{"id":"gn_3171558","name":"Palombara Sabina","country":"IT","lat":42.06909,"lon":12.76684,"population":6044,"type":"borgo","visibility":"chicca","tags":[]},{"id":"gn_3179561","name":"Castel Madama","country":"IT","lat":41.9735,"lon":12.86782,"population":6037,"type":"borgo","visibility":"chicca","tags":[]},{"id":"gn_3166052","name":"Subiaco","country":"IT","lat":41.92619,"lon":13.08906,"population":6025,"type":"borgo","visibility":"chicca","tags":[]},{"id":"gn_3181939","name":"Bojano","country":"IT","lat":41.4853,"lon":14.47075,"population":6014,"type":"borgo","visibility":"chicca","tags":[]},{"id":"gn_3171247","name":"Penne","country":"IT","lat":42.45474,"lon":13.92754,"population":5985,"type":"borgo","visibility":"chicca","tags":[]},{"id":"gn_3167888","name":"San Paolo di Civitate","country":"IT","lat":41.73893,"lon":15.2608,"population":5898,"type":"borgo","visibility":"chicca","tags":[]},{"id":"gn_3179703","name":"Castel di Sangro","country":"IT","lat":41.78392,"lon":14.10653,"population":5891,"type":"borgo","visibility":"chicca","tags":[]},{"id":"gn_3165035","name":"Urbino","country":"IT","lat":43.72621,"lon":12.63633,"population":5858,"type":"borgo","visibility":"chicca","tags":[]},{"id":"gn_6535740","name":"Zuni","country":"IT","lat":41.21722,"lon":14.13082,"population":5856,"type":"borgo","visibility":"chicca","tags":[]},{"id":"gn_3182697","name":"Atri","country":"IT","lat":42.57642,"lon":13.98899,"population":5854,"type":"borgo","visibility":"chicca","tags":[]},{"id":"gn_3172969","name":"Monte Compatri","country":"IT","lat":41.80892,"lon":12.73778,"population":5821,"type":"borgo","visibility":"chicca","tags":[]},{"id":"gn_6698334","name":"Vitinia","country":"IT","lat":41.79124,"lon":12.4081,"population":5799,"type":"borgo","visibility":"chicca","tags":[]},{"id":"gn_3178116","name":"Corcolle","country":"IT","lat":41.90421,"lon":12.73654,"population":5788,"type":"borgo","visibility":"chicca","tags":[]},{"id":"gn_3170718","name":"Pignataro Maggiore","country":"IT","lat":41.19006,"lon":14.16978,"population":5783,"type":"borgo","visibility":"chicca","tags":[]},{"id":"gn_3179188","name":"Cellole","country":"IT","lat":41.20338,"lon":13.85332,"population":5765,"type":"borgo","visibility":"chicca","tags":[]},{"id":"gn_3171603","name":"Paliano","country":"IT","lat":41.77975,"lon":13.07661,"population":5748,"type":"borgo","visibility":"chicca","tags":[]},{"id":"gn_3179141","name":"Ceprano","country":"IT","lat":41.54572,"lon":13.51473,"population":5740,"type":"borgo","visibility":"chicca","tags":[]},{"id":"gn_3174510","name":"Luco dei Marsi","country":"IT","lat":41.95925,"lon":13.47349,"population":5675,"type":"borgo","visibility":"chicca","tags":[]},{"id":"gn_3176988","name":"Filottrano","country":"IT","lat":43.43553,"lon":13.35141,"population":5637,"type":"borgo","visibility":"chicca","tags":[]},{"id":"gn_3165612","name":"Todi","country":"IT","lat":42.77881,"lon":12.41202,"population":5620,"type":"borgo","visibility":"chicca","tags":[]},{"id":"gn_3172074","name":"Olevano Romano","country":"IT","lat":41.85869,"lon":13.03601,"population":5614,"type":"borgo","visibility":"chicca","tags":[]},{"id":"gn_3166357","name":"Soriano nel Cimino","country":"IT","lat":42.4182,"lon":12.23414,"population":5553,"type":"borgo","visibility":"chicca","tags":[]},{"id":"gn_3180725","name":"Capena","country":"IT","lat":42.14247,"lon":12.54513,"population":5542,"type":"borgo","visibility":"chicca","tags":[]},{"id":"gn_3183113","name":"Amelia","country":"IT","lat":42.55177,"lon":12.42076,"population":5537,"type":"borgo","visibility":"chicca","tags":[]},{"id":"gn_3172821","name":"Montenero di Bisaccia","country":"IT","lat":41.96437,"lon":14.78103,"population":5508,"type":"borgo","visibility":"chicca","tags":[]},{"id":"gn_3165038","name":"Urbania","country":"IT","lat":43.66832,"lon":12.52093,"population":5499,"type":"borgo","visibility":"chicca","tags":[]},{"id":"gn_9036386","name":"Calvi Risorta","country":"IT","lat":41.21598,"lon":14.13092,"population":5499,"type":"borgo","visibility":"chicca","tags":[]},{"id":"gn_3171874","name":"Orvieto","country":"IT","lat":42.71924,"lon":12.11249,"population":5440,"type":"borgo","visibility":"chicca","tags":[]},{"id":"gn_3170175","name":"Popoli","country":"IT","lat":42.16866,"lon":13.82997,"population":5394,"type":"borgo","visibility":"chicca","tags":[]},{"id":"gn_3181102","name":"Camerano","country":"IT","lat":43.52774,"lon":13.55257,"population":5368,"type":"borgo","visibility":"chicca","tags":[]},{"id":"gn_3167333","name":"Sant'Elpidio a Mare","country":"IT","lat":43.23024,"lon":13.68819,"population":5365,"type":"borgo","visibility":"chicca","tags":[]},{"id":"gn_3179419","name":"Castiglione del Lago","country":"IT","lat":43.12457,"lon":12.03982,"population":5344,"type":"borgo","visibility":"chicca","tags":["natura"]},{"id":"gn_3172377","name":"Narni","country":"IT","lat":42.51956,"lon":12.52758,"population":5279,"type":"borgo","visibility":"chicca","tags":[]},{"id":"gn_3180644","name":"Capranica","country":"IT","lat":42.25849,"lon":12.17278,"population":5271,"type":"borgo","visibility":"chicca","tags":[]},{"id":"gn_3166614","name":"Sessa Aurunca","country":"IT","lat":41.23987,"lon":13.92966,"population":5269,"type":"borgo","visibility":"chicca","tags":[]},{"id":"gn_3181222","name":"Calcinelli","country":"IT","lat":43.75398,"lon":12.91959,"population":5198,"type":"borgo","visibility":"chicca","tags":[]},{"id":"gn_3175105","name":"Larino","country":"IT","lat":41.80449,"lon":14.91843,"population":5164,"type":"borgo","visibility":"chicca","tags":[]},{"id":"gn_3165856","name":"Teano","country":"IT","lat":41.25132,"lon":14.06652,"population":5154,"type":"borgo","visibility":"chicca","tags":[]},{"id":"gn_3176739","name":"Formello","country":"IT","lat":42.06246,"lon":12.39435,"population":5143,"type":"borgo","visibility":"chicca","tags":[]},{"id":"gn_3165842","name":"Telese Terme","country":"IT","lat":41.21752,"lon":14.52681,"population":5120,"type":"borgo","visibility":"chicca","tags":[]},{"id":"gn_3177314","name":"Fabrica di Roma","country":"IT","lat":42.33444,"lon":12.29873,"population":5108,"type":"borgo","visibility":"chicca","tags":[]},{"id":"gn_3172646","name":"Montorio al Vomano","country":"IT","lat":42.58123,"lon":13.63715,"population":5107,"type":"borgo","visibility":"chicca","tags":[]},{"id":"gn_3170692","name":"Pineto","country":"IT","lat":42.60879,"lon":14.06639,"population":5096,"type":"borgo","visibility":"chicca","tags":[]},{"id":"gn_3181277","name":"Cagli","country":"IT","lat":43.54771,"lon":12.65229,"population":5094,"type":"borgo","visibility":"chicca","tags":[]},{"id":"gn_8948781","name":"San Nicolò a Tordino","country":"IT","lat":42.69648,"lon":13.79708,"population":5092,"type":"borgo","visibility":"chicca","tags":[]},{"id":"gn_8449950","name":"Villa Pigna","country":"IT","lat":42.83324,"lon":13.63446,"population":5077,"type":"borgo","visibility":"chicca","tags":[]},{"id":"gn_8948782","name":"Villa Raspa","country":"IT","lat":42.45542,"lon":14.18457,"population":5059,"type":"borgo","visibility":"chicca","tags":[]},{"id":"gn_3165685","name":"Tecchiena","country":"IT","lat":41.68822,"lon":13.34538,"population":5044,"type":"borgo","visibility":"chicca","tags":[]},{"id":"gn_3180247","name":"Casalbordino-Miracoli","country":"IT","lat":42.15354,"lon":14.59912,"population":5028,"type":"borgo","visibility":"chicca","tags":[]},{"id":"gn_3172376","name":"Narni Scalo","country":"IT","lat":42.5362,"lon":12.5168,"population":5010,"type":"borgo","visibility":"chicca","tags":[]},{"id":"gn_8394121","name":"Ponte Felcino","country":"IT","lat":43.13049,"lon":12.44914,"population":5000,"type":"borgo","visibility":"chicca","tags":[]},{"id":"gn_3173308","name":"Moie","country":"IT","lat":43.50366,"lon":13.13275,"population":4985,"type":"borgo","visibility":"chicca","tags":[]},{"id":"gn_3173930","name":"Marina di Montemarciano","country":"IT","lat":43.65063,"lon":13.3364,"population":4976,"type":"borgo","visibility":"chicca","tags":["mare","spiagge"]},{"id":"gn_3165209","name":"Trevi","country":"IT","lat":42.87769,"lon":12.74938,"population":4906,"type":"borgo","visibility":"chicca","tags":[]},{"id":"gn_3168207","name":"San Giustino","country":"IT","lat":43.5466,"lon":12.17528,"population":4862,"type":"borgo","visibility":"chicca","tags":[]},{"id":"gn_8948785","name":"Setteville","country":"IT","lat":41.94375,"lon":12.65122,"population":4851,"type":"borgo","visibility":"chicca","tags":[]},{"id":"gn_8948786","name":"Pagliare","country":"IT","lat":42.86906,"lon":13.76906,"population":4847,"type":"borgo","visibility":"chicca","tags":[]},{"id":"gn_3175680","name":"Guglionesi","country":"IT","lat":41.92093,"lon":14.916,"population":4844,"type":"borgo","visibility":"chicca","tags":[]},{"id":"gn_3175224","name":"Selci-Lama","country":"IT","lat":43.51719,"lon":12.21293,"population":4837,"type":"borgo","visibility":"chicca","tags":[]},{"id":"gn_3180712","name":"Capistrello","country":"IT","lat":41.97223,"lon":13.39616,"population":4795,"type":"borgo","visibility":"chicca","tags":[]},{"id":"gn_3175709","name":"Guardiagrele","country":"IT","lat":42.19406,"lon":14.21939,"population":4789,"type":"borgo","visibility":"chicca","tags":[]},{"id":"gn_8948790","name":"Colle Verde","country":"IT","lat":41.97694,"lon":12.61855,"population":4777,"type":"borgo","visibility":"chicca","tags":[]},{"id":"gn_3171361","name":"Pavona","country":"IT","lat":41.72629,"lon":12.61642,"population":4766,"type":"borgo","visibility":"chicca","tags":[]},{"id":"gn_3182213","name":"Bellona","country":"IT","lat":41.16052,"lon":14.23313,"population":4727,"type":"borgo","visibility":"chicca","tags":[]},{"id":"gn_3167660","name":"Santa Croce di Magliano","country":"IT","lat":41.71223,"lon":14.98732,"population":4683,"type":"borgo","visibility":"chicca","tags":[]},{"id":"gn_8948791","name":"San Martino Bassa","country":"IT","lat":42.51827,"lon":14.13045,"population":4678,"type":"borgo","visibility":"chicca","tags":[]},{"id":"gn_3175703","name":"Guardia Sanframondi","country":"IT","lat":41.2564,"lon":14.59851,"population":4671,"type":"borgo","visibility":"chicca","tags":[]},{"id":"gn_3165991","name":"Tagliacozzo","country":"IT","lat":42.06933,"lon":13.25469,"population":4637,"type":"borgo","visibility":"chicca","tags":[]},{"id":"gn_3176230","name":"Genazzano","country":"IT","lat":41.82807,"lon":12.97196,"population":4599,"type":"borgo","visibility":"chicca","tags":[]},{"id":"gn_8687794","name":"Montignano","country":"IT","lat":43.66694,"lon":13.28727,"population":4590,"type":"borgo","visibility":"chicca","tags":[]},{"id":"gn_8948793","name":"Ciconia","country":"IT","lat":42.73356,"lon":12.134,"population":4540,"type":"borgo","visibility":"chicca","tags":[]},{"id":"gn_3180945","name":"Campomarino","country":"IT","lat":41.95692,"lon":15.03546,"population":4538,"type":"borgo","visibility":"chicca","tags":[]},{"id":"gn_3180431","name":"Carpineto Romano","country":"IT","lat":41.6047,"lon":13.0841,"population":4483,"type":"borgo","visibility":"chicca","tags":[]},{"id":"gn_3166023","name":"Supino","country":"IT","lat":41.62135,"lon":13.23452,"population":4482,"type":"borgo","visibility":"chicca","tags":[]},{"id":"gn_3168560","name":"San Bartolomeo in Galdo","country":"IT","lat":41.41595,"lon":15.01709,"population":4465,"type":"borgo","visibility":"chicca","tags":[]},{"id":"gn_3171418","name":"Passignano sul Trasimeno","country":"IT","lat":43.19043,"lon":12.13535,"population":4464,"type":"borgo","visibility":"chicca","tags":[]},{"id":"gn_3181094","name":"Camerino","country":"IT","lat":43.13866,"lon":13.06785,"population":4444,"type":"borgo","visibility":"chicca","tags":[]},{"id":"gn_3166287","name":"Spello","country":"IT","lat":42.99231,"lon":12.66632,"population":4410,"type":"borgo","visibility":"chicca","tags":[]},{"id":"gn_3182700","name":"Atessa","country":"IT","lat":42.07018,"lon":14.45049,"population":4410,"type":"borgo","visibility":"chicca","tags":[]},{"id":"gn_8948795","name":"Valle Martella","country":"IT","lat":41.87827,"lon":12.74677,"population":4410,"type":"borgo","visibility":"chicca","tags":[]},{"id":"gn_3175367","name":"Labico","country":"IT","lat":41.7926,"lon":12.87127,"population":4408,"type":"borgo","visibility":"chicca","tags":[]},{"id":"gn_7535964","name":"Trodica","country":"IT","lat":43.27458,"lon":13.59369,"population":4397,"type":"borgo","visibility":"chicca","tags":[]},{"id":"gn_8948802","name":"Villa Rosa","country":"IT","lat":42.85059,"lon":13.92015,"population":4349,"type":"borgo","visibility":"chicca","tags":[]},{"id":"gn_3164354","name":"Vignanello","country":"IT","lat":42.37879,"lon":12.27845,"population":4326,"type":"borgo","visibility":"chicca","tags":[]},{"id":"gn_3170023","name":"Potenza Picena","country":"IT","lat":43.36635,"lon":13.62249,"population":4326,"type":"borgo","visibility":"chicca","tags":[]},{"id":"gn_3172535","name":"Mosciano Sant'Angelo","country":"IT","lat":42.747,"lon":13.88891,"population":4318,"type":"borgo","visibility":"chicca","tags":[]},{"id":"gn_8948805","name":"Genio Civile","country":"IT","lat":41.54807,"lon":12.69161,"population":4298,"type":"borgo","visibility":"chicca","tags":[]},{"id":"gn_3168008","name":"San Martino in Pensilis","country":"IT","lat":41.87814,"lon":15.01824,"population":4293,"type":"borgo","visibility":"chicca","tags":[]},{"id":"gn_3170262","name":"Ponte Galeria-La Pisana","country":"IT","lat":41.84634,"lon":12.33925,"population":4292,"type":"borgo","visibility":"chicca","tags":[]},{"id":"gn_8948807","name":"Borgo Stazione","country":"IT","lat":43.28461,"lon":13.6442,"population":4244,"type":"borgo","visibility":"chicca","tags":[]},{"id":"gn_3167337","name":"Sant'Elia Fiumerapido","country":"IT","lat":41.53304,"lon":13.86268,"population":4218,"type":"borgo","visibility":"chicca","tags":[]},{"id":"gn_3171702","name":"Paganica-Tempera","country":"IT","lat":42.35715,"lon":13.47138,"population":4205,"type":"borgo","visibility":"chicca","tags":[]},{"id":"gn_8948810","name":"Parco Leonardo","country":"IT","lat":41.80035,"lon":12.30028,"population":4196,"type":"borgo","visibility":"chicca","tags":["famiglie","bambini","attivita"]},{"id":"gn_9036390","name":"Colleverde II","country":"IT","lat":41.97533,"lon":12.63191,"population":4175,"type":"borgo","visibility":"chicca","tags":[]},{"id":"gn_6693935","name":"Passoscuro","country":"IT","lat":41.90209,"lon":12.15723,"population":4173,"type":"borgo","visibility":"chicca","tags":[]},{"id":"gn_3166010","name":"Sutri","country":"IT","lat":42.24596,"lon":12.21715,"population":4162,"type":"borgo","visibility":"chicca","tags":[]},{"id":"gn_3177617","name":"Deruta","country":"IT","lat":42.98465,"lon":12.4176,"population":4162,"type":"borgo","visibility":"chicca","tags":[]},{"id":"gn_3179013","name":"Cervaro","country":"IT","lat":41.48278,"lon":13.90218,"population":4141,"type":"borgo","visibility":"chicca","tags":[]},{"id":"gn_3171212","name":"Pergola","country":"IT","lat":43.55485,"lon":12.83633,"population":4137,"type":"borgo","visibility":"chicca","tags":[]},{"id":"gn_8948814","name":"Santa Teresa","country":"IT","lat":42.42753,"lon":14.15816,"population":4116,"type":"borgo","visibility":"chicca","tags":[]},{"id":"gn_3177685","name":"Cupra Marittima","country":"IT","lat":43.01905,"lon":13.86171,"population":4107,"type":"borgo","visibility":"chicca","tags":[]},{"id":"gn_3180635","name":"Caprarola","country":"IT","lat":42.32308,"lon":12.23848,"population":4083,"type":"borgo","visibility":"chicca","tags":[]},{"id":"gn_3179502","name":"Castelraimondo","country":"IT","lat":43.20853,"lon":13.05486,"population":4046,"type":"borgo","visibility":"chicca","tags":[]},{"id":"gn_8948817","name":"Laghetto","country":"IT","lat":41.96734,"lon":12.65609,"population":4038,"type":"borgo","visibility":"chicca","tags":[]},{"id":"gn_6534730","name":"Castel Morrone","country":"IT","lat":41.12102,"lon":14.35473,"population":3988,"type":"borgo","visibility":"chicca","tags":[]},{"id":"gn_3183424","name":"Agnone","country":"IT","lat":41.81043,"lon":14.37524,"population":3978,"type":"borgo","visibility":"chicca","tags":[]},{"id":"gn_3172311","name":"Nereto","country":"IT","lat":42.81548,"lon":13.81989,"population":3951,"type":"borgo","visibility":"chicca","tags":[]},{"id":"gn_3174565","name":"Loreto Aprutino","country":"IT","lat":42.43104,"lon":13.98057,"population":3930,"type":"borgo","visibility":"chicca","tags":[]},{"id":"gn_8948823","name":"Grunuovo-Campomaggiore San Luca","country":"IT","lat":41.27228,"lon":13.80684,"population":3912,"type":"borgo","visibility":"chicca","tags":[]},{"id":"gn_3172195","name":"Novafeltria","country":"IT","lat":43.89486,"lon":12.28894,"population":3906,"type":"borgo","visibility":"chicca","tags":[]},{"id":"gn_3168549","name":"San Benedetto dei Marsi","country":"IT","lat":42.0076,"lon":13.62381,"population":3896,"type":"borgo","visibility":"chicca","tags":[]},{"id":"gn_3170792","name":"Pietramelara","country":"IT","lat":41.27086,"lon":14.18711,"population":3894,"type":"borgo","visibility":"chicca","tags":[]},{"id":"gn_3164682","name":"Vasanello","country":"IT","lat":42.41507,"lon":12.34767,"population":3881,"type":"borgo","visibility":"chicca","tags":[]},{"id":"gn_3171898","name":"Orte","country":"IT","lat":42.46117,"lon":12.38635,"population":3865,"type":"borgo","visibility":"chicca","tags":[]},{"id":"gn_8948826","name":"Castelnuovo Vomano","country":"IT","lat":42.62933,"lon":13.85003,"population":3833,"type":"borgo","visibility":"chicca","tags":[]},{"id":"gn_6535046","name":"Montelibretti","country":"IT","lat":42.13553,"lon":12.73868,"population":3824,"type":"borgo","visibility":"chicca","tags":[]},{"id":"gn_3170798","name":"Pietra la Croce","country":"IT","lat":43.60224,"lon":13.53887,"population":3815,"type":"borgo","visibility":"chicca","tags":[]},{"id":"gn_3167068","name":"Sassoferrato","country":"IT","lat":43.43109,"lon":12.8566,"population":3806,"type":"borgo","visibility":"chicca","tags":[]},{"id":"gn_3180981","name":"Campo di Carne","country":"IT","lat":41.55265,"lon":12.64114,"population":3792,"type":"borgo","visibility":"chicca","tags":[]},{"id":"gn_3169430","name":"Riccia","country":"IT","lat":41.48314,"lon":14.83181,"population":3784,"type":"borgo","visibility":"chicca","tags":[]},{"id":"gn_3176377","name":"Gallicano nel Lazio","country":"IT","lat":41.86433,"lon":12.83543,"population":3776,"type":"borgo","visibility":"chicca","tags":[]},{"id":"gn_8948827","name":"Valcanneto","country":"IT","lat":41.95078,"lon":12.15734,"population":3764,"type":"borgo","visibility":"chicca","tags":[]},{"id":"gn_3178737","name":"Sant'Andrea-Pizzone-Ciamprisco","country":"IT","lat":41.15,"lon":14.03333,"population":3763,"type":"borgo","visibility":"chicca","tags":[]},{"id":"gn_3179521","name":"Castelnuovo di Porto","country":"IT","lat":42.1228,"lon":12.51043,"population":3760,"type":"borgo","visibility":"chicca","tags":["mare","spiagge"]},{"id":"gn_3182937","name":"Aquino","country":"IT","lat":41.49388,"lon":13.7052,"population":3735,"type":"borgo","visibility":"chicca","tags":[]},{"id":"gn_3182722","name":"Assisi","country":"IT","lat":43.06671,"lon":12.62109,"population":3732,"type":"borgo","visibility":"chicca","tags":[]},{"id":"gn_3182295","name":"Bassano Romano","country":"IT","lat":42.22228,"lon":12.18785,"population":3728,"type":"borgo","visibility":"chicca","tags":[]},{"id":"gn_8948829","name":"Fossignano","country":"IT","lat":41.59226,"lon":12.56333,"population":3718,"type":"borgo","visibility":"chicca","tags":[]},{"id":"gn_6534802","name":"Balsorano","country":"IT","lat":41.80982,"lon":13.5598,"population":3705,"type":"borgo","visibility":"chicca","tags":[]},{"id":"gn_3179680","name":"Castel Gandolfo","country":"IT","lat":41.74875,"lon":12.64975,"population":3694,"type":"borgo","visibility":"chicca","tags":[]},{"id":"gn_3166235","name":"Spoltore","country":"IT","lat":42.45501,"lon":14.13988,"population":3693,"type":"borgo","visibility":"chicca","tags":[]},{"id":"gn_3177692","name":"Cupello","country":"IT","lat":42.06936,"lon":14.67054,"population":3670,"type":"borgo","visibility":"chicca","tags":[]},{"id":"gn_3166680","name":"Serracapriola","country":"IT","lat":41.80912,"lon":15.16098,"population":3652,"type":"borgo","visibility":"chicca","tags":[]},{"id":"gn_3176652","name":"Fossacesia","country":"IT","lat":42.24198,"lon":14.48339,"population":3644,"type":"borgo","visibility":"chicca","tags":[]},{"id":"gn_8948832","name":"Manoppello Scalo","country":"IT","lat":42.30762,"lon":14.05363,"population":3641,"type":"borgo","visibility":"chicca","tags":[]},{"id":"gn_6535631","name":"Falciano del Massico","country":"IT","lat":41.16271,"lon":13.94812,"population":3640,"type":"borgo","visibility":"chicca","tags":[]},{"id":"gn_3167442","name":"Sant'Angelo in Vado","country":"IT","lat":43.66526,"lon":12.41757,"population":3638,"type":"borgo","visibility":"chicca","tags":[]},{"id":"gn_3178269","name":"Colonna","country":"IT","lat":41.83454,"lon":12.75495,"population":3620,"type":"borgo","visibility":"chicca","tags":[]},{"id":"gn_3164394","name":"Vicovaro","country":"IT","lat":42.01924,"lon":12.90001,"population":3617,"type":"borgo","visibility":"chicca","tags":[]},{"id":"gn_3177684","name":"Cupramontana","country":"IT","lat":43.44975,"lon":13.11312,"population":3617,"type":"borgo","visibility":"chicca","tags":[]},{"id":"gn_3180400","name":"Carsoli","country":"IT","lat":42.09882,"lon":13.08856,"population":3617,"type":"borgo","visibility":"chicca","tags":[]},{"id":"gn_8948835","name":"Annunziata","country":"IT","lat":41.121,"lon":14.36518,"population":3596,"type":"borgo","visibility":"chicca","tags":[]},{"id":"gn_3182214","name":"Bellocchi","country":"IT","lat":43.79564,"lon":13.00565,"population":3555,"type":"borgo","visibility":"chicca","tags":[]},{"id":"gn_8948839","name":"Campo Limpido-Favale","country":"IT","lat":41.96732,"lon":12.77016,"population":3528,"type":"borgo","visibility":"chicca","tags":[]},{"id":"gn_3165205","name":"Trevignano Romano","country":"IT","lat":42.1602,"lon":12.23775,"population":3515,"type":"borgo","visibility":"chicca","tags":[]},{"id":"gn_3171905","name":"Orsogna","country":"IT","lat":42.22344,"lon":14.28085,"population":3499,"type":"borgo","visibility":"chicca","tags":[]},{"id":"gn_3171141","name":"Pescina","country":"IT","lat":42.02351,"lon":13.65116,"population":3492,"type":"borgo","visibility":"chicca","tags":[]},{"id":"gn_3179037","name":"Cerreto d'Esi","country":"IT","lat":43.31668,"lon":12.98771,"population":3491,"type":"borgo","visibility":"chicca","tags":[]},{"id":"gn_3172760","name":"Monte San Biagio","country":"IT","lat":41.3536,"lon":13.35184,"population":3481,"type":"borgo","visibility":"chicca","tags":[]},{"id":"gn_3183273","name":"Alife","country":"IT","lat":41.32612,"lon":14.33403,"population":3477,"type":"borgo","visibility":"chicca","tags":[]},{"id":"gn_3167526","name":"Santa Maria Nuova","country":"IT","lat":43.49164,"lon":13.3237,"population":3476,"type":"borgo","visibility":"chicca","tags":[]},{"id":"gn_3172204","name":"Norma","country":"IT","lat":41.58643,"lon":12.97073,"population":3473,"type":"borgo","visibility":"chicca","tags":[]},{"id":"gn_3177728","name":"Cuccurano","country":"IT","lat":43.79311,"lon":12.95927,"population":3469,"type":"borgo","visibility":"chicca","tags":[]},{"id":"gn_3183411","name":"Agugliano","country":"IT","lat":43.54368,"lon":13.38574,"population":3465,"type":"borgo","visibility":"chicca","tags":[]},{"id":"gn_3178673","name":"Cingoli","country":"IT","lat":43.37573,"lon":13.20787,"population":3427,"type":"borgo","visibility":"chicca","tags":[]},{"id":"gn_3170590","name":"Pizzoli","country":"IT","lat":42.43603,"lon":13.29886,"population":3413,"type":"borgo","visibility":"chicca","tags":[]},{"id":"gn_3180659","name":"Cappelle sul Tavo","country":"IT","lat":42.47709,"lon":14.10735,"population":3406,"type":"borgo","visibility":"chicca","tags":[]},{"id":"gn_3170723","name":"Piglio","country":"IT","lat":41.83006,"lon":13.1333,"population":3399,"type":"borgo","visibility":"chicca","tags":[]},{"id":"gn_8948846","name":"Bellante Stazione","country":"IT","lat":42.7065,"lon":13.83953,"population":3393,"type":"borgo","visibility":"chicca","tags":[]},{"id":"gn_3176145","name":"Giano dell'Umbria","country":"IT","lat":42.83384,"lon":12.57777,"population":3383,"type":"borgo","visibility":"chicca","tags":[]},{"id":"gn_3168348","name":"San Gemini","country":"IT","lat":42.61378,"lon":12.54528,"population":3375,"type":"borgo","visibility":"chicca","tags":[]},{"id":"gn_3170688","name":"Pinocchio di Ancona","country":"IT","lat":43.58986,"lon":13.49413,"population":3367,"type":"borgo","visibility":"chicca","tags":[]},{"id":"gn_3178620","name":"Città della Pieve","country":"IT","lat":42.95934,"lon":12.00696,"population":3360,"type":"borgo","visibility":"chicca","tags":[]},{"id":"gn_8948849","name":"Lido di Fermo","country":"IT","lat":43.20556,"lon":13.78467,"population":3352,"type":"borgo","visibility":"chicca","tags":["mare","spiagge"]},{"id":"gn_3166394","name":"Sonnino","country":"IT","lat":41.41673,"lon":13.24592,"population":3350,"type":"borgo","visibility":"chicca","tags":[]},{"id":"gn_3170456","name":"Poggio Mirteto","country":"IT","lat":42.26763,"lon":12.68837,"population":3343,"type":"borgo","visibility":"chicca","tags":[]},{"id":"gn_3167179","name":"San Vito Romano","country":"IT","lat":41.88001,"lon":12.97793,"population":3337,"type":"borgo","visibility":"chicca","tags":[]},{"id":"gn_3181644","name":"Bovino","country":"IT","lat":41.24916,"lon":15.33948,"population":3335,"type":"borgo","visibility":"chicca","tags":[]},{"id":"gn_8948852","name":"Casette d'Ete","country":"IT","lat":43.25385,"lon":13.68319,"population":3299,"type":"borgo","visibility":"chicca","tags":[]},{"id":"gn_9036394","name":"Orte Scalo","country":"IT","lat":42.43483,"lon":12.40783,"population":3251,"type":"borgo","visibility":"chicca","tags":[]},{"id":"gn_3179683","name":"Castel Frentano","country":"IT","lat":42.19875,"lon":14.35643,"population":3220,"type":"borgo","visibility":"chicca","tags":[]},{"id":"gn_3181752","name":"Borgo Santa Maria","country":"IT","lat":43.87582,"lon":12.80235,"population":3216,"type":"borgo","visibility":"chicca","tags":[]},{"id":"gn_8948859","name":"Colombella","country":"IT","lat":43.15262,"lon":12.48239,"population":3199,"type":"borgo","visibility":"chicca","tags":[]},{"id":"gn_3171097","name":"Petrignano","country":"IT","lat":43.10269,"lon":12.53239,"population":3184,"type":"borgo","visibility":"chicca","tags":[]},{"id":"gn_3181843","name":"Borghetto","country":"IT","lat":43.598,"lon":13.29205,"population":3181,"type":"borgo","visibility":"chicca","tags":[]},{"id":"gn_3165881","name":"Tavernelle","country":"IT","lat":43.00333,"lon":12.1452,"population":3177,"type":"borgo","visibility":"chicca","tags":[]},{"id":"gn_3165453","name":"Torre de' Passeri","country":"IT","lat":42.24324,"lon":13.9333,"population":3174,"type":"borgo","visibility":"chicca","tags":[]},{"id":"gn_3172978","name":"Montecelio","country":"IT","lat":42.02067,"lon":12.74354,"population":3165,"type":"borgo","visibility":"chicca","tags":[]},{"id":"gn_3183508","name":"Acquasparta","country":"IT","lat":42.68915,"lon":12.54275,"population":3161,"type":"borgo","visibility":"chicca","tags":[]},{"id":"gn_8948862","name":"San Bartolomeo","country":"IT","lat":41.48265,"lon":13.85747,"population":3153,"type":"borgo","visibility":"chicca","tags":[]},{"id":"gn_3174261","name":"Magliano De'Marsi","country":"IT","lat":42.09153,"lon":13.36379,"population":3144,"type":"borgo","visibility":"chicca","tags":[]},{"id":"gn_6693932","name":"Focene","country":"IT","lat":41.81367,"lon":12.21354,"population":3143,"type":"borgo","visibility":"chicca","tags":[]},{"id":"gn_3179150","name":"Cepagatti","country":"IT","lat":42.36506,"lon":14.07424,"population":3131,"type":"borgo","visibility":"chicca","tags":[]},{"id":"gn_3171947","name":"Oriolo Romano","country":"IT","lat":42.16261,"lon":12.13859,"population":3108,"type":"borgo","visibility":"chicca","tags":[]},{"id":"gn_8581482","name":"Lido dei Pini","country":"IT","lat":41.5366,"lon":12.58976,"population":3094,"type":"borgo","visibility":"chicca","tags":["mare","spiagge"]},{"id":"gn_3165585","name":"Tollo","country":"IT","lat":42.34542,"lon":14.3236,"population":3093,"type":"borgo","visibility":"chicca","tags":[]},{"id":"gn_3173827","name":"Marzano Appio","country":"IT","lat":41.31772,"lon":14.04502,"population":3087,"type":"borgo","visibility":"chicca","tags":[]},{"id":"gn_3173164","name":"Mondolfo","country":"IT","lat":43.74529,"lon":13.10229,"population":3068,"type":"borgo","visibility":"chicca","tags":[]},{"id":"gn_3183140","name":"Alvignano","country":"IT","lat":41.24427,"lon":14.33671,"population":3067,"type":"borgo","visibility":"chicca","tags":[]},{"id":"gn_8436239","name":"Tornimparte","country":"IT","lat":42.29007,"lon":13.30092,"population":3042,"type":"borgo","visibility":"chicca","tags":[]},{"id":"gn_8659130","name":"Santa Maria Apparente","country":"IT","lat":43.29661,"lon":13.69223,"population":3040,"type":"borgo","visibility":"chicca","tags":[]},{"id":"gn_3175666","name":"Borgo Hermada","country":"IT","lat":41.30559,"lon":13.17235,"population":3037,"type":"borgo","visibility":"chicca","tags":[]},{"id":"gn_3173617","name":"Roccasecca Stazione","country":"IT","lat":41.53333,"lon":13.65,"population":3029,"type":"borgo","visibility":"chicca","tags":[]},{"id":"gn_3174812","name":"Lettomanoppello","country":"IT","lat":42.24336,"lon":14.03843,"population":3019,"type":"borgo","visibility":"chicca","tags":[]},{"id":"gn_8948872","name":"Marzanello","country":"IT","lat":41.31447,"lon":14.11611,"population":3012,"type":"borgo","visibility":"chicca","tags":[]},{"id":"gn_3166283","name":"Sperlonga","country":"IT","lat":41.25897,"lon":13.43302,"population":3008,"type":"borgo","visibility":"chicca","tags":[]},{"id":"gn_3166414","name":"Solopaca","country":"IT","lat":41.19535,"lon":14.54767,"population":2993,"type":"borgo","visibility":"chicca","tags":[]},{"id":"gn_3182963","name":"Appignano","country":"IT","lat":43.36276,"lon":13.34768,"population":2987,"type":"borgo","visibility":"chicca","tags":[]},{"id":"gn_8659112","name":"Cologna Spiaggia","country":"IT","lat":42.72152,"lon":13.98311,"population":2965,"type":"borgo","visibility":"chicca","tags":["mare","spiagge"]},{"id":"gn_3172208","name":"Norcia","country":"IT","lat":42.79105,"lon":13.096,"population":2964,"type":"borgo","visibility":"chicca","tags":[]},{"id":"gn_3164965","name":"Vairano-Patenora","country":"IT","lat":41.33702,"lon":14.13112,"population":2963,"type":"borgo","visibility":"chicca","tags":[]},{"id":"gn_8948875","name":"Stella","country":"IT","lat":42.88698,"lon":13.80948,"population":2963,"type":"borgo","visibility":"chicca","tags":[]},{"id":"gn_3178012","name":"Corropoli","country":"IT","lat":42.8272,"lon":13.83471,"population":2953,"type":"borgo","visibility":"chicca","tags":[]},{"id":"gn_3171788","name":"Ostra","country":"IT","lat":43.61611,"lon":13.15849,"population":2947,"type":"borgo","visibility":"chicca","tags":[]},{"id":"gn_3170988","name":"Pianella","country":"IT","lat":42.39918,"lon":14.04781,"population":2946,"type":"borgo","visibility":"chicca","tags":[]},{"id":"gn_3170357","name":"Polverigi","country":"IT","lat":43.52876,"lon":13.38294,"population":2927,"type":"borgo","visibility":"chicca","tags":[]},{"id":"gn_3180849","name":"Canepina","country":"IT","lat":42.38315,"lon":12.23179,"population":2916,"type":"borgo","visibility":"chicca","tags":[]},{"id":"gn_3178135","name":"Coppito","country":"IT","lat":42.3673,"lon":13.34358,"population":2903,"type":"borgo","visibility":"chicca","tags":[]},{"id":"gn_3180826","name":"Cannara","country":"IT","lat":42.9954,"lon":12.58202,"population":2888,"type":"borgo","visibility":"chicca","tags":[]},{"id":"gn_8948879","name":"Le Rughe","country":"IT","lat":42.06885,"lon":12.37624,"population":2879,"type":"borgo","visibility":"chicca","tags":[]},{"id":"gn_3168725","name":"Sacrofano","country":"IT","lat":42.10457,"lon":12.44781,"population":2871,"type":"borgo","visibility":"chicca","tags":[]},{"id":"gn_8468672","name":"Sezze Scalo","country":"IT","lat":41.49701,"lon":13.04257,"population":2865,"type":"borgo","visibility":"chicca","tags":[]},{"id":"gn_3178119","name":"Corchiano","country":"IT","lat":42.34495,"lon":12.35688,"population":2861,"type":"borgo","visibility":"chicca","tags":[]},{"id":"gn_3171114","name":"Petacciato","country":"IT","lat":42.00827,"lon":14.86026,"population":2858,"type":"borgo","visibility":"chicca","tags":[]},{"id":"gn_3174891","name":"Lenola","country":"IT","lat":41.40485,"lon":13.45934,"population":2855,"type":"borgo","visibility":"chicca","tags":[]},{"id":"gn_3167269","name":"Sant'Oreste","country":"IT","lat":42.23298,"lon":12.51507,"population":2830,"type":"borgo","visibility":"chicca","tags":[]},{"id":"gn_8948883","name":"Laghetto","country":"IT","lat":41.85628,"lon":12.72498,"population":2829,"type":"borgo","visibility":"chicca","tags":[]},{"id":"gn_3174018","name":"Maranola-Trivio","country":"IT","lat":41.28522,"lon":13.62777,"population":2823,"type":"borgo","visibility":"chicca","tags":[]},{"id":"gn_3165527","name":"Torgiano","country":"IT","lat":43.02761,"lon":12.44015,"population":2816,"type":"borgo","visibility":"chicca","tags":[]},{"id":"gn_3167366","name":"Santa Rufina","country":"IT","lat":42.40897,"lon":12.91843,"population":2813,"type":"borgo","visibility":"chicca","tags":[]},{"id":"gn_3173315","name":"Mogliano","country":"IT","lat":43.1875,"lon":13.49123,"population":2809,"type":"borgo","visibility":"chicca","tags":[]},{"id":"gn_3175764","name":"Grotte Santo Stefano","country":"IT","lat":42.51691,"lon":12.17226,"population":2802,"type":"borgo","visibility":"chicca","tags":[]},{"id":"gn_3172104","name":"Offida","country":"IT","lat":42.93499,"lon":13.69773,"population":2798,"type":"borgo","visibility":"chicca","tags":[]},{"id":"gn_3183066","name":"Anghiari","country":"IT","lat":43.54104,"lon":12.05832,"population":2784,"type":"borgo","visibility":"chicca","tags":[]},{"id":"gn_3171678","name":"Paglieta","country":"IT","lat":42.16139,"lon":14.50306,"population":2758,"type":"borgo","visibility":"chicca","tags":[]},{"id":"gn_3175770","name":"Grottazzolina","country":"IT","lat":43.1188,"lon":13.60691,"population":2748,"type":"borgo","visibility":"chicca","tags":[]},{"id":"gn_3169626","name":"Raiano","country":"IT","lat":42.10158,"lon":13.81386,"population":2726,"type":"borgo","visibility":"chicca","tags":[]},{"id":"gn_3182096","name":"Bevagna","country":"IT","lat":42.93748,"lon":12.61488,"population":2705,"type":"borgo","visibility":"chicca","tags":[]},{"id":"gn_9036401","name":"Torvaianica Alta","country":"IT","lat":41.63162,"lon":12.49765,"population":2694,"type":"borgo","visibility":"chicca","tags":[]},{"id":"gn_3178566","name":"Civitella Roveto","country":"IT","lat":41.91329,"lon":13.42396,"population":2687,"type":"borgo","visibility":"chicca","tags":[]},{"id":"gn_3179692","name":"Castelforte","country":"IT","lat":41.29392,"lon":13.83061,"population":2676,"type":"borgo","visibility":"chicca","tags":[]},{"id":"gn_3181267","name":"Caiazzo","country":"IT","lat":41.18435,"lon":14.35946,"population":2669,"type":"borgo","visibility":"chicca","tags":[]},{"id":"gn_3174721","name":"Limatola","country":"IT","lat":41.14012,"lon":14.39437,"population":2668,"type":"borgo","visibility":"chicca","tags":[]},{"id":"gn_3168015","name":"San Martino in Campo","country":"IT","lat":43.03608,"lon":12.40265,"population":2662,"type":"borgo","visibility":"chicca","tags":[]},{"id":"gn_8948901","name":"Albuccione","country":"IT","lat":41.95245,"lon":12.69873,"population":2661,"type":"borgo","visibility":"chicca","tags":[]},{"id":"gn_3172199","name":"Notaresco","country":"IT","lat":42.65742,"lon":13.89491,"population":2656,"type":"borgo","visibility":"chicca","tags":[]},{"id":"gn_9036403","name":"Nucleo Industriale di Bazzano","country":"IT","lat":42.33623,"lon":13.46755,"population":2619,"type":"borgo","visibility":"chicca","tags":[]},{"id":"gn_3167446","name":"Sant'Angelo in Formis","country":"IT","lat":41.11667,"lon":14.25,"population":2616,"type":"borgo","visibility":"chicca","tags":[]},{"id":"gn_3172901","name":"Montegiorgio","country":"IT","lat":43.12988,"lon":13.53925,"population":2616,"type":"borgo","visibility":"chicca","tags":[]},{"id":"gn_3170789","name":"Pietramontecorvino","country":"IT","lat":41.54228,"lon":15.12894,"population":2615,"type":"borgo","visibility":"chicca","tags":[]},{"id":"gn_3178094","name":"Corinaldo","country":"IT","lat":43.64107,"lon":13.06004,"population":2614,"type":"borgo","visibility":"chicca","tags":[]},{"id":"gn_3166943","name":"Scerni","country":"IT","lat":42.10418,"lon":14.57428,"population":2608,"type":"borgo","visibility":"chicca","tags":[]},{"id":"gn_3178592","name":"Civitanova Alta","country":"IT","lat":43.31619,"lon":13.67978,"population":2608,"type":"borgo","visibility":"chicca","tags":[]},{"id":"gn_6535742","name":"Pastorano","country":"IT","lat":41.18082,"lon":14.19823,"population":2586,"type":"borgo","visibility":"chicca","tags":[]},{"id":"gn_3176879","name":"Foglianise","country":"IT","lat":41.16127,"lon":14.67112,"population":2573,"type":"borgo","visibility":"chicca","tags":[]},{"id":"gn_3165026","name":"Ururi","country":"IT","lat":41.81518,"lon":15.01611,"population":2565,"type":"borgo","visibility":"chicca","tags":[]},{"id":"gn_3172772","name":"Monterosi","country":"IT","lat":42.19698,"lon":12.30842,"population":2554,"type":"borgo","visibility":"chicca","tags":[]},{"id":"gn_3170104","name":"Portocannone","country":"IT","lat":41.91441,"lon":15.00845,"population":2549,"type":"borgo","visibility":"chicca","tags":["mare","spiagge"]},{"id":"gn_3181983","name":"Blera","country":"IT","lat":42.27293,"lon":12.03016,"population":2549,"type":"borgo","visibility":"chicca","tags":[]},{"id":"gn_3183522","name":"Acqualagna","country":"IT","lat":43.62606,"lon":12.67596,"population":2546,"type":"borgo","visibility":"chicca","tags":[]},{"id":"gn_3166498","name":"Sirolo","country":"IT","lat":43.52246,"lon":13.61498,"population":2545,"type":"borgo","visibility":"chicca","tags":[]},{"id":"gn_3167012","name":"Scafa","country":"IT","lat":42.26575,"lon":13.99665,"population":2536,"type":"borgo","visibility":"chicca","tags":[]},{"id":"gn_3176820","name":"Collefontana-Fontana Liri Inferiore","country":"IT","lat":41.61166,"lon":13.54945,"population":2532,"type":"borgo","visibility":"chicca","tags":[]},{"id":"gn_3164833","name":"Vallerano","country":"IT","lat":42.38331,"lon":12.26144,"population":2530,"type":"borgo","visibility":"chicca","tags":[]},{"id":"gn_3171914","name":"Orsara di Puglia","country":"IT","lat":41.28163,"lon":15.26765,"population":2522,"type":"borgo","visibility":"chicca","tags":[]},{"id":"gn_3176057","name":"Giulianello","country":"IT","lat":41.6861,"lon":12.87917,"population":2519,"type":"borgo","visibility":"chicca","tags":[]},{"id":"gn_3183018","name":"Antrodoco","country":"IT","lat":42.41498,"lon":13.07673,"population":2517,"type":"borgo","visibility":"chicca","tags":[]},{"id":"gn_3170842","name":"Piedimonte San Germano","country":"IT","lat":41.49796,"lon":13.75017,"population":2513,"type":"borgo","visibility":"chicca","tags":[]},{"id":"gn_3172845","name":"Montemarciano","country":"IT","lat":43.63847,"lon":13.30801,"population":2493,"type":"borgo","visibility":"chicca","tags":[]},{"id":"gn_3173684","name":"Mazzano Romano","country":"IT","lat":42.20597,"lon":12.39554,"population":2493,"type":"borgo","visibility":"chicca","tags":[]},{"id":"gn_8948919","name":"Borgo Santa Maria Immacolata","country":"IT","lat":42.61172,"lon":14.04553,"population":2491,"type":"borgo","visibility":"chicca","tags":[]},{"id":"gn_7290694","name":"Marina di Vasto","country":"IT","lat":42.09373,"lon":14.72683,"population":2489,"type":"borgo","visibility":"chicca","tags":["mare","spiagge"]},{"id":"gn_8948920","name":"Cappone","country":"IT","lat":43.83071,"lon":12.74458,"population":2488,"type":"borgo","visibility":"chicca","tags":[]},{"id":"gn_6535050","name":"Roccagorga","country":"IT","lat":41.52511,"lon":13.1551,"population":2477,"type":"borgo","visibility":"chicca","tags":[]},{"id":"gn_3183492","name":"Acquaviva Picena","country":"IT","lat":42.94037,"lon":13.82227,"population":2468,"type":"borgo","visibility":"chicca","tags":[]},{"id":"gn_3179828","name":"Casoli","country":"IT","lat":42.1138,"lon":14.28995,"population":2466,"type":"borgo","visibility":"chicca","tags":[]},{"id":"gn_3180115","name":"Semonte-Casamorcia","country":"IT","lat":43.36826,"lon":12.53064,"population":2459,"type":"borgo","visibility":"chicca","tags":[]},{"id":"gn_3178221","name":"Comunanza","country":"IT","lat":42.95719,"lon":13.41341,"population":2452,"type":"borgo","visibility":"chicca","tags":[]},{"id":"gn_3178613","name":"Città Sant'Angelo","country":"IT","lat":42.51254,"lon":14.06203,"population":2451,"type":"borgo","visibility":"chicca","tags":[]},{"id":"gn_8948924","name":"Stazione","country":"IT","lat":43.50046,"lon":13.15149,"population":2446,"type":"borgo","visibility":"chicca","tags":[]},{"id":"gn_3182056","name":"Biccari","country":"IT","lat":41.39736,"lon":15.19644,"population":2443,"type":"borgo","visibility":"chicca","tags":[]},{"id":"gn_3181361","name":"Bussi sul Tirino","country":"IT","lat":42.21321,"lon":13.82511,"population":2432,"type":"borgo","visibility":"chicca","tags":[]},{"id":"gn_3164528","name":"Veroli","country":"IT","lat":41.69433,"lon":13.41664,"population":2419,"type":"borgo","visibility":"chicca","tags":[]},{"id":"gn_8948930","name":"Monte Migliore La Selvotta","country":"IT","lat":41.7206,"lon":12.50206,"population":2416,"type":"borgo","visibility":"chicca","tags":[]},{"id":"gn_9036358","name":"Padule-San Marco","country":"IT","lat":43.3288,"lon":12.60942,"population":2413,"type":"borgo","visibility":"chicca","tags":[]},{"id":"gn_3178617","name":"Cittaducale","country":"IT","lat":42.38664,"lon":12.95497,"population":2411,"type":"borgo","visibility":"chicca","tags":[]},{"id":"gn_3172593","name":"Moricone","country":"IT","lat":42.11661,"lon":12.77234,"population":2383,"type":"borgo","visibility":"chicca","tags":[]},{"id":"gn_3172246","name":"Nocelleto","country":"IT","lat":41.17067,"lon":14.01565,"population":2374,"type":"borgo","visibility":"chicca","tags":[]},{"id":"gn_8948934","name":"Piediripa","country":"IT","lat":43.27751,"lon":13.48712,"population":2374,"type":"borgo","visibility":"chicca","tags":[]},{"id":"gn_3171408","name":"Passo di Treia","country":"IT","lat":43.28647,"lon":13.33246,"population":2368,"type":"borgo","visibility":"chicca","tags":[]},{"id":"gn_3164863","name":"Vallecorsa","country":"IT","lat":41.44351,"lon":13.40634,"population":2353,"type":"borgo","visibility":"chicca","tags":[]},{"id":"gn_3168034","name":"San Martino al Cimino","country":"IT","lat":42.36978,"lon":12.12515,"population":2340,"type":"borgo","visibility":"chicca","tags":[]},{"id":"gn_3165615","name":"Tocco da Casauria","country":"IT","lat":42.21203,"lon":13.91547,"population":2338,"type":"borgo","visibility":"chicca","tags":[]},{"id":"gn_3169165","name":"Roccamonfina","country":"IT","lat":41.28683,"lon":13.97905,"population":2338,"type":"borgo","visibility":"chicca","tags":[]},{"id":"gn_3166083","name":"Stroncone","country":"IT","lat":42.51196,"lon":12.6477,"population":2332,"type":"borgo","visibility":"chicca","tags":[]},{"id":"gn_3172935","name":"Montefano","country":"IT","lat":43.40982,"lon":13.4369,"population":2331,"type":"borgo","visibility":"chicca","tags":[]},{"id":"gn_3182494","name":"Bagnoregio","country":"IT","lat":42.62845,"lon":12.08969,"population":2326,"type":"borgo","visibility":"chicca","tags":[]},{"id":"gn_3173125","name":"Monsano","country":"IT","lat":43.56221,"lon":13.25186,"population":2318,"type":"borgo","visibility":"chicca","tags":[]},{"id":"gn_3170058","name":"Posatora","country":"IT","lat":43.59917,"lon":13.48984,"population":2316,"type":"borgo","visibility":"chicca","tags":[]},{"id":"gn_3165862","name":"Tavullia","country":"IT","lat":43.89791,"lon":12.75108,"population":2315,"type":"borgo","visibility":"chicca","tags":[]},{"id":"gn_3168113","name":"San Lorenzo in Campo","country":"IT","lat":43.60149,"lon":12.94398,"population":2311,"type":"borgo","visibility":"chicca","tags":[]},{"id":"gn_3165106","name":"Tuoro sul Trasimeno","country":"IT","lat":43.20654,"lon":12.07465,"population":2306,"type":"borgo","visibility":"chicca","tags":[]},{"id":"gn_3179620","name":"Castelliri","country":"IT","lat":41.67764,"lon":13.53978,"population":2300,"type":"borgo","visibility":"chicca","tags":["storia"]},{"id":"gn_3165261","name":"Treia","country":"IT","lat":43.3085,"lon":13.31036,"population":2299,"type":"borgo","visibility":"chicca","tags":[]},{"id":"gn_9036359","name":"Orvieto Scalo","country":"IT","lat":42.72088,"lon":12.13402,"population":2285,"type":"borgo","visibility":"chicca","tags":[]},{"id":"gn_3170455","name":"Poggio Moiano","country":"IT","lat":42.20411,"lon":12.88136,"population":2279,"type":"borgo","visibility":"chicca","tags":[]},{"id":"gn_3183557","name":"Accadia","country":"IT","lat":41.15768,"lon":15.331,"population":2262,"type":"borgo","visibility":"chicca","tags":[]},{"id":"gn_8948949","name":"Carchitti","country":"IT","lat":41.78688,"lon":12.82955,"population":2255,"type":"borgo","visibility":"chicca","tags":[]},{"id":"gn_3172883","name":"Montelabbate","country":"IT","lat":43.84732,"lon":12.78763,"population":2248,"type":"borgo","visibility":"chicca","tags":[]},{"id":"gn_8948950","name":"Carrara-Pontenuovo","country":"IT","lat":41.54045,"lon":12.95468,"population":2235,"type":"borgo","visibility":"chicca","tags":[]},{"id":"gn_8948951","name":"Area Produttiva","country":"IT","lat":41.68211,"lon":12.50697,"population":2234,"type":"borgo","visibility":"chicca","tags":[]},{"id":"gn_3178169","name":"Contigliano","country":"IT","lat":42.41058,"lon":12.77202,"population":2230,"type":"borgo","visibility":"chicca","tags":[]},{"id":"gn_3170733","name":"Pieve Santo Stefano","country":"IT","lat":43.67145,"lon":12.04124,"population":2228,"type":"borgo","visibility":"chicca","tags":[]},{"id":"gn_3171159","name":"Pescasseroli","country":"IT","lat":41.80343,"lon":13.78707,"population":2224,"type":"borgo","visibility":"chicca","tags":[]},{"id":"gn_3183106","name":"Amorosi","country":"IT","lat":41.20273,"lon":14.46598,"population":2218,"type":"borgo","visibility":"chicca","tags":[]},{"id":"gn_3170774","name":"Pietravairano","country":"IT","lat":41.32522,"lon":14.16592,"population":2201,"type":"borgo","visibility":"chicca","tags":[]},{"id":"gn_3176571","name":"Frasso Telesino","country":"IT","lat":41.15682,"lon":14.52783,"population":2199,"type":"borgo","visibility":"chicca","tags":[]},{"id":"gn_3168458","name":"San Costanzo","country":"IT","lat":43.7672,"lon":13.07306,"population":2196,"type":"borgo","visibility":"chicca","tags":["mare","spiagge"]},{"id":"gn_3166541","name":"Sigillo","country":"IT","lat":43.33111,"lon":12.74059,"population":2192,"type":"borgo","visibility":"chicca","tags":[]},{"id":"gn_3173014","name":"Montecalvo Irpino","country":"IT","lat":41.19616,"lon":15.03446,"population":2187,"type":"borgo","visibility":"chicca","tags":[]},{"id":"gn_3167752","name":"San Salvatore Telesino","country":"IT","lat":41.23537,"lon":14.49832,"population":2184,"type":"borgo","visibility":"chicca","tags":[]},{"id":"gn_3176855","name":"Folignano","country":"IT","lat":42.8207,"lon":13.63273,"population":2171,"type":"borgo","visibility":"chicca","tags":[]},{"id":"gn_3175429","name":"Isola del Gran Sasso d'Italia","country":"IT","lat":42.50324,"lon":13.65721,"population":2162,"type":"borgo","visibility":"chicca","tags":[]},{"id":"gn_3182921","name":"Arce","country":"IT","lat":41.57787,"lon":13.58571,"population":2154,"type":"borgo","visibility":"chicca","tags":[]},{"id":"gn_6951029","name":"Pianello Vallesina","country":"IT","lat":43.48817,"lon":13.16188,"population":2154,"type":"borgo","visibility":"chicca","tags":[]},{"id":"gn_9036361","name":"Marina di Altidona","country":"IT","lat":43.10602,"lon":13.83454,"population":2154,"type":"borgo","visibility":"chicca","tags":["mare","spiagge"]},{"id":"gn_8948959","name":"Villa Musone","country":"IT","lat":43.44624,"lon":13.60312,"population":2150,"type":"borgo","visibility":"chicca","tags":[]},{"id":"gn_3167974","name":"Borgo San Michele","country":"IT","lat":41.43828,"lon":12.97351,"population":2149,"type":"borgo","visibility":"chicca","tags":[]},{"id":"gn_8948961","name":"Penitro","country":"IT","lat":41.27328,"lon":13.69262,"population":2132,"type":"borgo","visibility":"chicca","tags":[]},{"id":"gn_3177480","name":"Dragoni","country":"IT","lat":41.27619,"lon":14.30368,"population":2108,"type":"borgo","visibility":"chicca","tags":[]},{"id":"gn_3183057","name":"Anitrella-Chiaiamari","country":"IT","lat":41.63825,"lon":13.54835,"population":2108,"type":"borgo","visibility":"chicca","tags":[]},{"id":"gn_3166570","name":"Sforzacosta","country":"IT","lat":43.25676,"lon":13.42284,"population":2102,"type":"borgo","visibility":"chicca","tags":["mare","spiagge"]},{"id":"gn_3173006","name":"Montecassiano","country":"IT","lat":43.36518,"lon":13.4395,"population":2099,"type":"borgo","visibility":"chicca","tags":[]},{"id":"gn_3176091","name":"Gioia dei Marsi","country":"IT","lat":41.95697,"lon":13.69057,"population":2099,"type":"borgo","visibility":"chicca","tags":[]},{"id":"gn_3178335","name":"Colletorto","country":"IT","lat":41.66165,"lon":14.96773,"population":2087,"type":"borgo","visibility":"chicca","tags":[]},{"id":"gn_3164162","name":"Villa Potenza","country":"IT","lat":43.32149,"lon":13.42649,"population":2086,"type":"borgo","visibility":"chicca","tags":[]},{"id":"gn_3180894","name":"Canale Monterano","country":"IT","lat":42.13598,"lon":12.10284,"population":2080,"type":"borgo","visibility":"chicca","tags":[]},{"id":"gn_3179473","name":"Castel Sant'Elia","country":"IT","lat":42.25112,"lon":12.37032,"population":2077,"type":"borgo","visibility":"chicca","tags":[]},{"id":"gn_3169829","name":"Preturo","country":"IT","lat":42.37808,"lon":13.29633,"population":2076,"type":"borgo","visibility":"chicca","tags":[]},{"id":"gn_3174256","name":"Magliano Sabina","country":"IT","lat":42.36568,"lon":12.4852,"population":2075,"type":"borgo","visibility":"chicca","tags":[]},{"id":"gn_3168308","name":"San Giorgio a Liri","country":"IT","lat":41.40584,"lon":13.75979,"population":2069,"type":"borgo","visibility":"chicca","tags":[]},{"id":"gn_8948973","name":"Sant'Angelo in Villa-Giglio","country":"IT","lat":41.66217,"lon":13.42871,"population":2063,"type":"borgo","visibility":"chicca","tags":[]},{"id":"gn_3181031","name":"Campello sul Clitunno","country":"IT","lat":42.82685,"lon":12.76931,"population":2058,"type":"borgo","visibility":"chicca","tags":[]},{"id":"gn_8948976","name":"Gallo","country":"IT","lat":43.78636,"lon":12.71334,"population":2056,"type":"borgo","visibility":"chicca","tags":[]},{"id":"gn_3168336","name":"San Giacomo","country":"IT","lat":42.79387,"lon":12.75243,"population":2055,"type":"borgo","visibility":"chicca","tags":[]},{"id":"gn_3174053","name":"Mantignana","country":"IT","lat":43.15992,"lon":12.28855,"population":2053,"type":"borgo","visibility":"chicca","tags":[]},{"id":"gn_8948978","name":"Villa San Giuseppe","country":"IT","lat":42.86862,"lon":13.74481,"population":2050,"type":"borgo","visibility":"chicca","tags":[]},{"id":"gn_3181759","name":"Borgo Sabotino-Foce Verde","country":"IT","lat":41.41667,"lon":12.83333,"population":2045,"type":"borgo","visibility":"chicca","tags":[]},{"id":"gn_3180336","name":"Casacalenda","country":"IT","lat":41.73824,"lon":14.84734,"population":2041,"type":"borgo","visibility":"chicca","tags":[]},{"id":"gn_3172643","name":"Montorio Romano","country":"IT","lat":42.13738,"lon":12.80404,"population":2035,"type":"borgo","visibility":"chicca","tags":[]},{"id":"gn_7910910","name":"Bastardo","country":"IT","lat":42.87144,"lon":12.55943,"population":2027,"type":"borgo","visibility":"chicca","tags":[]},{"id":"gn_3168077","name":"San Marco dei Cavoti","country":"IT","lat":41.30881,"lon":14.87924,"population":2025,"type":"borgo","visibility":"chicca","tags":[]},{"id":"gn_8948983","name":"San Tommaso Tre Archi","country":"IT","lat":43.22771,"lon":13.77503,"population":2011,"type":"borgo","visibility":"chicca","tags":[]},{"id":"gn_3167185","name":"San Vito Chietino","country":"IT","lat":42.29014,"lon":14.4427,"population":2009,"type":"borgo","visibility":"chicca","tags":[]},{"id":"gn_8688380","name":"Centinarola","country":"IT","lat":43.83117,"lon":12.98962,"population":2001,"type":"borgo","visibility":"chicca","tags":[]}]}