{"version":"1.1","updated":"2025-12-29","regions":["EU","UK"],"pois":[{"id":"wd_montagna_Q524","name":"Vesuvio","country":"IT","lat":40.82261,"lng":14.42919,"types":["montagna"],"visibility":"conosciuta","beauty_score":0.9446784594707841,"source":"wikidata","wd":"Q524","tags":[]},{"id":"wd_montagna_Q583","name":"Monte Bianco","country":"FR","lat":45.832777777,"lng":6.865,"types":["montagna"],"visibility":"conosciuta","beauty_score":0.9400187915014032,"source":"wikidata","wd":"Q583","tags":[]},{"id":"wd_montagna_Q16990","name":"Etna","country":"IT","lat":37.750834514,"lng":14.993220288,"types":["montagna"],"visibility":"conosciuta","beauty_score":0.933179903688606,"source":"wikidata","wd":"Q16990","tags":[]},{"id":"wd_montagna_Q80344","name":"Olimpo","country":"GR","lat":40.083333333,"lng":22.35,"types":["montagna"],"visibility":"conosciuta","beauty_score":0.9204794194233747,"source":"wikidata","wd":"Q80344","tags":[]},{"id":"wd_natura_Q80344","name":"Olimpo","country":"GR","lat":40.083333333,"lng":22.35,"types":["natura"],"visibility":"conosciuta","beauty_score":0.9204794194233747,"source":"wikidata","wd":"Q80344","tags":[]},{"id":"wd_montagna_Q38954","name":"Teide","country":"ES","lat":28.272638888,"lng":-16.643611111,"types":["montagna"],"visibility":"conosciuta","beauty_score":0.9159330037395828,"source":"wikidata","wd":"Q38954","tags":[]},{"id":"wd_montagna_Q1374","name":"Cervino","country":"IT","lat":45.976388888,"lng":7.658611111,"types":["montagna"],"visibility":"conosciuta","beauty_score":0.8985315898499062,"source":"wikidata","wd":"Q1374","tags":[]},{"id":"wd_montagna_Q130321","name":"Monte Athos","country":"GR","lat":40.158333333,"lng":24.327222222,"types":["montagna"],"visibility":"conosciuta","beauty_score":0.8930653907332132,"source":"wikidata","wd":"Q130321","tags":[]},{"id":"wd_montagna_Q104674","name":"Ben Nevis","country":"UK","lat":56.796891,"lng":-5.003675,"types":["montagna"],"visibility":"conosciuta","beauty_score":0.8797864887533345,"source":"wikidata","wd":"Q104674","tags":[]},{"id":"wd_montagna_Q3375","name":"Zugspitze","country":"AT","lat":47.421217,"lng":10.986314,"types":["montagna"],"visibility":"conosciuta","beauty_score":0.8766278058386217,"source":"wikidata","wd":"Q3375","tags":[]},{"id":"wd_natura_Q189849","name":"parco nazionale dei laghi di Plitvice","country":"HR","lat":44.880445,"lng":15.616035,"types":["natura"],"visibility":"conosciuta","beauty_score":0.8683523376413411,"source":"wikidata","wd":"Q189849","tags":[]},{"id":"wd_mare_Q5595","name":"Penisola di Neringa","country":"LT","lat":55.274444444,"lng":20.970833333,"types":["mare"],"visibility":"conosciuta","beauty_score":0.8613009447562314,"source":"wikidata","wd":"Q5595","tags":[]},{"id":"wd_montagna_Q105261","name":"Parnaso","country":"GR","lat":38.533,"lng":22.6167,"types":["montagna"],"visibility":"conosciuta","beauty_score":0.8594723019517233,"source":"wikidata","wd":"Q105261","tags":[]},{"id":"wd_montagna_Q1024","name":"Monte Tricorno","country":"SI","lat":46.378333,"lng":13.836667,"types":["montagna"],"visibility":"conosciuta","beauty_score":0.8594723019517233,"source":"wikidata","wd":"Q1024","tags":[]},{"id":"wd_montagna_Q3388","name":"Großglockner","country":"AT","lat":47.074528,"lng":12.69385,"types":["montagna"],"visibility":"conosciuta","beauty_score":0.8557303927154885,"source":"wikidata","wd":"Q3388","tags":[]},{"id":"wd_montagna_Q194215","name":"isola Amsterdam","country":"FR","lat":-37.825833333,"lng":77.554722222,"types":["montagna"],"visibility":"conosciuta","beauty_score":0.8538153538470029,"source":"wikidata","wd":"Q194215","tags":[]},{"id":"wd_montagna_Q76309","name":"La Pelée","country":"FR","lat":14.813055555,"lng":-61.165555555,"types":["montagna"],"visibility":"conosciuta","beauty_score":0.8538153538470029,"source":"wikidata","wd":"Q76309","tags":[]},{"id":"wd_natura_Q715124","name":"parco nazionale del Teide","country":"ES","lat":28.276455062,"lng":-16.64266919,"types":["natura"],"visibility":"conosciuta","beauty_score":0.8498923538030148,"source":"wikidata","wd":"Q715124","tags":[]},{"id":"wd_montagna_Q207323","name":"isola di Vulcano","country":"IT","lat":38.4042,"lng":14.9658,"types":["montagna"],"visibility":"conosciuta","beauty_score":0.8478823501074202,"source":"wikidata","wd":"Q207323","tags":[]},{"id":"wd_montagna_Q617511","name":"Sněžka","country":"CZ","lat":50.736111111,"lng":15.740277777,"types":["montagna"],"visibility":"conosciuta","beauty_score":0.8437598381976225,"source":"wikidata","wd":"Q617511","tags":[]},{"id":"wd_montagna_Q672936","name":"Rysy","country":"PL","lat":49.179444444,"lng":20.088055555,"types":["montagna"],"visibility":"conosciuta","beauty_score":0.8416449595882977,"source":"wikidata","wd":"Q672936","tags":[]},{"id":"wd_montagna_Q209341","name":"Mussala","country":"BG","lat":42.179167,"lng":23.585278,"types":["montagna"],"visibility":"conosciuta","beauty_score":0.8394926475617361,"source":"wikidata","wd":"Q209341","tags":[]},{"id":"wd_montagna_Q214011","name":"Kebnekaise","country":"SE","lat":67.883333333,"lng":18.55,"types":["montagna"],"visibility":"conosciuta","beauty_score":0.8394926475617361,"source":"wikidata","wd":"Q214011","tags":[]},{"id":"wd_montagna_Q204821","name":"isola Saint Paul","country":"FR","lat":-38.73,"lng":77.522222222,"types":["montagna"],"visibility":"conosciuta","beauty_score":0.8373015530583883,"source":"wikidata","wd":"Q204821","tags":[]},{"id":"wd_montagna_Q81213","name":"Gerlachovský štít","country":"SK","lat":49.164166666,"lng":20.133888888,"types":["montagna"],"visibility":"conosciuta","beauty_score":0.8373015530583883,"source":"wikidata","wd":"Q81213","tags":[]},{"id":"wd_natura_Q61757","name":"Hortobágy","country":"HU","lat":47.59458,"lng":21.15678,"types":["natura"],"visibility":"conosciuta","beauty_score":0.8373015530583883,"source":"wikidata","wd":"Q61757","tags":[]},{"id":"wd_montagna_Q209528","name":"Mulhacén","country":"ES","lat":37.053333333,"lng":-3.311388888,"types":["montagna"],"visibility":"conosciuta","beauty_score":0.8327972434882209,"source":"wikidata","wd":"Q209528","tags":[]},{"id":"wd_montagna_Q208081","name":"Picco d'Aneto","country":"ES","lat":42.630991666,"lng":0.656686111,"types":["montagna"],"visibility":"conosciuta","beauty_score":0.8304809362177438,"source":"wikidata","wd":"Q208081","tags":[]},{"id":"wd_natura_Q464942","name":"parco nazionale di Garajonay","country":"ES","lat":28.12625,"lng":-17.23722222,"types":["natura"],"visibility":"conosciuta","beauty_score":0.8304809362177438,"source":"wikidata","wd":"Q464942","tags":[]},{"id":"wd_montagna_Q209064","name":"Mont Ventoux","country":"FR","lat":44.166666666,"lng":5.283333333,"types":["montagna"],"visibility":"conosciuta","beauty_score":0.8281196493074221,"source":"wikidata","wd":"Q209064","tags":[]},{"id":"wd_natura_Q651314","name":"parco nazionale del Pirin","country":"BG","lat":41.672222222,"lng":23.487777777,"types":["natura"],"visibility":"conosciuta","beauty_score":0.8281196493074221,"source":"wikidata","wd":"Q651314","tags":[]},{"id":"wd_natura_Q463141","name":"Parco nazionale di Doñana","country":"ES","lat":37.02,"lng":-6.44,"types":["natura"],"visibility":"conosciuta","beauty_score":0.8281196493074221,"source":"wikidata","wd":"Q463141","tags":[]},{"id":"wd_montagna_Q217142","name":"Snowdon","country":"UK","lat":53.068863888,"lng":-4.075588888,"types":["montagna"],"visibility":"conosciuta","beauty_score":0.8257116012140853,"source":"wikidata","wd":"Q217142","tags":[]},{"id":"wd_montagna_Q746524","name":"Monte Moldoveanu","country":"RO","lat":45.599438888,"lng":24.736211111,"types":["montagna"],"visibility":"conosciuta","beauty_score":0.8232549024079838,"source":"wikidata","wd":"Q746524","tags":[]},{"id":"wd_montagna_Q4168","name":"Lorelei","country":"DE","lat":50.139444444,"lng":7.728888888,"types":["montagna"],"visibility":"conosciuta","beauty_score":0.8207475464651645,"source":"wikidata","wd":"Q4168","tags":[]},{"id":"wd_mare_Q5606","name":"Penisola di Hel","country":"PL","lat":54.641666666,"lng":18.781388888,"types":["mare"],"visibility":"conosciuta","beauty_score":0.8181874002220009,"source":"wikidata","wd":"Q5606","tags":[]},{"id":"wd_montagna_Q503368","name":"Carrantuohill","country":"IE","lat":51.998888888,"lng":-9.742777777,"types":["montagna"],"visibility":"conosciuta","beauty_score":0.8181874002220009,"source":"wikidata","wd":"Q503368","tags":[]},{"id":"wd_montagna_Q216035","name":"Halti","country":"FI","lat":69.312777777,"lng":21.285555555,"types":["montagna"],"visibility":"conosciuta","beauty_score":0.8155721928708408,"source":"wikidata","wd":"Q216035","tags":[]},{"id":"wd_montagna_Q747618","name":"Kékes","country":"HU","lat":47.872222222,"lng":20.012777777,"types":["montagna"],"visibility":"conosciuta","beauty_score":0.8155721928708408,"source":"wikidata","wd":"Q747618","tags":[]},{"id":"wd_montagna_Q686841","name":"Hoher Dachstein","country":"AT","lat":47.475168,"lng":13.605735,"types":["montagna"],"visibility":"conosciuta","beauty_score":0.8128995038570963,"source":"wikidata","wd":"Q686841","tags":[]},{"id":"wd_montagna_Q378943","name":"Vitoša","country":"BG","lat":42.566666666,"lng":23.283333333,"types":["montagna"],"visibility":"conosciuta","beauty_score":0.8128995038570963,"source":"wikidata","wd":"Q378943","tags":[]},{"id":"wd_montagna_Q732115","name":"Montserrat","country":"ES","lat":41.605376,"lng":1.811495,"types":["montagna"],"visibility":"conosciuta","beauty_score":0.8128995038570963,"source":"wikidata","wd":"Q732115","tags":[]},{"id":"wd_montagna_Q914225","name":"Isola Inaccessibile","country":"UK","lat":-37.3025,"lng":-12.674444444,"types":["montagna"],"visibility":"conosciuta","beauty_score":0.8128995038570963,"source":"wikidata","wd":"Q914225","tags":[]},{"id":"wd_mare_Q464257","name":"Omaha Beach","country":"FR","lat":49.368888888,"lng":-0.868611111,"types":["mare"],"visibility":"conosciuta","beauty_score":0.8073711675622843,"source":"wikidata","wd":"Q464257","tags":[]},{"id":"wd_montagna_Q819979","name":"Olimpo","country":"CY","lat":34.936666666,"lng":32.863888888,"types":["montagna"],"visibility":"conosciuta","beauty_score":0.8073711675622843,"source":"wikidata","wd":"Q819979","tags":[]},{"id":"wd_montagna_Q607372","name":"Puy de Dôme","country":"FR","lat":45.772,"lng":2.9624,"types":["montagna"],"visibility":"conosciuta","beauty_score":0.8073711675622843,"source":"wikidata","wd":"Q607372","tags":[]},{"id":"wd_montagna_Q215516","name":"Elicona","country":"GR","lat":38.352222222,"lng":22.825,"types":["montagna"],"visibility":"conosciuta","beauty_score":0.8073711675622843,"source":"wikidata","wd":"Q215516","tags":[]},{"id":"wd_montagna_Q1372","name":"Gran Paradiso","country":"IT","lat":45.533333333,"lng":7.266666666,"types":["montagna"],"visibility":"conosciuta","beauty_score":0.8073711675622843,"source":"wikidata","wd":"Q1372","tags":[]},{"id":"wd_montagna_Q928681","name":"Monte Pico","country":"PT","lat":38.468611111,"lng":-28.399166666,"types":["montagna"],"visibility":"conosciuta","beauty_score":0.8073711675622843,"source":"wikidata","wd":"Q928681","tags":[]},{"id":"wd_montagna_Q215662","name":"Monte Perdido","country":"ES","lat":42.673888888,"lng":0.033333333,"types":["montagna"],"visibility":"conosciuta","beauty_score":0.8073711675622843,"source":"wikidata","wd":"Q215662","tags":[]},{"id":"wd_natura_Q1163005","name":"parco nazionale del Tricorno","country":"SI","lat":46.3831,"lng":13.8497,"types":["natura"],"visibility":"conosciuta","beauty_score":0.8073711675622843,"source":"wikidata","wd":"Q1163005","tags":[]},{"id":"wd_montagna_Q404728","name":"Aiguille du Midi","country":"FR","lat":45.878888888,"lng":6.8875,"types":["montagna"],"visibility":"conosciuta","beauty_score":0.8045098013114123,"source":"wikidata","wd":"Q404728","tags":[]},{"id":"wd_montagna_Q155721","name":"Brocken","country":"DE","lat":51.800555555,"lng":10.617222222,"types":["montagna"],"visibility":"conosciuta","beauty_score":0.8045098013114123,"source":"wikidata","wd":"Q155721","tags":[]},{"id":"wd_montagna_Q83659","name":"Monte Ida","country":"GR","lat":35.226388888,"lng":24.770713888,"types":["montagna"],"visibility":"conosciuta","beauty_score":0.8045098013114123,"source":"wikidata","wd":"Q83659","tags":[]},{"id":"wd_natura_Q828155","name":"parco nazionale della Cherca","country":"HR","lat":43.801944444,"lng":15.972777777,"types":["natura"],"visibility":"conosciuta","beauty_score":0.8045098013114123,"source":"wikidata","wd":"Q828155","tags":[]},{"id":"wd_montagna_Q154372","name":"Montecassino","country":"IT","lat":41.49,"lng":13.813888888,"types":["montagna"],"visibility":"conosciuta","beauty_score":0.8015794798815259,"source":"wikidata","wd":"Q154372","tags":[]},{"id":"wd_natura_Q6870388","name":"parco nazionale di Białowieza","country":"PL","lat":52.766666666,"lng":23.866666666,"types":["natura"],"visibility":"conosciuta","beauty_score":0.8015794798815259,"source":"wikidata","wd":"Q6870388","tags":[]},{"id":"wd_natura_Q1080683","name":"parco nazionale di Tatras","country":"SK","lat":49.18027778,"lng":19.91944444,"types":["natura"],"visibility":"conosciuta","beauty_score":0.8015794798815259,"source":"wikidata","wd":"Q1080683","tags":[]},{"id":"wd_natura_Q702489","name":"Parco nazionale di Berchtesgaden","country":"DE","lat":47.57,"lng":12.96,"types":["natura"],"visibility":"conosciuta","beauty_score":0.7985767975718295,"source":"wikidata","wd":"Q702489","tags":[]},{"id":"wd_montagna_Q679277","name":"Wildspitze","country":"AT","lat":46.885277777,"lng":10.867222222,"types":["montagna"],"visibility":"conosciuta","beauty_score":0.7954980899674198,"source":"wikidata","wd":"Q679277","tags":[]},{"id":"wd_montagna_Q322824","name":"Signal de Botrange","country":"BE","lat":50.501667,"lng":6.093056,"types":["montagna"],"visibility":"conosciuta","beauty_score":0.7954980899674198,"source":"wikidata","wd":"Q322824","tags":[]},{"id":"wd_montagna_Q1357713","name":"Licabetto","country":"GR","lat":37.983055555,"lng":23.746944444,"types":["montagna"],"visibility":"conosciuta","beauty_score":0.7954980899674198,"source":"wikidata","wd":"Q1357713","tags":[]},{"id":"wd_montagna_Q1248","name":"Monviso","country":"IT","lat":44.6675,"lng":7.091666666,"types":["montagna"],"visibility":"conosciuta","beauty_score":0.7954980899674198,"source":"wikidata","wd":"Q1248","tags":[]},{"id":"wd_montagna_Q470777","name":"Monte Amiata","country":"IT","lat":42.88775,"lng":11.624369444,"types":["montagna"],"visibility":"conosciuta","beauty_score":0.7954980899674198,"source":"wikidata","wd":"Q470777","tags":[]},{"id":"wd_natura_Q847690","name":"parco nazionale del Gran Paradiso","country":"IT","lat":45.502777777,"lng":7.31,"types":["natura"],"visibility":"conosciuta","beauty_score":0.7954980899674198,"source":"wikidata","wd":"Q847690","tags":[]},{"id":"wd_montagna_Q316401","name":"Feldberg","country":"DE","lat":47.8738905,"lng":8.0039064,"types":["montagna"],"visibility":"conosciuta","beauty_score":0.7923394070527068,"source":"wikidata","wd":"Q316401","tags":[]},{"id":"wd_montagna_Q845239","name":"Soufrière Hills","country":"UK","lat":16.716666666,"lng":-62.183333333,"types":["montagna"],"visibility":"conosciuta","beauty_score":0.7923394070527068,"source":"wikidata","wd":"Q845239","tags":[]},{"id":"wd_montagna_Q1049644","name":"Piton de la Fournaise","country":"FR","lat":-21.2425,"lng":55.708888888,"types":["montagna"],"visibility":"conosciuta","beauty_score":0.7890964827387585,"source":"wikidata","wd":"Q1049644","tags":[]},{"id":"wd_montagna_Q636540","name":"Corno Grande","country":"IT","lat":42.469166666,"lng":13.565555555,"types":["montagna"],"visibility":"conosciuta","beauty_score":0.7890964827387585,"source":"wikidata","wd":"Q636540","tags":[]},{"id":"wd_natura_Q1572525","name":"Słowiński National Park","country":"PL","lat":54.703202777,"lng":17.3069,"types":["natura"],"visibility":"conosciuta","beauty_score":0.7890964827387585,"source":"wikidata","wd":"Q1572525","tags":[]},{"id":"wd_montagna_Q1340711","name":"Mehetia","country":"FR","lat":-17.866666666,"lng":-148.066666666,"types":["montagna"],"visibility":"conosciuta","beauty_score":0.7857647002148405,"source":"wikidata","wd":"Q1340711","tags":[]},{"id":"wd_montagna_Q317074","name":"Vogelsberg","country":"DE","lat":50.533333333,"lng":9.233333333,"types":["montagna"],"visibility":"conosciuta","beauty_score":0.7857647002148405,"source":"wikidata","wd":"Q317074","tags":[]},{"id":"wd_montagna_Q139362","name":"Smólikas","country":"GR","lat":40.089722222,"lng":20.926111111,"types":["montagna"],"visibility":"conosciuta","beauty_score":0.7857647002148405,"source":"wikidata","wd":"Q139362","tags":[]},{"id":"wd_montagna_Q1334825","name":"Monte Pelio","country":"GR","lat":39.433333333,"lng":23.05,"types":["montagna"],"visibility":"conosciuta","beauty_score":0.7857647002148405,"source":"wikidata","wd":"Q1334825","tags":[]},{"id":"wd_natura_Q1507799","name":"Parco nazionale del Paradiso slovacco","country":"SK","lat":48.90833333,"lng":20.4,"types":["natura"],"visibility":"conosciuta","beauty_score":0.7857647002148405,"source":"wikidata","wd":"Q1507799","tags":[]},{"id":"wd_natura_Q953092","name":"parco nazionale Abisko","country":"SE","lat":68.324299485,"lng":18.680730666,"types":["natura"],"visibility":"conosciuta","beauty_score":0.7857647002148405,"source":"wikidata","wd":"Q953092","tags":[]},{"id":"wd_montagna_Q845990","name":"Monte Kriváň","country":"SK","lat":49.1628335,"lng":20.000047,"types":["montagna"],"visibility":"chicca","beauty_score":0.7823390524180772,"source":"wikidata","wd":"Q845990","tags":[]},{"id":"wd_montagna_Q1143757","name":"Monte Cumbre Vieja","country":"ES","lat":28.566666666,"lng":-17.833333333,"types":["montagna"],"visibility":"chicca","beauty_score":0.7823390524180772,"source":"wikidata","wd":"Q1143757","tags":[]},{"id":"wd_montagna_Q1146222","name":"Scafell Pike","country":"UK","lat":54.454166666,"lng":-3.211527777,"types":["montagna"],"visibility":"chicca","beauty_score":0.7823390524180772,"source":"wikidata","wd":"Q1146222","tags":[]},{"id":"wd_natura_Q738435","name":"Parco nazionale dei Pirenei","country":"FR","lat":42.8275,"lng":-0.175833333,"types":["natura"],"visibility":"chicca","beauty_score":0.7823390524180772,"source":"wikidata","wd":"Q738435","tags":[]},{"id":"wd_natura_Q743754","name":"parco nazionale del Gauja","country":"LV","lat":57.41666667,"lng":25.41666667,"types":["natura"],"visibility":"chicca","beauty_score":0.7823390524180772,"source":"wikidata","wd":"Q743754","tags":[]},{"id":"wd_natura_Q741610","name":"parco nazionale di Ordesa e del Monte Perdido","country":"ES","lat":42.671666666,"lng":0.055555555,"types":["natura"],"visibility":"chicca","beauty_score":0.7823390524180772,"source":"wikidata","wd":"Q741610","tags":[]},{"id":"wd_mare_Q757273","name":"Utah Beach","country":"FR","lat":49.415833333,"lng":-1.174722222,"types":["mare"],"visibility":"chicca","beauty_score":0.7788140967718314,"source":"wikidata","wd":"Q757273","tags":[]},{"id":"wd_montagna_Q697907","name":"Großvenediger","country":"AT","lat":47.108889,"lng":12.346389,"types":["montagna"],"visibility":"chicca","beauty_score":0.7788140967718314,"source":"wikidata","wd":"Q697907","tags":[]},{"id":"wd_montagna_Q30453","name":"Grandes Jorasses","country":"FR","lat":45.868081,"lng":6.988918,"types":["montagna"],"visibility":"chicca","beauty_score":0.7788140967718314,"source":"wikidata","wd":"Q30453","tags":[]},{"id":"wd_montagna_Q778597","name":"Puy de Sancy","country":"FR","lat":45.528333333,"lng":2.814166666,"types":["montagna"],"visibility":"chicca","beauty_score":0.7788140967718314,"source":"wikidata","wd":"Q778597","tags":[]},{"id":"wd_montagna_Q15120","name":"Lyskamm","country":"IT","lat":45.9225,"lng":7.835555555,"types":["montagna"],"visibility":"chicca","beauty_score":0.7788140967718314,"source":"wikidata","wd":"Q15120","tags":[]},{"id":"wd_montagna_Q16540","name":"monte Breithorn","country":"IT","lat":45.941111111,"lng":7.747222222,"types":["montagna"],"visibility":"chicca","beauty_score":0.7788140967718314,"source":"wikidata","wd":"Q16540","tags":[]},{"id":"wd_natura_Q748637","name":"parco nazionale di Rila","country":"BG","lat":42.1833,"lng":23.5833,"types":["natura"],"visibility":"chicca","beauty_score":0.7788140967718314,"source":"wikidata","wd":"Q748637","tags":[]},{"id":"wd_natura_Q945780","name":"parco nazionale Sarek","country":"SE","lat":67.288339383,"lng":17.669138525,"types":["natura"],"visibility":"chicca","beauty_score":0.7788140967718314,"source":"wikidata","wd":"Q945780","tags":[]},{"id":"wd_montagna_Q262545","name":"Hochkönig","country":"AT","lat":47.420805555,"lng":13.063166666,"types":["montagna"],"visibility":"chicca","beauty_score":0.7751839031658085,"source":"wikidata","wd":"Q262545","tags":[]},{"id":"wd_montagna_Q260073","name":"Großer Arber","country":"DE","lat":49.1124718,"lng":13.13619,"types":["montagna"],"visibility":"chicca","beauty_score":0.7751839031658085,"source":"wikidata","wd":"Q260073","tags":[]},{"id":"wd_montagna_Q1471677","name":"Monte Ossa","country":"GR","lat":39.8,"lng":22.7,"types":["montagna"],"visibility":"chicca","beauty_score":0.7751839031658085,"source":"wikidata","wd":"Q1471677","tags":[]},{"id":"wd_montagna_Q650695","name":"Ortles","country":"IT","lat":46.508888888,"lng":10.545,"types":["montagna"],"visibility":"chicca","beauty_score":0.7751839031658085,"source":"wikidata","wd":"Q650695","tags":[]},{"id":"wd_montagna_Q833975","name":"Isola Ferdinandea","country":"IT","lat":37.163611,"lng":12.718611,"types":["montagna"],"visibility":"chicca","beauty_score":0.7751839031658085,"source":"wikidata","wd":"Q833975","tags":[]},{"id":"wd_natura_Q174250","name":"Parco nazionale della Vanoise","country":"FR","lat":45.3333,"lng":6.83333,"types":["natura"],"visibility":"chicca","beauty_score":0.7751839031658085,"source":"wikidata","wd":"Q174250","tags":[]},{"id":"wd_natura_Q550389","name":"Parco nazionale della Riunione","country":"FR","lat":-21.15,"lng":55.5,"types":["natura"],"visibility":"chicca","beauty_score":0.7751839031658085,"source":"wikidata","wd":"Q550389","tags":[]},{"id":"wd_natura_Q1368807","name":"Parco nazionale delle Cevenne","country":"FR","lat":44.2,"lng":3.4,"types":["natura"],"visibility":"chicca","beauty_score":0.7751839031658085,"source":"wikidata","wd":"Q1368807","tags":[]},{"id":"wd_natura_Q1573866","name":"parco nazionale di Killarney","country":"IE","lat":52.02099,"lng":-9.50664,"types":["natura"],"visibility":"chicca","beauty_score":0.7751839031658085,"source":"wikidata","wd":"Q1573866","tags":[]},{"id":"wd_natura_Q400200","name":"parco nazionale dell'Aukštaitija","country":"LT","lat":55.344,"lng":26.057,"types":["natura"],"visibility":"chicca","beauty_score":0.7751839031658085,"source":"wikidata","wd":"Q400200","tags":[]},{"id":"wd_natura_Q1539772","name":"parco storico nazionale di Trakai","country":"LT","lat":54.639,"lng":24.9361,"types":["natura"],"visibility":"chicca","beauty_score":0.7751839031658085,"source":"wikidata","wd":"Q1539772","tags":[]},{"id":"wd_natura_Q609353","name":"Tatra National Park","country":"PL","lat":49.25,"lng":19.933333,"types":["natura"],"visibility":"chicca","beauty_score":0.7751839031658085,"source":"wikidata","wd":"Q609353","tags":[]},{"id":"wd_natura_Q1473702","name":"parco nazionale di Peneda-Gerês","country":"PT","lat":41.830713,"lng":-8.23867,"types":["natura"],"visibility":"chicca","beauty_score":0.7751839031658085,"source":"wikidata","wd":"Q1473702","tags":[]},{"id":"wd_natura_Q204931","name":"Parco nazionale di Retezat","country":"RO","lat":45.333333333,"lng":22.833333333,"types":["natura"],"visibility":"chicca","beauty_score":0.7751839031658085,"source":"wikidata","wd":"Q204931","tags":[]},{"id":"wd_montagna_Q255743","name":"Hochwanner","country":"AT","lat":47.395833333,"lng":11.054166666,"types":["montagna"],"visibility":"chicca","beauty_score":0.7714419939295737,"source":"wikidata","wd":"Q255743","tags":[]},{"id":"wd_montagna_Q512465","name":"Monte Orohena","country":"FR","lat":-17.623055555,"lng":-149.476944444,"types":["montagna"],"visibility":"chicca","beauty_score":0.7714419939295737,"source":"wikidata","wd":"Q512465","tags":[]},{"id":"wd_montagna_Q1125206","name":"Monte Pentelico","country":"GR","lat":38.08144,"lng":23.8825,"types":["montagna"],"visibility":"chicca","beauty_score":0.7714419939295737,"source":"wikidata","wd":"Q1125206","tags":[]},{"id":"wd_montagna_Q1232266","name":"Imetto","country":"GR","lat":37.9465,"lng":23.816666666,"types":["montagna"],"visibility":"chicca","beauty_score":0.7714419939295737,"source":"wikidata","wd":"Q1232266","tags":[]},{"id":"wd_montagna_Q771431","name":"Aukštojas","country":"LT","lat":54.529444444,"lng":25.634444444,"types":["montagna"],"visibility":"chicca","beauty_score":0.7714419939295737,"source":"wikidata","wd":"Q771431","tags":[]},{"id":"wd_montagna_Q595780","name":"Babia hora","country":"PL","lat":49.573055555,"lng":19.530555555,"types":["montagna"],"visibility":"chicca","beauty_score":0.7714419939295737,"source":"wikidata","wd":"Q595780","tags":[]},{"id":"wd_montagna_Q473169","name":"Pico Ruivo","country":"PT","lat":32.758733333,"lng":-16.942255555,"types":["montagna"],"visibility":"chicca","beauty_score":0.7714419939295737,"source":"wikidata","wd":"Q473169","tags":[]},{"id":"wd_montagna_Q166972","name":"isola di Zavodovski","country":"UK","lat":-56.3,"lng":-27.58,"types":["montagna"],"visibility":"chicca","beauty_score":0.7714419939295737,"source":"wikidata","wd":"Q166972","tags":[]},{"id":"wd_natura_Q938172","name":"parco nazionale di Lemmenjoki","country":"FI","lat":68.61185,"lng":25.87152,"types":["natura"],"visibility":"chicca","beauty_score":0.7714419939295737,"source":"wikidata","wd":"Q938172","tags":[]},{"id":"wd_natura_Q476446","name":"parco nazionale degli Écrins","country":"FR","lat":44.855833333,"lng":6.263611111,"types":["natura"],"visibility":"chicca","beauty_score":0.7714419939295737,"source":"wikidata","wd":"Q476446","tags":[]},{"id":"wd_natura_Q705097","name":"Parco nazionale dell'Eifel","country":"DE","lat":50.6167,"lng":6.43333,"types":["natura"],"visibility":"chicca","beauty_score":0.7714419939295737,"source":"wikidata","wd":"Q705097","tags":[]},{"id":"wd_natura_Q516668","name":"parco nazionale di Aggtelek","country":"HU","lat":48.466666666,"lng":20.483333333,"types":["natura"],"visibility":"chicca","beauty_score":0.7714419939295737,"source":"wikidata","wd":"Q516668","tags":[]},{"id":"wd_natura_Q1643261","name":"Slītere National Park","country":"LV","lat":57.62416667,"lng":22.29444444,"types":["natura"],"visibility":"chicca","beauty_score":0.7714419939295737,"source":"wikidata","wd":"Q1643261","tags":[]},{"id":"wd_natura_Q613888","name":"Bieszczady","country":"PL","lat":49.1125,"lng":22.664722222,"types":["natura"],"visibility":"chicca","beauty_score":0.7714419939295737,"source":"wikidata","wd":"Q613888","tags":[]},{"id":"wd_natura_Q1025953","name":"parco nazionale di Cairngorms","country":"UK","lat":57.0833,"lng":-3.66667,"types":["natura"],"visibility":"chicca","beauty_score":0.7714419939295737,"source":"wikidata","wd":"Q1025953","tags":[]},{"id":"wd_mare_Q832409","name":"Juno Beach","country":"FR","lat":49.335277777,"lng":-0.415277777,"types":["mare"],"visibility":"chicca","beauty_score":0.7675812742735963,"source":"wikidata","wd":"Q832409","tags":[]},{"id":"wd_montagna_Q30480","name":"Barre des Écrins","country":"FR","lat":44.916666666,"lng":6.333333333,"types":["montagna"],"visibility":"chicca","beauty_score":0.7675812742735963,"source":"wikidata","wd":"Q30480","tags":[]},{"id":"wd_montagna_Q1149310","name":"La Grande Soufrière","country":"FR","lat":16.0438,"lng":-61.6634,"types":["montagna"],"visibility":"chicca","beauty_score":0.7675812742735963,"source":"wikidata","wd":"Q1149310","tags":[]},{"id":"wd_montagna_Q1545452","name":"Piton des Neiges","country":"FR","lat":-21.098888888,"lng":55.478888888,"types":["montagna"],"visibility":"chicca","beauty_score":0.7675812742735963,"source":"wikidata","wd":"Q1545452","tags":[]},{"id":"wd_montagna_Q2071883","name":"Caldera di Santorini","country":"GR","lat":36.403611,"lng":25.396389,"types":["montagna"],"visibility":"chicca","beauty_score":0.7675812742735963,"source":"wikidata","wd":"Q2071883","tags":[]},{"id":"wd_montagna_Q203353","name":"Pico Almanzor","country":"ES","lat":40.246666666,"lng":-5.297777777,"types":["montagna"],"visibility":"chicca","beauty_score":0.7675812742735963,"source":"wikidata","wd":"Q203353","tags":[]},{"id":"wd_montagna_Q658271","name":"Tibidabo","country":"ES","lat":41.4225,"lng":2.118611111,"types":["montagna"],"visibility":"chicca","beauty_score":0.7675812742735963,"source":"wikidata","wd":"Q658271","tags":[]},{"id":"wd_montagna_Q1122701","name":"Montjuïc","country":"ES","lat":41.364166666,"lng":2.158055555,"types":["montagna"],"visibility":"chicca","beauty_score":0.7675812742735963,"source":"wikidata","wd":"Q1122701","tags":[]},{"id":"wd_montagna_Q712311","name":"Arthur's Seat","country":"UK","lat":55.944166666,"lng":-3.161944444,"types":["montagna"],"visibility":"chicca","beauty_score":0.7675812742735963,"source":"wikidata","wd":"Q712311","tags":[]},{"id":"wd_natura_Q1535042","name":"parco nazionale del Mercantour","country":"FR","lat":44.16666667,"lng":7.08333333,"types":["natura"],"visibility":"chicca","beauty_score":0.7675812742735963,"source":"wikidata","wd":"Q1535042","tags":[]},{"id":"wd_natura_Q702495","name":"Parco nazionale della Müritz","country":"DE","lat":53.4364,"lng":12.8367,"types":["natura"],"visibility":"chicca","beauty_score":0.7675812742735963,"source":"wikidata","wd":"Q702495","tags":[]},{"id":"wd_natura_Q867361","name":"Parco nazionale del Cilento, Vallo di Diano e Alburni","country":"IT","lat":40.2,"lng":15.2,"types":["natura"],"visibility":"chicca","beauty_score":0.7675812742735963,"source":"wikidata","wd":"Q867361","tags":[]},{"id":"wd_natura_Q620392","name":"Parco nazionale di Wolin","country":"PL","lat":53.9426344,"lng":14.5075161,"types":["natura"],"visibility":"chicca","beauty_score":0.7675812742735963,"source":"wikidata","wd":"Q620392","tags":[]},{"id":"wd_natura_Q1480521","name":"parco nazionale Timanfaya","country":"ES","lat":29.011388888,"lng":-13.779722222,"types":["natura"],"visibility":"chicca","beauty_score":0.7675812742735963,"source":"wikidata","wd":"Q1480521","tags":[]},{"id":"wd_montagna_Q665130","name":"Monte Dolent","country":"FR","lat":45.9225,"lng":7.046111111,"types":["montagna"],"visibility":"chicca","beauty_score":0.7635939513215055,"source":"wikidata","wd":"Q665130","tags":[]},{"id":"wd_montagna_Q30459","name":"Dent d'Hérens","country":"IT","lat":45.970055555,"lng":7.605083333,"types":["montagna"],"visibility":"chicca","beauty_score":0.7635939513215055,"source":"wikidata","wd":"Q30459","tags":[]},{"id":"wd_montagna_Q943209","name":"Solfatara di Pozzuoli","country":"IT","lat":40.82722222,"lng":14.13916667,"types":["montagna"],"visibility":"chicca","beauty_score":0.7635939513215055,"source":"wikidata","wd":"Q943209","tags":[]},{"id":"wd_natura_Q1887045","name":"parco nazionale dei Balcani Centrali","country":"BG","lat":42.72027778,"lng":24.78138889,"types":["natura"],"visibility":"chicca","beauty_score":0.7635939513215055,"source":"wikidata","wd":"Q1887045","tags":[]},{"id":"wd_natura_Q732723","name":"parco nazionale di Paklenica","country":"HR","lat":44.44359,"lng":15.29022,"types":["natura"],"visibility":"chicca","beauty_score":0.7635939513215055,"source":"wikidata","wd":"Q732723","tags":[]},{"id":"wd_natura_Q679173","name":"parco nazionale di Jasmund","country":"DE","lat":54.55,"lng":13.65,"types":["natura"],"visibility":"chicca","beauty_score":0.7635939513215055,"source":"wikidata","wd":"Q679173","tags":[]},{"id":"wd_natura_Q702528","name":"Parco nazionale di Hainich","country":"DE","lat":51.0967,"lng":10.3908,"types":["natura"],"visibility":"chicca","beauty_score":0.7635939513215055,"source":"wikidata","wd":"Q702528","tags":[]},{"id":"wd_natura_Q609383","name":"Parco nazionale del fiume Biebrza","country":"PL","lat":53.4666,"lng":22.6613,"types":["natura"],"visibility":"chicca","beauty_score":0.7635939513215055,"source":"wikidata","wd":"Q609383","tags":[]},{"id":"wd_natura_Q48567","name":"parco nazionale dei Picos de Europa","country":"ES","lat":43.21,"lng":-4.84,"types":["natura"],"visibility":"chicca","beauty_score":0.7635939513215055,"source":"wikidata","wd":"Q48567","tags":[]},{"id":"wd_mare_Q1138519","name":"Sword Beach","country":"FR","lat":49.306388888,"lng":-0.321111111,"types":["mare"],"visibility":"chicca","beauty_score":0.7594714394117077,"source":"wikidata","wd":"Q1138519","tags":[]},{"id":"wd_montagna_Q668012","name":"Kitzsteinhorn","country":"AT","lat":47.188055555,"lng":12.6875,"types":["montagna"],"visibility":"chicca","beauty_score":0.7594714394117077,"source":"wikidata","wd":"Q668012","tags":[]},{"id":"wd_montagna_Q16588","name":"Piz Buin","country":"AT","lat":46.84412,"lng":10.11889,"types":["montagna"],"visibility":"chicca","beauty_score":0.7594714394117077,"source":"wikidata","wd":"Q16588","tags":[]},{"id":"wd_montagna_Q6650","name":"Canigou","country":"FR","lat":42.518901928,"lng":2.456559641,"types":["montagna"],"visibility":"chicca","beauty_score":0.7594714394117077,"source":"wikidata","wd":"Q6650","tags":[]},{"id":"wd_montagna_Q1348903","name":"Vignemale","country":"FR","lat":42.773888888,"lng":-0.1475,"types":["montagna"],"visibility":"chicca","beauty_score":0.7594714394117077,"source":"wikidata","wd":"Q1348903","tags":[]},{"id":"wd_montagna_Q1285400","name":"Gramos","country":"GR","lat":40.333333333,"lng":20.75,"types":["montagna"],"visibility":"chicca","beauty_score":0.7594714394117077,"source":"wikidata","wd":"Q1285400","tags":[]},{"id":"wd_montagna_Q1448901","name":"Pangeo","country":"GR","lat":40.899166666,"lng":24.083611111,"types":["montagna"],"visibility":"chicca","beauty_score":0.7594714394117077,"source":"wikidata","wd":"Q1448901","tags":[]},{"id":"wd_montagna_Q628687","name":"Croagh Patrick","country":"IE","lat":53.7595,"lng":-9.6584,"types":["montagna"],"visibility":"chicca","beauty_score":0.7594714394117077,"source":"wikidata","wd":"Q628687","tags":[]},{"id":"wd_montagna_Q1072105","name":"Lomnický štít","country":"SK","lat":49.2,"lng":20.212777777,"types":["montagna"],"visibility":"chicca","beauty_score":0.7594714394117077,"source":"wikidata","wd":"Q1072105","tags":[]},{"id":"wd_montagna_Q1130287","name":"Monte Hacho","country":"ES","lat":35.8969252,"lng":-5.2867421,"types":["montagna"],"visibility":"chicca","beauty_score":0.7594714394117077,"source":"wikidata","wd":"Q1130287","tags":[]},{"id":"wd_natura_Q864799","name":"parco nazionale della Selva boema","country":"CZ","lat":49.060643055,"lng":13.482478888,"types":["natura"],"visibility":"chicca","beauty_score":0.7594714394117077,"source":"wikidata","wd":"Q864799","tags":[]},{"id":"wd_natura_Q1537700","name":"parco nazionale Urho Kekkonen","country":"FI","lat":68.33878,"lng":28.34516,"types":["natura"],"visibility":"chicca","beauty_score":0.7594714394117077,"source":"wikidata","wd":"Q1537700","tags":[]},{"id":"wd_natura_Q702540","name":"Parco nazionale dell'Harz","country":"DE","lat":51.7833,"lng":10.5667,"types":["natura"],"visibility":"chicca","beauty_score":0.7594714394117077,"source":"wikidata","wd":"Q702540","tags":[]},{"id":"wd_natura_Q704124","name":"Parco nazionale della Foresta Bavarese","country":"DE","lat":48.966666666,"lng":13.383333333,"types":["natura"],"visibility":"chicca","beauty_score":0.7594714394117077,"source":"wikidata","wd":"Q704124","tags":[]},{"id":"wd_natura_Q1989158","name":"parco nazionale del Pindo","country":"GR","lat":39.9,"lng":21.11666667,"types":["natura"],"visibility":"chicca","beauty_score":0.7594714394117077,"source":"wikidata","wd":"Q1989158","tags":[]},{"id":"wd_natura_Q606000","name":"parco nazionale Babia Góra","country":"PL","lat":49.587777777,"lng":19.539722222,"types":["natura"],"visibility":"chicca","beauty_score":0.7594714394117077,"source":"wikidata","wd":"Q606000","tags":[]},{"id":"wd_natura_Q619061","name":"Parco Nazionale di Kampinos","country":"PL","lat":52.31666667,"lng":20.56666667,"types":["natura"],"visibility":"chicca","beauty_score":0.7594714394117077,"source":"wikidata","wd":"Q619061","tags":[]},{"id":"wd_natura_Q1767601","name":"Parco nazionale dei Bassi Tatra","country":"SK","lat":48.92555556,"lng":19.6325,"types":["natura"],"visibility":"chicca","beauty_score":0.7594714394117077,"source":"wikidata","wd":"Q1767601","tags":[]},{"id":"wd_mare_Q745883","name":"Gold Beach","country":"FR","lat":49.345277777,"lng":-0.571666666,"types":["mare"],"visibility":"chicca","beauty_score":0.7552042487758214,"source":"wikidata","wd":"Q745883","tags":[]},{"id":"wd_montagna_Q427604","name":"Petřín","country":"CZ","lat":50.081666666,"lng":14.394444444,"types":["montagna"],"visibility":"chicca","beauty_score":0.7552042487758214,"source":"wikidata","wd":"Q427604","tags":[]},{"id":"wd_montagna_Q775676","name":"Otri","country":"GR","lat":39.016944444,"lng":22.709722222,"types":["montagna"],"visibility":"chicca","beauty_score":0.7552042487758214,"source":"wikidata","wd":"Q775676","tags":[]},{"id":"wd_montagna_Q665042","name":"Piz Palü","country":"IT","lat":46.378333333,"lng":9.960555555,"types":["montagna"],"visibility":"chicca","beauty_score":0.7552042487758214,"source":"wikidata","wd":"Q665042","tags":[]},{"id":"wd_montagna_Q1496690","name":"Gaztelugatxe","country":"ES","lat":43.447,"lng":-2.785,"types":["montagna"],"visibility":"chicca","beauty_score":0.7552042487758214,"source":"wikidata","wd":"Q1496690","tags":[]},{"id":"wd_natura_Q591878","name":"parco nazionale del Velebit settentrionale","country":"HR","lat":44.69305556,"lng":15.00694444,"types":["natura"],"visibility":"chicca","beauty_score":0.7552042487758214,"source":"wikidata","wd":"Q591878","tags":[]},{"id":"wd_natura_Q1737079","name":"parco nazionale di Kauhaneva-Pohjankangas","country":"FI","lat":62.177277777,"lng":22.412583333,"types":["natura"],"visibility":"chicca","beauty_score":0.7552042487758214,"source":"wikidata","wd":"Q1737079","tags":[]},{"id":"wd_natura_Q702566","name":"Parco nazionale della Svizzera Sassone","country":"DE","lat":50.9142,"lng":14.2784,"types":["natura"],"visibility":"chicca","beauty_score":0.7552042487758214,"source":"wikidata","wd":"Q702566","tags":[]},{"id":"wd_natura_Q1438999","name":"Parco nazionale d'Abruzzo, Lazio e Molise","country":"IT","lat":41.808388888,"lng":13.786472222,"types":["natura"],"visibility":"chicca","beauty_score":0.7552042487758214,"source":"wikidata","wd":"Q1438999","tags":[]},{"id":"wd_natura_Q549295","name":"Rāzna National Park","country":"LV","lat":56.26666667,"lng":27.5,"types":["natura"],"visibility":"chicca","beauty_score":0.7552042487758214,"source":"wikidata","wd":"Q549295","tags":[]},{"id":"wd_natura_Q1395739","name":"Ķemeri National Park","country":"LV","lat":56.9517,"lng":23.5125,"types":["natura"],"visibility":"chicca","beauty_score":0.7552042487758214,"source":"wikidata","wd":"Q1395739","tags":[]},{"id":"wd_natura_Q619007","name":"Parco Nazionale di Ojcow","country":"PL","lat":50.206667,"lng":19.829167,"types":["natura"],"visibility":"chicca","beauty_score":0.7552042487758214,"source":"wikidata","wd":"Q619007","tags":[]},{"id":"wd_natura_Q625500","name":"Parco nazionale Pieniny","country":"PL","lat":49.416667,"lng":20.366667,"types":["natura"],"visibility":"chicca","beauty_score":0.7552042487758214,"source":"wikidata","wd":"Q625500","tags":[]},{"id":"wd_natura_Q117583","name":"parco nazionale di Cabañeros","country":"ES","lat":39.396388888,"lng":-4.487222222,"types":["natura"],"visibility":"chicca","beauty_score":0.7552042487758214,"source":"wikidata","wd":"Q117583","tags":[]},{"id":"wd_natura_Q1470066","name":"parco nazionale di Aigüestortes i Estany de Sant Maurici","country":"ES","lat":42.57722222,"lng":0.94777778,"types":["natura"],"visibility":"chicca","beauty_score":0.7552042487758214,"source":"wikidata","wd":"Q1470066","tags":[]},{"id":"wd_natura_Q1968939","name":"parco nazionale di Monfragüe","country":"ES","lat":39.82,"lng":-5.97,"types":["natura"],"visibility":"chicca","beauty_score":0.7552042487758214,"source":"wikidata","wd":"Q1968939","tags":[]},{"id":"wd_natura_Q116661","name":"parco nazionale del Loch Lomond et des Trossachs","country":"UK","lat":56.25,"lng":-4.61667,"types":["natura"],"visibility":"chicca","beauty_score":0.7552042487758214,"source":"wikidata","wd":"Q116661","tags":[]},{"id":"wd_mare_Q1142729","name":"Costa bulgara del mar Nero","country":"BG","lat":42.368,"lng":27.708,"types":["mare"],"visibility":"chicca","beauty_score":0.7507818539645165,"source":"wikidata","wd":"Q1142729","tags":[]},{"id":"wd_mare_Q1929363","name":"spiaggia di Inglés","country":"ES","lat":27.75,"lng":-15.58056,"types":["mare"],"visibility":"chicca","beauty_score":0.7507818539645165,"source":"wikidata","wd":"Q1929363","tags":[]},{"id":"wd_mare_Q2720154","name":"spiaggia di La Concha","country":"ES","lat":43.315199999,"lng":-1.991499999,"types":["mare"],"visibility":"chicca","beauty_score":0.7507818539645165,"source":"wikidata","wd":"Q2720154","tags":[]},{"id":"wd_montagna_Q3042478","name":"Belogradchik Rocks","country":"BG","lat":43.62083333,"lng":22.685,"types":["montagna"],"visibility":"chicca","beauty_score":0.7507818539645165,"source":"wikidata","wd":"Q3042478","tags":[]},{"id":"wd_montagna_Q674016","name":"Praděd","country":"CZ","lat":50.083194444,"lng":17.230861111,"types":["montagna"],"visibility":"chicca","beauty_score":0.7507818539645165,"source":"wikidata","wd":"Q674016","tags":[]},{"id":"wd_montagna_Q30466","name":"Aiguille Verte","country":"FR","lat":45.934722222,"lng":6.97,"types":["montagna"],"visibility":"chicca","beauty_score":0.7507818539645165,"source":"wikidata","wd":"Q30466","tags":[]},{"id":"wd_montagna_Q1415428","name":"Monte Cinto","country":"FR","lat":42.379722222,"lng":8.945833333,"types":["montagna"],"visibility":"chicca","beauty_score":0.7507818539645165,"source":"wikidata","wd":"Q1415428","tags":[]},{"id":"wd_montagna_Q132378","name":"monte Eta","country":"GR","lat":38.816666666,"lng":22.283333333,"types":["montagna"],"visibility":"chicca","beauty_score":0.7507818539645165,"source":"wikidata","wd":"Q132378","tags":[]},{"id":"wd_montagna_Q1232572","name":"Monte Cillene","country":"GR","lat":37.939166666,"lng":22.396666666,"types":["montagna"],"visibility":"chicca","beauty_score":0.7507818539645165,"source":"wikidata","wd":"Q1232572","tags":[]},{"id":"wd_montagna_Q2005416","name":"Tymfi","country":"GR","lat":39.997222222,"lng":20.813888888,"types":["montagna"],"visibility":"chicca","beauty_score":0.7507818539645165,"source":"wikidata","wd":"Q2005416","tags":[]},{"id":"wd_montagna_Q15296","name":"Monte Leone","country":"IT","lat":46.249444444,"lng":8.11,"types":["montagna"],"visibility":"chicca","beauty_score":0.7507818539645165,"source":"wikidata","wd":"Q15296","tags":[]},{"id":"wd_montagna_Q1420262","name":"Pico del Veleta","country":"ES","lat":37.056027777,"lng":-3.365688888,"types":["montagna"],"visibility":"chicca","beauty_score":0.7507818539645165,"source":"wikidata","wd":"Q1420262","tags":[]},{"id":"wd_natura_Q369655","name":"Parco Nazionale Gesäuse","country":"AT","lat":47.5922,"lng":14.6489,"types":["natura"],"visibility":"chicca","beauty_score":0.7507818539645165,"source":"wikidata","wd":"Q369655","tags":[]},{"id":"wd_natura_Q474886","name":"parco nazionale Danubio-Auen","country":"AT","lat":48.1833,"lng":16.7167,"types":["natura"],"visibility":"chicca","beauty_score":0.7507818539645165,"source":"wikidata","wd":"Q474886","tags":[]},{"id":"wd_natura_Q631183","name":"parco nazionale di Risnjak","country":"HR","lat":45.431,"lng":14.651,"types":["natura"],"visibility":"chicca","beauty_score":0.7507818539645165,"source":"wikidata","wd":"Q631183","tags":[]},{"id":"wd_natura_Q897334","name":"Danube-Drava National Park","country":"HU","lat":46.08635,"lng":18.22636,"types":["natura"],"visibility":"chicca","beauty_score":0.7507818539645165,"source":"wikidata","wd":"Q897334","tags":[]},{"id":"wd_natura_Q1126279","name":"parco nazionale di Connemara","country":"IE","lat":53.55111111,"lng":-9.94472222,"types":["natura"],"visibility":"chicca","beauty_score":0.7507818539645165,"source":"wikidata","wd":"Q1126279","tags":[]},{"id":"wd_natura_Q1072838","name":"parco nazionale del Pollino","country":"IT","lat":39.931111111,"lng":16.126111111,"types":["natura"],"visibility":"chicca","beauty_score":0.7507818539645165,"source":"wikidata","wd":"Q1072838","tags":[]},{"id":"wd_natura_Q625105","name":"Parco nazionale della Polesia","country":"PL","lat":51.416388888,"lng":23.173333333,"types":["natura"],"visibility":"chicca","beauty_score":0.7507818539645165,"source":"wikidata","wd":"Q625105","tags":[]},{"id":"wd_natura_Q607612","name":"parco nazionale Poloniny","country":"SK","lat":49.07138889,"lng":22.53361111,"types":["natura"],"visibility":"chicca","beauty_score":0.7507818539645165,"source":"wikidata","wd":"Q607612","tags":[]},{"id":"wd_natura_Q1520216","name":"parco nazionale delle Tablas de Daimiel","country":"ES","lat":39.1449,"lng":-3.702,"types":["natura"],"visibility":"chicca","beauty_score":0.7507818539645165,"source":"wikidata","wd":"Q1520216","tags":[]},{"id":"wd_natura_Q1505447","name":"parco nazionale Stora Sjöfallet","country":"SE","lat":67.566898179,"lng":17.993649696,"types":["natura"],"visibility":"chicca","beauty_score":0.7507818539645165,"source":"wikidata","wd":"Q1505447","tags":[]},{"id":"wd_natura_Q15052206","name":"parco nazionale di Bannau Brycheiniog","country":"UK","lat":51.88333333,"lng":-3.4,"types":["natura"],"visibility":"chicca","beauty_score":0.7507818539645165,"source":"wikidata","wd":"Q15052206","tags":[]},{"id":"wd_mare_Q2460851","name":"Navagio","country":"GR","lat":37.859598197,"lng":20.624872874,"types":["mare"],"visibility":"chicca","beauty_score":0.746192537431829,"source":"wikidata","wd":"Q2460851","tags":[]},{"id":"wd_montagna_Q701904","name":"Hochstuhl","country":"AT","lat":46.433888888,"lng":14.173888888,"types":["montagna"],"visibility":"chicca","beauty_score":0.746192537431829,"source":"wikidata","wd":"Q701904","tags":[]},{"id":"wd_montagna_Q697119","name":"Kahlenberg","country":"AT","lat":48.2761,"lng":16.3333,"types":["montagna"],"visibility":"chicca","beauty_score":0.746192537431829,"source":"wikidata","wd":"Q697119","tags":[]},{"id":"wd_montagna_Q762945","name":"Ruka","country":"FI","lat":66.165555555,"lng":29.151666666,"types":["montagna"],"visibility":"chicca","beauty_score":0.746192537431829,"source":"wikidata","wd":"Q762945","tags":[]},{"id":"wd_montagna_Q1547142","name":"Nea Kameni","country":"GR","lat":36.4,"lng":25.4,"types":["montagna"],"visibility":"chicca","beauty_score":0.746192537431829,"source":"wikidata","wd":"Q1547142","tags":[]},{"id":"wd_montagna_Q1363703","name":"Monte Erimanto","country":"GR","lat":37.852777777,"lng":21.8225,"types":["montagna"],"visibility":"chicca","beauty_score":0.746192537431829,"source":"wikidata","wd":"Q1363703","tags":[]},{"id":"wd_montagna_Q514648","name":"Lugnaquilla","country":"IE","lat":52.966,"lng":-6.463,"types":["montagna"],"visibility":"chicca","beauty_score":0.746192537431829,"source":"wikidata","wd":"Q514648","tags":[]},{"id":"wd_montagna_Q30423","name":"Ludwigshöhe","country":"IT","lat":45.91666667,"lng":7.86388889,"types":["montagna"],"visibility":"chicca","beauty_score":0.746192537431829,"source":"wikidata","wd":"Q30423","tags":[]},{"id":"wd_montagna_Q30446","name":"Castore","country":"IT","lat":45.920861111,"lng":7.793330555,"types":["montagna"],"visibility":"chicca","beauty_score":0.746192537431829,"source":"wikidata","wd":"Q30446","tags":[]},{"id":"wd_montagna_Q1094438","name":"Monte Civetta","country":"IT","lat":46.38,"lng":12.053333333,"types":["montagna"],"visibility":"chicca","beauty_score":0.746192537431829,"source":"wikidata","wd":"Q1094438","tags":[]},{"id":"wd_montagna_Q385753","name":"punta La Marmora","country":"IT","lat":39.988055555,"lng":9.324166666,"types":["montagna"],"visibility":"chicca","beauty_score":0.746192537431829,"source":"wikidata","wd":"Q385753","tags":[]},{"id":"wd_montagna_Q387148","name":"Ślęża","country":"PL","lat":50.865016944,"lng":16.708816944,"types":["montagna"],"visibility":"chicca","beauty_score":0.746192537431829,"source":"wikidata","wd":"Q387148","tags":[]},{"id":"wd_montagna_Q1478880","name":"Peñalara","country":"ES","lat":40.850013,"lng":-3.956008,"types":["montagna"],"visibility":"chicca","beauty_score":0.746192537431829,"source":"wikidata","wd":"Q1478880","tags":[]},{"id":"wd_montagna_Q151445","name":"Bass Rock","country":"UK","lat":56.08,"lng":-2.64,"types":["montagna"],"visibility":"chicca","beauty_score":0.746192537431829,"source":"wikidata","wd":"Q151445","tags":[]},{"id":"wd_montagna_Q816556","name":"Ben Lomond","country":"UK","lat":56.190293,"lng":-4.633009,"types":["montagna"],"visibility":"chicca","beauty_score":0.746192537431829,"source":"wikidata","wd":"Q816556","tags":[]},{"id":"wd_montagna_Q550163","name":"Slieve Donard","country":"UK","lat":54.180277777,"lng":-5.920833333,"types":["montagna"],"visibility":"chicca","beauty_score":0.746192537431829,"source":"wikidata","wd":"Q550163","tags":[]},{"id":"wd_natura_Q686047","name":"parco nazionale Kalkalpen","country":"AT","lat":47.79,"lng":14.37361111,"types":["natura"],"visibility":"chicca","beauty_score":0.746192537431829,"source":"wikidata","wd":"Q686047","tags":[]},{"id":"wd_natura_Q1851195","name":"parco nazionale di Pallas-Yllästunturi","country":"FI","lat":68.0931,"lng":24.01989,"types":["natura"],"visibility":"chicca","beauty_score":0.746192537431829,"source":"wikidata","wd":"Q1851195","tags":[]},{"id":"wd_natura_Q665459","name":"parco amazzonico della Guyana francese","country":"FR","lat":2.83833333,"lng":-53.77222222,"types":["natura"],"visibility":"chicca","beauty_score":0.746192537431829,"source":"wikidata","wd":"Q665459","tags":[]},{"id":"wd_natura_Q661217","name":"Parco nazionale del Wattenmeer della Bassa Sassonia","country":"DE","lat":53.7,"lng":7.33333333,"types":["natura"],"visibility":"chicca","beauty_score":0.746192537431829,"source":"wikidata","wd":"Q661217","tags":[]},{"id":"wd_natura_Q922898","name":"Kiskunság National Park","country":"HU","lat":46.74,"lng":19.22,"types":["natura"],"visibility":"chicca","beauty_score":0.746192537431829,"source":"wikidata","wd":"Q922898","tags":[]},{"id":"wd_natura_Q386630","name":"Parco nazionale di Őrség","country":"HU","lat":46.8389,"lng":16.4211,"types":["natura"],"visibility":"chicca","beauty_score":0.746192537431829,"source":"wikidata","wd":"Q386630","tags":[]},{"id":"wd_natura_Q855548","name":"parco nazionale di Bükk","country":"HU","lat":48.04,"lng":20.53,"types":["natura"],"visibility":"chicca","beauty_score":0.746192537431829,"source":"wikidata","wd":"Q855548","tags":[]},{"id":"wd_natura_Q140033","name":"parco nazionale di Glenveagh","country":"IE","lat":55.016666666,"lng":-8.05,"types":["natura"],"visibility":"chicca","beauty_score":0.746192537431829,"source":"wikidata","wd":"Q140033","tags":[]},{"id":"wd_natura_Q738428","name":"parco nazionale di Dzūkija","country":"LT","lat":54.08194444,"lng":24.37666667,"types":["natura"],"visibility":"chicca","beauty_score":0.746192537431829,"source":"wikidata","wd":"Q738428","tags":[]},{"id":"wd_natura_Q618174","name":"Gorce National Park","country":"PL","lat":49.558333333,"lng":20.1625,"types":["natura"],"visibility":"chicca","beauty_score":0.746192537431829,"source":"wikidata","wd":"Q618174","tags":[]},{"id":"wd_natura_Q620407","name":"Parco Nazionale Wigry","country":"PL","lat":54,"lng":23.05,"types":["natura"],"visibility":"chicca","beauty_score":0.746192537431829,"source":"wikidata","wd":"Q620407","tags":[]},{"id":"wd_natura_Q1783680","name":"Parco nazionale Pieniny","country":"SK","lat":49.4,"lng":20.456944444,"types":["natura"],"visibility":"chicca","beauty_score":0.746192537431829,"source":"wikidata","wd":"Q1783680","tags":[]},{"id":"wd_natura_Q1969050","name":"parco nazionale della Sierra Nevada","country":"ES","lat":37.1,"lng":-3.09,"types":["natura"],"visibility":"chicca","beauty_score":0.746192537431829,"source":"wikidata","wd":"Q1969050","tags":[]},{"id":"wd_natura_Q569960","name":"parco nazionale Hamra","country":"SE","lat":61.756866112,"lng":14.807980747,"types":["natura"],"visibility":"chicca","beauty_score":0.746192537431829,"source":"wikidata","wd":"Q569960","tags":[]},{"id":"wd_natura_Q580404","name":"parco nazionale Muddus","country":"SE","lat":66.916315609,"lng":20.197333508,"types":["natura"],"visibility":"chicca","beauty_score":0.746192537431829,"source":"wikidata","wd":"Q580404","tags":[]},{"id":"wd_natura_Q666044","name":"parco nazionale Pieljekaise","country":"SE","lat":66.354300785,"lng":16.768257591,"types":["natura"],"visibility":"chicca","beauty_score":0.746192537431829,"source":"wikidata","wd":"Q666044","tags":[]},{"id":"wd_natura_Q691597","name":"parco nazionale Sånfjället","country":"SE","lat":62.277494331,"lng":13.551749514,"types":["natura"],"visibility":"chicca","beauty_score":0.746192537431829,"source":"wikidata","wd":"Q691597","tags":[]},{"id":"wd_natura_Q761264","name":"parco nazionale Fulufjället","country":"SE","lat":61.545606648,"lng":12.739430291,"types":["natura"],"visibility":"chicca","beauty_score":0.746192537431829,"source":"wikidata","wd":"Q761264","tags":[]},{"id":"wd_natura_Q582205","name":"parco nazionale del Northumberland","country":"UK","lat":55.316666666,"lng":-2.216666666,"types":["natura"],"visibility":"chicca","beauty_score":0.746192537431829,"source":"wikidata","wd":"Q582205","tags":[]},{"id":"wd_natura_Q1893297","name":"Parco nazionale costiero del Pembrokeshire","country":"UK","lat":51.8333,"lng":-5.08333,"types":["natura"],"visibility":"chicca","beauty_score":0.746192537431829,"source":"wikidata","wd":"Q1893297","tags":[]},{"id":"wd_natura_Q1999046","name":"The Broads","country":"UK","lat":52.666666666,"lng":1.5,"types":["natura"],"visibility":"chicca","beauty_score":0.746192537431829,"source":"wikidata","wd":"Q1999046","tags":[]},{"id":"wd_mare_Q1262826","name":"Corno d'Oro","country":"HR","lat":43.255833333,"lng":16.633888888,"types":["mare"],"visibility":"chicca","beauty_score":0.7414232024281706,"source":"wikidata","wd":"Q1262826","tags":[]},{"id":"wd_mare_Q1026237","name":"Calanchi di Piana","country":"FR","lat":42.325194444,"lng":8.628833333,"types":["mare"],"visibility":"chicca","beauty_score":0.7414232024281706,"source":"wikidata","wd":"Q1026237","tags":[]},{"id":"wd_montagna_Q630494","name":"Geschriebenstein","country":"AT","lat":47.352808,"lng":16.4336948,"types":["montagna"],"visibility":"chicca","beauty_score":0.7414232024281706,"source":"wikidata","wd":"Q630494","tags":[]},{"id":"wd_montagna_Q2061165","name":"Petra tou Romiou","country":"CY","lat":34.663517,"lng":32.62697,"types":["montagna"],"visibility":"chicca","beauty_score":0.7414232024281706,"source":"wikidata","wd":"Q2061165","tags":[]},{"id":"wd_montagna_Q303806","name":"Aavasaksa","country":"FI","lat":66.397816,"lng":23.725325,"types":["montagna"],"visibility":"chicca","beauty_score":0.7414232024281706,"source":"wikidata","wd":"Q303806","tags":[]},{"id":"wd_montagna_Q1542451","name":"Ylläs","country":"FI","lat":67.566111111,"lng":24.233055555,"types":["montagna"],"visibility":"chicca","beauty_score":0.7414232024281706,"source":"wikidata","wd":"Q1542451","tags":[]},{"id":"wd_montagna_Q1142554","name":"Crêt de la Neige","country":"FR","lat":46.2725,"lng":5.943611111,"types":["montagna"],"visibility":"chicca","beauty_score":0.7414232024281706,"source":"wikidata","wd":"Q1142554","tags":[]},{"id":"wd_montagna_Q404702","name":"Aiguilles du Dru","country":"FR","lat":45.932777777,"lng":6.956388888,"types":["montagna"],"visibility":"chicca","beauty_score":0.7414232024281706,"source":"wikidata","wd":"Q404702","tags":[]},{"id":"wd_montagna_Q30405","name":"Punta Gnifetti","country":"IT","lat":45.927222222,"lng":7.876944444,"types":["montagna"],"visibility":"chicca","beauty_score":0.7414232024281706,"source":"wikidata","wd":"Q30405","tags":[]},{"id":"wd_montagna_Q15271","name":"monte Generoso","country":"IT","lat":45.929444444,"lng":9.019166666,"types":["montagna"],"visibility":"chicca","beauty_score":0.7414232024281706,"source":"wikidata","wd":"Q15271","tags":[]},{"id":"wd_montagna_Q1735189","name":"Kasprowy Wierch","country":"PL","lat":49.231666666,"lng":19.981666666,"types":["montagna"],"visibility":"chicca","beauty_score":0.7414232024281706,"source":"wikidata","wd":"Q1735189","tags":[]},{"id":"wd_montagna_Q1076258","name":"Chopok","country":"SK","lat":48.943055555,"lng":19.593055555,"types":["montagna"],"visibility":"chicca","beauty_score":0.7414232024281706,"source":"wikidata","wd":"Q1076258","tags":[]},{"id":"wd_montagna_Q1786056","name":"Monte Nevoso","country":"SI","lat":45.588889,"lng":14.446667,"types":["montagna"],"visibility":"chicca","beauty_score":0.7414232024281706,"source":"wikidata","wd":"Q1786056","tags":[]},{"id":"wd_montagna_Q1520376","name":"Torre Cerredo","country":"ES","lat":43.198055555,"lng":-4.851111111,"types":["montagna"],"visibility":"chicca","beauty_score":0.7414232024281706,"source":"wikidata","wd":"Q1520376","tags":[]},{"id":"wd_montagna_Q1325530","name":"Pen y Fan","country":"UK","lat":51.884031,"lng":-3.436765,"types":["montagna"],"visibility":"chicca","beauty_score":0.7414232024281706,"source":"wikidata","wd":"Q1325530","tags":[]},{"id":"wd_montagna_Q2062890","name":"Picco Queen Mary's","country":"UK","lat":-37.11175,"lng":-12.287805555,"types":["montagna"],"visibility":"chicca","beauty_score":0.7414232024281706,"source":"wikidata","wd":"Q2062890","tags":[]},{"id":"wd_natura_Q696014","name":"parco nazionale Alti Tauri","country":"AT","lat":47.13556,"lng":12.32529,"types":["natura"],"visibility":"chicca","beauty_score":0.7414232024281706,"source":"wikidata","wd":"Q696014","tags":[]},{"id":"wd_natura_Q2006345","name":"parco nazionale di Podyjí","country":"CZ","lat":48.84777778,"lng":15.89722222,"types":["natura"],"visibility":"chicca","beauty_score":0.7414232024281706,"source":"wikidata","wd":"Q2006345","tags":[]},{"id":"wd_natura_Q2043817","name":"parco nazionale dei Monti dei Giganti","country":"CZ","lat":50.73611111,"lng":15.74027778,"types":["natura"],"visibility":"chicca","beauty_score":0.7414232024281706,"source":"wikidata","wd":"Q2043817","tags":[]},{"id":"wd_natura_Q1815268","name":"parco nazionale di Nuuksio","country":"FI","lat":60.31666667,"lng":24.46666667,"types":["natura"],"visibility":"chicca","beauty_score":0.7414232024281706,"source":"wikidata","wd":"Q1815268","tags":[]},{"id":"wd_natura_Q388279","name":"Parco nazionale di Port-Cros","country":"FR","lat":43.004166666,"lng":6.395277777,"types":["natura"],"visibility":"chicca","beauty_score":0.7414232024281706,"source":"wikidata","wd":"Q388279","tags":[]},{"id":"wd_natura_Q695880","name":"Parco nazionale di Kellerwald-Edersee","country":"DE","lat":51.1667,"lng":9,"types":["natura"],"visibility":"chicca","beauty_score":0.7414232024281706,"source":"wikidata","wd":"Q695880","tags":[]},{"id":"wd_natura_Q701525","name":"Parco nazionale della bassa valle dell'Oder","country":"DE","lat":53.0472,"lng":14.2961,"types":["natura"],"visibility":"chicca","beauty_score":0.7414232024281706,"source":"wikidata","wd":"Q701525","tags":[]},{"id":"wd_natura_Q706721","name":"Parco nazionale del Wattenmeer dello Schleswig-Holstein","country":"DE","lat":54.456302777,"lng":8.646408333,"types":["natura"],"visibility":"chicca","beauty_score":0.7414232024281706,"source":"wikidata","wd":"Q706721","tags":[]},{"id":"wd_natura_Q1891711","name":"Parco nazionale dello Stelvio","country":"IT","lat":46.466,"lng":10.506,"types":["natura"],"visibility":"chicca","beauty_score":0.7414232024281706,"source":"wikidata","wd":"Q1891711","tags":[]},{"id":"wd_natura_Q101635","name":"Wielkopolska National Park","country":"PL","lat":52.275555555,"lng":16.815833333,"types":["natura"],"visibility":"chicca","beauty_score":0.7414232024281706,"source":"wikidata","wd":"Q101635","tags":[]},{"id":"wd_natura_Q614743","name":"Drawa National Park","country":"PL","lat":53.1,"lng":15.933333333,"types":["natura"],"visibility":"chicca","beauty_score":0.7414232024281706,"source":"wikidata","wd":"Q614743","tags":[]},{"id":"wd_natura_Q621423","name":"Karkonosze National Park","country":"PL","lat":50.76666667,"lng":15.65,"types":["natura"],"visibility":"chicca","beauty_score":0.7414232024281706,"source":"wikidata","wd":"Q621423","tags":[]},{"id":"wd_natura_Q622777","name":"Magura National Park","country":"PL","lat":49.51666667,"lng":21.51666667,"types":["natura"],"visibility":"chicca","beauty_score":0.7414232024281706,"source":"wikidata","wd":"Q622777","tags":[]},{"id":"wd_natura_Q1351150","name":"Parco nazionale del Carso slovacco","country":"SK","lat":48.579,"lng":20.544,"types":["natura"],"visibility":"chicca","beauty_score":0.7414232024281706,"source":"wikidata","wd":"Q1351150","tags":[]},{"id":"wd_natura_Q1324805","name":"parco nazionale della Sierra de Guadarrama","country":"ES","lat":40.78333333,"lng":-3.98333333,"types":["natura"],"visibility":"chicca","beauty_score":0.7414232024281706,"source":"wikidata","wd":"Q1324805","tags":[]},{"id":"wd_natura_Q1628126","name":"parco nazionale delle Isole Atlantiche della Galizia","country":"ES","lat":42.38055556,"lng":-8.93333333,"types":["natura"],"visibility":"chicca","beauty_score":0.7414232024281706,"source":"wikidata","wd":"Q1628126","tags":[]},{"id":"wd_natura_Q1530442","name":"parco nazionale Söderåsen","country":"SE","lat":56.02414328,"lng":13.230089159,"types":["natura"],"visibility":"chicca","beauty_score":0.7414232024281706,"source":"wikidata","wd":"Q1530442","tags":[]},{"id":"wd_montagna_Q1778649","name":"Parco naturale Papuk","country":"HR","lat":45.533333333,"lng":17.65,"types":["montagna"],"visibility":"chicca","beauty_score":0.7364591476792497,"source":"wikidata","wd":"Q1778649","tags":[]},{"id":"wd_montagna_Q1397501","name":"Králický Sněžník","country":"CZ","lat":50.2075,"lng":16.846944444,"types":["montagna"],"visibility":"chicca","beauty_score":0.7364591476792497,"source":"wikidata","wd":"Q1397501","tags":[]},{"id":"wd_montagna_Q1139060","name":"Pic du Midi de Bigorre","country":"FR","lat":42.937222222,"lng":0.141111111,"types":["montagna"],"visibility":"chicca","beauty_score":0.7364591476792497,"source":"wikidata","wd":"Q1139060","tags":[]},{"id":"wd_montagna_Q1397720","name":"Grand Ballon","country":"FR","lat":47.900833333,"lng":7.098055555,"types":["montagna"],"visibility":"chicca","beauty_score":0.7364591476792497,"source":"wikidata","wd":"Q1397720","tags":[]},{"id":"wd_montagna_Q164561","name":"Fichtelberg","country":"DE","lat":50.429444444,"lng":12.954166666,"types":["montagna"],"visibility":"chicca","beauty_score":0.7364591476792497,"source":"wikidata","wd":"Q164561","tags":[]},{"id":"wd_montagna_Q1343616","name":"monte Enos","country":"GR","lat":38.116666666,"lng":20.666666666,"types":["montagna"],"visibility":"chicca","beauty_score":0.7364591476792497,"source":"wikidata","wd":"Q1343616","tags":[]},{"id":"wd_montagna_Q2581216","name":"Falakro","country":"GR","lat":41.2939,"lng":24.0947,"types":["montagna"],"visibility":"chicca","beauty_score":0.7364591476792497,"source":"wikidata","wd":"Q2581216","tags":[]},{"id":"wd_montagna_Q816458","name":"Benbulben","country":"IE","lat":54.366666666,"lng":-8.466666666,"types":["montagna"],"visibility":"chicca","beauty_score":0.7364591476792497,"source":"wikidata","wd":"Q816458","tags":[]},{"id":"wd_montagna_Q16674","name":"Pizzo Zupò","country":"IT","lat":46.368333333,"lng":9.931111111,"types":["montagna"],"visibility":"chicca","beauty_score":0.7364591476792497,"source":"wikidata","wd":"Q16674","tags":[]},{"id":"wd_montagna_Q30400","name":"Punta Zumstein","country":"IT","lat":45.931944444,"lng":7.871388888,"types":["montagna"],"visibility":"chicca","beauty_score":0.7364591476792497,"source":"wikidata","wd":"Q30400","tags":[]},{"id":"wd_montagna_Q30418","name":"Punta Parrot","country":"IT","lat":45.919722222,"lng":7.871388888,"types":["montagna"],"visibility":"chicca","beauty_score":0.7364591476792497,"source":"wikidata","wd":"Q30418","tags":[]},{"id":"wd_montagna_Q571759","name":"Antelao","country":"IT","lat":46.4525,"lng":12.260555555,"types":["montagna"],"visibility":"chicca","beauty_score":0.7364591476792497,"source":"wikidata","wd":"Q571759","tags":[]},{"id":"wd_montagna_Q1192102","name":"Pico do Arieiro","country":"PT","lat":32.735555555,"lng":-16.928888888,"types":["montagna"],"visibility":"chicca","beauty_score":0.7364591476792497,"source":"wikidata","wd":"Q1192102","tags":[]},{"id":"wd_montagna_Q763420","name":"Monte Gialuz","country":"SI","lat":46.421554,"lng":13.679998,"types":["montagna"],"visibility":"chicca","beauty_score":0.7364591476792497,"source":"wikidata","wd":"Q763420","tags":[]},{"id":"wd_montagna_Q282981","name":"Picco Posets","country":"ES","lat":42.654481,"lng":0.4352,"types":["montagna"],"visibility":"chicca","beauty_score":0.7364591476792497,"source":"wikidata","wd":"Q282981","tags":[]},{"id":"wd_montagna_Q1463283","name":"Collserola","country":"ES","lat":41.412222,"lng":2.073889,"types":["montagna"],"visibility":"chicca","beauty_score":0.7364591476792497,"source":"wikidata","wd":"Q1463283","tags":[]},{"id":"wd_montagna_Q271149","name":"Åreskutan","country":"SE","lat":63.430833333,"lng":13.093055555,"types":["montagna"],"visibility":"chicca","beauty_score":0.7364591476792497,"source":"wikidata","wd":"Q271149","tags":[]},{"id":"wd_montagna_Q816560","name":"Ben Macdui","country":"UK","lat":57.070368,"lng":-3.669099,"types":["montagna"],"visibility":"chicca","beauty_score":0.7364591476792497,"source":"wikidata","wd":"Q816560","tags":[]},{"id":"wd_montagna_Q1199959","name":"Calton Hill","country":"UK","lat":55.955278,"lng":-3.182222,"types":["montagna"],"visibility":"chicca","beauty_score":0.7364591476792497,"source":"wikidata","wd":"Q1199959","tags":[]},{"id":"wd_natura_Q674039","name":"Parco Nazionale di Kornati","country":"HR","lat":43.783333333,"lng":15.333333333,"types":["natura"],"visibility":"chicca","beauty_score":0.7364591476792497,"source":"wikidata","wd":"Q674039","tags":[]},{"id":"wd_natura_Q127322","name":"parco nazionale di Oulanka","country":"FI","lat":66.37305556,"lng":29.33861111,"types":["natura"],"visibility":"chicca","beauty_score":0.7364591476792497,"source":"wikidata","wd":"Q127322","tags":[]},{"id":"wd_natura_Q375387","name":"Parco nazionale di Koli","country":"FI","lat":63.0575,"lng":29.88722222,"types":["natura"],"visibility":"chicca","beauty_score":0.7364591476792497,"source":"wikidata","wd":"Q375387","tags":[]},{"id":"wd_natura_Q594263","name":"parco nazionale dell'arcipelago marino","country":"FI","lat":60,"lng":22,"types":["natura"],"visibility":"chicca","beauty_score":0.7364591476792497,"source":"wikidata","wd":"Q594263","tags":[]},{"id":"wd_natura_Q937131","name":"parco nazionale di Helvetinjärvi","country":"FI","lat":62.03333333,"lng":23.85,"types":["natura"],"visibility":"chicca","beauty_score":0.7364591476792497,"source":"wikidata","wd":"Q937131","tags":[]},{"id":"wd_natura_Q1429179","name":"parco nazionale di Pyhä-Luosto","country":"FI","lat":67.06638889,"lng":26.97361111,"types":["natura"],"visibility":"chicca","beauty_score":0.7364591476792497,"source":"wikidata","wd":"Q1429179","tags":[]},{"id":"wd_natura_Q2313367","name":"parco nazionale di Rokua","country":"FI","lat":64.55611111,"lng":26.51,"types":["natura"],"visibility":"chicca","beauty_score":0.7364591476792497,"source":"wikidata","wd":"Q2313367","tags":[]},{"id":"wd_natura_Q2398213","name":"parco nazionale di Kurjenrahka","country":"FI","lat":60.72055556,"lng":22.38361111,"types":["natura"],"visibility":"chicca","beauty_score":0.7364591476792497,"source":"wikidata","wd":"Q2398213","tags":[]},{"id":"wd_natura_Q2600427","name":"Parco nazionale delle Calanques","country":"FR","lat":43.20944444,"lng":5.44916667,"types":["natura"],"visibility":"chicca","beauty_score":0.7364591476792497,"source":"wikidata","wd":"Q2600427","tags":[]},{"id":"wd_natura_Q708477","name":"Parco nazionale del Paesaggio lagunare della Pomerania Anteriore","country":"DE","lat":54.433333333,"lng":12.9,"types":["natura"],"visibility":"chicca","beauty_score":0.7364591476792497,"source":"wikidata","wd":"Q708477","tags":[]},{"id":"wd_natura_Q1027914","name":"parco nazionale del Gran Sasso e Monti della Laga","country":"IT","lat":42.4906519,"lng":13.4952371,"types":["natura"],"visibility":"chicca","beauty_score":0.7364591476792497,"source":"wikidata","wd":"Q1027914","tags":[]},{"id":"wd_natura_Q1091298","name":"parco nazionale della Sila","country":"IT","lat":39.37611111,"lng":16.59194444,"types":["natura"],"visibility":"chicca","beauty_score":0.7364591476792497,"source":"wikidata","wd":"Q1091298","tags":[]},{"id":"wd_natura_Q618092","name":"Ujście Warty National Park","country":"PL","lat":52.5772,"lng":14.7258,"types":["natura"],"visibility":"chicca","beauty_score":0.7364591476792497,"source":"wikidata","wd":"Q618092","tags":[]},{"id":"wd_natura_Q1658753","name":"Isole Cíes","country":"ES","lat":42.233333333,"lng":-8.9,"types":["natura"],"visibility":"chicca","beauty_score":0.7364591476792497,"source":"wikidata","wd":"Q1658753","tags":[]},{"id":"wd_natura_Q640485","name":"parco nazionale Djurö","country":"SE","lat":58.846795728,"lng":13.465248392,"types":["natura"],"visibility":"chicca","beauty_score":0.7364591476792497,"source":"wikidata","wd":"Q640485","tags":[]},{"id":"wd_natura_Q692011","name":"parco nazionale Padjelanta","country":"SE","lat":67.410021653,"lng":16.721859465,"types":["natura"],"visibility":"chicca","beauty_score":0.7364591476792497,"source":"wikidata","wd":"Q692011","tags":[]},{"id":"wd_montagna_Q666531","name":"Naafkopf","country":"AT","lat":47.060705555,"lng":9.607152777,"types":["montagna"],"visibility":"chicca","beauty_score":0.7312837940849259,"source":"wikidata","wd":"Q666531","tags":[]},{"id":"wd_montagna_Q700922","name":"Monte Coglians","country":"AT","lat":46.607191,"lng":12.88254,"types":["montagna"],"visibility":"chicca","beauty_score":0.7312837940849259,"source":"wikidata","wd":"Q700922","tags":[]},{"id":"wd_montagna_Q697931","name":"Parseierspitze","country":"AT","lat":47.1742699,"lng":10.478229,"types":["montagna"],"visibility":"chicca","beauty_score":0.7312837940849259,"source":"wikidata","wd":"Q697931","tags":[]},{"id":"wd_montagna_Q1569913","name":"Klínovec","country":"CZ","lat":50.396111111,"lng":12.967777777,"types":["montagna"],"visibility":"chicca","beauty_score":0.7312837940849259,"source":"wikidata","wd":"Q1569913","tags":[]},{"id":"wd_montagna_Q102079702","name":"Říp","country":"CZ","lat":50.38653,"lng":14.2896344,"types":["montagna"],"visibility":"chicca","beauty_score":0.7312837940849259,"source":"wikidata","wd":"Q102079702","tags":[]},{"id":"wd_montagna_Q30415","name":"Monte Maudit","country":"FR","lat":45.847777777,"lng":6.875833333,"types":["montagna"],"visibility":"chicca","beauty_score":0.7312837940849259,"source":"wikidata","wd":"Q30415","tags":[]},{"id":"wd_montagna_Q404738","name":"Aiguille d'Argentière","country":"FR","lat":45.959761111,"lng":7.020319444,"types":["montagna"],"visibility":"chicca","beauty_score":0.7312837940849259,"source":"wikidata","wd":"Q404738","tags":[]},{"id":"wd_montagna_Q1537733","name":"Pica D'Estats","country":"FR","lat":42.666937177,"lng":1.397900658,"types":["montagna"],"visibility":"chicca","beauty_score":0.7312837940849259,"source":"wikidata","wd":"Q1537733","tags":[]},{"id":"wd_montagna_Q602538","name":"Itome","country":"GR","lat":37.186111111,"lng":21.925,"types":["montagna"],"visibility":"chicca","beauty_score":0.7312837940849259,"source":"wikidata","wd":"Q602538","tags":[]},{"id":"wd_montagna_Q1513696","name":"Kolumbo","country":"GR","lat":36.516667,"lng":25.491667,"types":["montagna"],"visibility":"chicca","beauty_score":0.7312837940849259,"source":"wikidata","wd":"Q1513696","tags":[]},{"id":"wd_montagna_Q1120038","name":"Sliabh Liag","country":"IE","lat":54.638055555,"lng":-8.681388888,"types":["montagna"],"visibility":"chicca","beauty_score":0.7312837940849259,"source":"wikidata","wd":"Q1120038","tags":[]},{"id":"wd_montagna_Q1478911","name":"Monte Brandon","country":"IE","lat":52.234,"lng":-10.254,"types":["montagna"],"visibility":"chicca","beauty_score":0.7312837940849259,"source":"wikidata","wd":"Q1478911","tags":[]},{"id":"wd_montagna_Q665012","name":"Pizzo Bellavista","country":"IT","lat":46.373711111,"lng":9.932269444,"types":["montagna"],"visibility":"chicca","beauty_score":0.7312837940849259,"source":"wikidata","wd":"Q665012","tags":[]},{"id":"wd_montagna_Q669860","name":"Monte Vélan","country":"IT","lat":45.892052777,"lng":7.251811111,"types":["montagna"],"visibility":"chicca","beauty_score":0.7312837940849259,"source":"wikidata","wd":"Q669860","tags":[]},{"id":"wd_montagna_Q1468844","name":"Monte Zoncolan","country":"IT","lat":46.5,"lng":12.916666666,"types":["montagna"],"visibility":"chicca","beauty_score":0.7312837940849259,"source":"wikidata","wd":"Q1468844","tags":[]},{"id":"wd_montagna_Q1945818","name":"Monte Cimone","country":"IT","lat":44.193888888,"lng":10.701388888,"types":["montagna"],"visibility":"chicca","beauty_score":0.7312837940849259,"source":"wikidata","wd":"Q1945818","tags":[]},{"id":"wd_montagna_Q1090036","name":"Monte Negoiu","country":"RO","lat":45.5849453,"lng":24.5583064,"types":["montagna"],"visibility":"chicca","beauty_score":0.7312837940849259,"source":"wikidata","wd":"Q1090036","tags":[]},{"id":"wd_montagna_Q588460","name":"Grintovec","country":"SI","lat":46.3571332,"lng":14.5354262,"types":["montagna"],"visibility":"chicca","beauty_score":0.7312837940849259,"source":"wikidata","wd":"Q588460","tags":[]},{"id":"wd_montagna_Q587189","name":"Puig Major","country":"ES","lat":39.8075,"lng":2.793333,"types":["montagna"],"visibility":"chicca","beauty_score":0.7312837940849259,"source":"wikidata","wd":"Q587189","tags":[]},{"id":"wd_montagna_Q443610","name":"Angliru","country":"ES","lat":43.221389,"lng":-5.942222,"types":["montagna"],"visibility":"chicca","beauty_score":0.7312837940849259,"source":"wikidata","wd":"Q443610","tags":[]},{"id":"wd_montagna_Q1862666","name":"Pedraforca","country":"ES","lat":42.239941,"lng":1.702938,"types":["montagna"],"visibility":"chicca","beauty_score":0.7312837940849259,"source":"wikidata","wd":"Q1862666","tags":[]},{"id":"wd_montagna_Q1442812","name":"Parco nazionale Blå Jungfrun","country":"SE","lat":57.2521142,"lng":16.7938044,"types":["montagna"],"visibility":"chicca","beauty_score":0.7312837940849259,"source":"wikidata","wd":"Q1442812","tags":[]},{"id":"wd_montagna_Q1064229","name":"Monte Usborne","country":"UK","lat":-51.697222,"lng":-58.834444,"types":["montagna"],"visibility":"chicca","beauty_score":0.7312837940849259,"source":"wikidata","wd":"Q1064229","tags":[]},{"id":"wd_natura_Q2420598","name":"parco nazionale di Repovesi","country":"FI","lat":61.18333333,"lng":26.88333333,"types":["natura"],"visibility":"chicca","beauty_score":0.7312837940849259,"source":"wikidata","wd":"Q2420598","tags":[]},{"id":"wd_natura_Q1028479","name":"Parco nazionale della Guadalupa","country":"FR","lat":16.083333333,"lng":-61.683333333,"types":["natura"],"visibility":"chicca","beauty_score":0.7312837940849259,"source":"wikidata","wd":"Q1028479","tags":[]},{"id":"wd_natura_Q543703","name":"Parco nazionale del Danubio-Ipoly","country":"HU","lat":47.76666667,"lng":18.95,"types":["natura"],"visibility":"chicca","beauty_score":0.7312837940849259,"source":"wikidata","wd":"Q543703","tags":[]},{"id":"wd_natura_Q897623","name":"parco nazionale Fertő-Hanság","country":"HU","lat":47.75,"lng":16.75,"types":["natura"],"visibility":"chicca","beauty_score":0.7312837940849259,"source":"wikidata","wd":"Q897623","tags":[]},{"id":"wd_natura_Q1520511","name":"Curonian Spit National Park","country":"LT","lat":55.481,"lng":21.097,"types":["natura"],"visibility":"chicca","beauty_score":0.7312837940849259,"source":"wikidata","wd":"Q1520511","tags":[]},{"id":"wd_natura_Q387818","name":"Parco nazionale della Santacroce","country":"PL","lat":50.87638889,"lng":20.97777778,"types":["natura"],"visibility":"chicca","beauty_score":0.7312837940849259,"source":"wikidata","wd":"Q387818","tags":[]},{"id":"wd_natura_Q622739","name":"Narew National Park","country":"PL","lat":53.073333,"lng":22.89,"types":["natura"],"visibility":"chicca","beauty_score":0.7312837940849259,"source":"wikidata","wd":"Q622739","tags":[]},{"id":"wd_natura_Q1619225","name":"Parco Nazionale \"Bory Tucholskie\"","country":"PL","lat":53.8,"lng":17.56,"types":["natura"],"visibility":"chicca","beauty_score":0.7312837940849259,"source":"wikidata","wd":"Q1619225","tags":[]},{"id":"wd_natura_Q1968946","name":"Parco nazionale Muránska planina","country":"SK","lat":48.78333333,"lng":20.03333333,"types":["natura"],"visibility":"chicca","beauty_score":0.7312837940849259,"source":"wikidata","wd":"Q1968946","tags":[]},{"id":"wd_natura_Q119150","name":"parco nazionale Björnlandet","country":"SE","lat":63.974039971,"lng":18.01487125,"types":["natura"],"visibility":"chicca","beauty_score":0.7312837940849259,"source":"wikidata","wd":"Q119150","tags":[]},{"id":"wd_natura_Q1438951","name":"parco nazionale Kosterhavet","country":"SE","lat":58.826830949,"lng":11.008021187,"types":["natura"],"visibility":"chicca","beauty_score":0.7312837940849259,"source":"wikidata","wd":"Q1438951","tags":[]},{"id":"wd_natura_Q1505461","name":"parco nazionale Farnebofjärden","country":"SE","lat":60.201206796,"lng":16.784154195,"types":["natura"],"visibility":"chicca","beauty_score":0.7312837940849259,"source":"wikidata","wd":"Q1505461","tags":[]},{"id":"wd_natura_Q1754183","name":"parco nazionale Skuleskogen","country":"SE","lat":63.110978284,"lng":18.484165611,"types":["natura"],"visibility":"chicca","beauty_score":0.7312837940849259,"source":"wikidata","wd":"Q1754183","tags":[]},{"id":"wd_montagna_Q557416","name":"Ankogël","country":"AT","lat":47.051111111,"lng":13.248611111,"types":["montagna"],"visibility":"chicca","beauty_score":0.7258783506302178,"source":"wikidata","wd":"Q557416","tags":[]},{"id":"wd_montagna_Q701816","name":"Palla Bianca","country":"AT","lat":46.797819,"lng":10.726096,"types":["montagna"],"visibility":"chicca","beauty_score":0.7258783506302178,"source":"wikidata","wd":"Q701816","tags":[]},{"id":"wd_montagna_Q700232","name":"Erzberg","country":"AT","lat":47.525,"lng":14.911666666,"types":["montagna"],"visibility":"chicca","beauty_score":0.7258783506302178,"source":"wikidata","wd":"Q700232","tags":[]},{"id":"wd_montagna_Q2381742","name":"Ograzhden","country":"BG","lat":41.520833333,"lng":22.877777777,"types":["montagna"],"visibility":"chicca","beauty_score":0.7258783506302178,"source":"wikidata","wd":"Q2381742","tags":[]},{"id":"wd_montagna_Q148998","name":"Ještěd","country":"CZ","lat":50.732222222,"lng":14.985277777,"types":["montagna"],"visibility":"chicca","beauty_score":0.7258783506302178,"source":"wikidata","wd":"Q148998","tags":[]},{"id":"wd_montagna_Q952552","name":"Ridnitšohkka","country":"FI","lat":69.2875,"lng":21.3533,"types":["montagna"],"visibility":"chicca","beauty_score":0.7258783506302178,"source":"wikidata","wd":"Q952552","tags":[]},{"id":"wd_montagna_Q1637507","name":"Saana","country":"FI","lat":69.04377,"lng":20.85521,"types":["montagna"],"visibility":"chicca","beauty_score":0.7258783506302178,"source":"wikidata","wd":"Q1637507","tags":[]},{"id":"wd_montagna_Q30434","name":"Dôme du Goûter","country":"FR","lat":45.841666666,"lng":6.843333333,"types":["montagna"],"visibility":"chicca","beauty_score":0.7258783506302178,"source":"wikidata","wd":"Q30434","tags":[]},{"id":"wd_montagna_Q30438","name":"Mont Blanc du Tacul","country":"FR","lat":45.856388888,"lng":6.887777777,"types":["montagna"],"visibility":"chicca","beauty_score":0.7258783506302178,"source":"wikidata","wd":"Q30438","tags":[]},{"id":"wd_montagna_Q73077","name":"Pic du Midi d'Ossau","country":"FR","lat":42.843055555,"lng":-0.438055555,"types":["montagna"],"visibility":"chicca","beauty_score":0.7258783506302178,"source":"wikidata","wd":"Q73077","tags":[]},{"id":"wd_montagna_Q2098121","name":"Planche des Belles Filles","country":"FR","lat":47.7672,"lng":6.77417,"types":["montagna"],"visibility":"chicca","beauty_score":0.7258783506302178,"source":"wikidata","wd":"Q2098121","tags":[]},{"id":"wd_montagna_Q1517182","name":"Monte Agel","country":"FR","lat":43.775277777,"lng":7.426388888,"types":["montagna"],"visibility":"chicca","beauty_score":0.7258783506302178,"source":"wikidata","wd":"Q1517182","tags":[]},{"id":"wd_montagna_Q1334057","name":"Ballon d'Alsace","country":"FR","lat":47.822222222,"lng":6.845277777,"types":["montagna"],"visibility":"chicca","beauty_score":0.7258783506302178,"source":"wikidata","wd":"Q1334057","tags":[]},{"id":"wd_montagna_Q1945432","name":"Mont Panié","country":"FR","lat":-20.588333333,"lng":164.770555555,"types":["montagna"],"visibility":"chicca","beauty_score":0.7258783506302178,"source":"wikidata","wd":"Q1945432","tags":[]},{"id":"wd_montagna_Q701516","name":"Kaiserstuhl","country":"DE","lat":48.083333333,"lng":7.666666666,"types":["montagna"],"visibility":"chicca","beauty_score":0.7258783506302178,"source":"wikidata","wd":"Q701516","tags":[]},{"id":"wd_montagna_Q833949","name":"Monte Partenio","country":"GR","lat":37.4864,"lng":22.5474,"types":["montagna"],"visibility":"chicca","beauty_score":0.7258783506302178,"source":"wikidata","wd":"Q833949","tags":[]},{"id":"wd_montagna_Q2733631","name":"Kožuf","country":"GR","lat":41.15,"lng":22.166666666,"types":["montagna"],"visibility":"chicca","beauty_score":0.7258783506302178,"source":"wikidata","wd":"Q2733631","tags":[]},{"id":"wd_montagna_Q30485","name":"Polluce","country":"IT","lat":45.93333,"lng":7.78333,"types":["montagna"],"visibility":"chicca","beauty_score":0.7258783506302178,"source":"wikidata","wd":"Q30485","tags":[]},{"id":"wd_montagna_Q1945737","name":"monte Baldo","country":"IT","lat":45.733,"lng":10.833,"types":["montagna"],"visibility":"chicca","beauty_score":0.7258783506302178,"source":"wikidata","wd":"Q1945737","tags":[]},{"id":"wd_montagna_Q2417486","name":"Monte Vettore","country":"IT","lat":42.816666666,"lng":13.266666666,"types":["montagna"],"visibility":"chicca","beauty_score":0.7258783506302178,"source":"wikidata","wd":"Q2417486","tags":[]},{"id":"wd_montagna_Q384267","name":"Łysa Góra","country":"PL","lat":50.860277777,"lng":21.046944444,"types":["montagna"],"visibility":"chicca","beauty_score":0.7258783506302178,"source":"wikidata","wd":"Q384267","tags":[]},{"id":"wd_montagna_Q392142","name":"Škrlatica","country":"SI","lat":46.43,"lng":13.82,"types":["montagna"],"visibility":"chicca","beauty_score":0.7258783506302178,"source":"wikidata","wd":"Q392142","tags":[]},{"id":"wd_montagna_Q956785","name":"Roque de los Muchachos","country":"ES","lat":28.754166666,"lng":-17.884722222,"types":["montagna"],"visibility":"chicca","beauty_score":0.7258783506302178,"source":"wikidata","wd":"Q956785","tags":[]},{"id":"wd_montagna_Q1510073","name":"Maladeta","country":"ES","lat":42.64722222,"lng":0.63944444,"types":["montagna"],"visibility":"chicca","beauty_score":0.7258783506302178,"source":"wikidata","wd":"Q1510073","tags":[]},{"id":"wd_montagna_Q603956","name":"Ben Lawers","country":"UK","lat":56.544922,"lng":-4.22086,"types":["montagna"],"visibility":"chicca","beauty_score":0.7258783506302178,"source":"wikidata","wd":"Q603956","tags":[]},{"id":"wd_montagna_Q151635","name":"Boreray","country":"UK","lat":57.871278,"lng":-8.491581,"types":["montagna"],"visibility":"chicca","beauty_score":0.7258783506302178,"source":"wikidata","wd":"Q151635","tags":[]},{"id":"wd_montagna_Q1533452","name":"Goat Fell","country":"UK","lat":55.626111111,"lng":-5.190555555,"types":["montagna"],"visibility":"chicca","beauty_score":0.7258783506302178,"source":"wikidata","wd":"Q1533452","tags":[]},{"id":"wd_natura_Q2658641","name":"parco nazionale di Hiidenportti","country":"FI","lat":63.87277778,"lng":29.05861111,"types":["natura"],"visibility":"chicca","beauty_score":0.7258783506302178,"source":"wikidata","wd":"Q2658641","tags":[]},{"id":"wd_natura_Q2722153","name":"parco nazionale di Riisitunturi","country":"FI","lat":66.23333333,"lng":28.5,"types":["natura"],"visibility":"chicca","beauty_score":0.7258783506302178,"source":"wikidata","wd":"Q2722153","tags":[]},{"id":"wd_natura_Q686539","name":"Parco nazionale del Wattenmeer di Amburgo","country":"DE","lat":53.921111111,"lng":8.500555555,"types":["natura"],"visibility":"chicca","beauty_score":0.7258783506302178,"source":"wikidata","wd":"Q686539","tags":[]},{"id":"wd_natura_Q376436","name":"parco nazionale di Vikos-Aoos","country":"GR","lat":39.92472222,"lng":20.76194444,"types":["natura"],"visibility":"chicca","beauty_score":0.7258783506302178,"source":"wikidata","wd":"Q376436","tags":[]},{"id":"wd_natura_Q3364505","name":"parco nazionale dei Monti Wicklow","country":"IE","lat":53.018,"lng":-6.398,"types":["natura"],"visibility":"chicca","beauty_score":0.7258783506302178,"source":"wikidata","wd":"Q3364505","tags":[]},{"id":"wd_natura_Q635414","name":"parco nazionale del Vesuvio","country":"IT","lat":40.817,"lng":14.427,"types":["natura"],"visibility":"chicca","beauty_score":0.7258783506302178,"source":"wikidata","wd":"Q635414","tags":[]},{"id":"wd_natura_Q536703","name":"Parco nazionale dell'arcipelago di La Maddalena","country":"IT","lat":41.24580483,"lng":9.41185,"types":["natura"],"visibility":"chicca","beauty_score":0.7258783506302178,"source":"wikidata","wd":"Q536703","tags":[]},{"id":"wd_natura_Q1085735","name":"Parco nazionale della Maiella","country":"IT","lat":42.08194444,"lng":14.06,"types":["natura"],"visibility":"chicca","beauty_score":0.7258783506302178,"source":"wikidata","wd":"Q1085735","tags":[]},{"id":"wd_natura_Q626392","name":"Parco nazionale di Roztocze","country":"PL","lat":50.616667,"lng":22.966667,"types":["natura"],"visibility":"chicca","beauty_score":0.7258783506302178,"source":"wikidata","wd":"Q626392","tags":[]},{"id":"wd_natura_Q168372","name":"Parco nazionale Cheile Nerei - Beușnița","country":"RO","lat":44.951194,"lng":21.8882,"types":["natura"],"visibility":"chicca","beauty_score":0.7258783506302178,"source":"wikidata","wd":"Q168372","tags":[]},{"id":"wd_natura_Q23988114","name":"parco nazionale della Caldera de Taburiente","country":"ES","lat":28.753927777,"lng":-17.884719444,"types":["natura"],"visibility":"chicca","beauty_score":0.7258783506302178,"source":"wikidata","wd":"Q23988114","tags":[]},{"id":"wd_natura_Q1566469","name":"parco nazionale Stenshuvud","country":"SE","lat":55.657843865,"lng":14.26991932,"types":["natura"],"visibility":"chicca","beauty_score":0.7258783506302178,"source":"wikidata","wd":"Q1566469","tags":[]},{"id":"wd_natura_Q1568129","name":"parco nazionale Ängsö","country":"SE","lat":59.623611111,"lng":18.763888888,"types":["natura"],"visibility":"chicca","beauty_score":0.7258783506302178,"source":"wikidata","wd":"Q1568129","tags":[]},{"id":"wd_natura_Q1891973","name":"parco nazionale Arcipelago Haparanda","country":"SE","lat":65.604909128,"lng":23.769575215,"types":["natura"],"visibility":"chicca","beauty_score":0.7258783506302178,"source":"wikidata","wd":"Q1891973","tags":[]},{"id":"wd_mare_Q3491767","name":"Leptokarya","country":"GR","lat":40.06032,"lng":22.5612,"types":["mare"],"visibility":"chicca","beauty_score":0.7202214025254974,"source":"wikidata","wd":"Q3491767","tags":[]},{"id":"wd_mare_Q168548","name":"Vai","country":"GR","lat":35.25416667,"lng":26.26472222,"types":["mare"],"visibility":"chicca","beauty_score":0.7202214025254974,"source":"wikidata","wd":"Q168548","tags":[]},{"id":"wd_montagna_Q580229","name":"Eisenhut","country":"AT","lat":46.952081,"lng":13.92819,"types":["montagna"],"visibility":"chicca","beauty_score":0.7202214025254974,"source":"wikidata","wd":"Q580229","tags":[]},{"id":"wd_montagna_Q673909","name":"Dreiländerspitze","country":"AT","lat":46.851111111,"lng":10.144777777,"types":["montagna"],"visibility":"chicca","beauty_score":0.7202214025254974,"source":"wikidata","wd":"Q673909","tags":[]},{"id":"wd_montagna_Q683996","name":"Monte Isel","country":"AT","lat":47.246666666,"lng":11.399722222,"types":["montagna"],"visibility":"chicca","beauty_score":0.7202214025254974,"source":"wikidata","wd":"Q683996","tags":[]},{"id":"wd_montagna_Q697937","name":"Similaun","country":"AT","lat":46.763611,"lng":10.880556,"types":["montagna"],"visibility":"chicca","beauty_score":0.7202214025254974,"source":"wikidata","wd":"Q697937","tags":[]},{"id":"wd_montagna_Q2377452","name":"Maleshevo","country":"BG","lat":41.666666666,"lng":23,"types":["montagna"],"visibility":"chicca","beauty_score":0.7202214025254974,"source":"wikidata","wd":"Q2377452","tags":[]},{"id":"wd_montagna_Q1945447","name":"Monte Ross","country":"FR","lat":-49.6,"lng":69.5,"types":["montagna"],"visibility":"chicca","beauty_score":0.7202214025254974,"source":"wikidata","wd":"Q1945447","tags":[]},{"id":"wd_montagna_Q30541","name":"Dente del Gigante","country":"FR","lat":45.861944444,"lng":6.951666666,"types":["montagna"],"visibility":"chicca","beauty_score":0.7202214025254974,"source":"wikidata","wd":"Q30541","tags":[]},{"id":"wd_montagna_Q1767616","name":"Punta Marguareis","country":"FR","lat":44.173333333,"lng":7.684444444,"types":["montagna"],"visibility":"chicca","beauty_score":0.7202214025254974,"source":"wikidata","wd":"Q1767616","tags":[]},{"id":"wd_montagna_Q2737839","name":"La Rhune","country":"FR","lat":43.309166666,"lng":-1.635555555,"types":["montagna"],"visibility":"chicca","beauty_score":0.7202214025254974,"source":"wikidata","wd":"Q2737839","tags":[]},{"id":"wd_montagna_Q1361608","name":"Errigal","country":"IE","lat":55.033,"lng":-8.112,"types":["montagna"],"visibility":"chicca","beauty_score":0.7202214025254974,"source":"wikidata","wd":"Q1361608","tags":[]},{"id":"wd_montagna_Q30429","name":"Corno Nero","country":"IT","lat":45.9149,"lng":7.862,"types":["montagna"],"visibility":"chicca","beauty_score":0.7202214025254974,"source":"wikidata","wd":"Q30429","tags":[]},{"id":"wd_montagna_Q16522","name":"Basòdino","country":"IT","lat":46.411555555,"lng":8.468433333,"types":["montagna"],"visibility":"chicca","beauty_score":0.7202214025254974,"source":"wikidata","wd":"Q16522","tags":[]},{"id":"wd_montagna_Q509433","name":"Monte Vulture","country":"IT","lat":40.948333,"lng":15.635556,"types":["montagna"],"visibility":"chicca","beauty_score":0.7202214025254974,"source":"wikidata","wd":"Q509433","tags":[]},{"id":"wd_montagna_Q608238","name":"Rocciamelone","country":"IT","lat":45.2036,"lng":7.0769,"types":["montagna"],"visibility":"chicca","beauty_score":0.7202214025254974,"source":"wikidata","wd":"Q608238","tags":[]},{"id":"wd_montagna_Q668570","name":"Crast' Agüzza","country":"IT","lat":46.370833333,"lng":9.918055555,"types":["montagna"],"visibility":"chicca","beauty_score":0.7202214025254974,"source":"wikidata","wd":"Q668570","tags":[]},{"id":"wd_montagna_Q701820","name":"Monte Grappa","country":"IT","lat":45.873333333,"lng":11.799166666,"types":["montagna"],"visibility":"chicca","beauty_score":0.7202214025254974,"source":"wikidata","wd":"Q701820","tags":[]},{"id":"wd_montagna_Q1523423","name":"Giewont","country":"PL","lat":49.250556,"lng":19.933889,"types":["montagna"],"visibility":"chicca","beauty_score":0.7202214025254974,"source":"wikidata","wd":"Q1523423","tags":[]},{"id":"wd_montagna_Q686513","name":"Kráľova hoľa","country":"SK","lat":48.882961111,"lng":20.139111111,"types":["montagna"],"visibility":"chicca","beauty_score":0.7202214025254974,"source":"wikidata","wd":"Q686513","tags":[]},{"id":"wd_montagna_Q341905","name":"Ďumbier","country":"SK","lat":48.936611111,"lng":19.640169444,"types":["montagna"],"visibility":"chicca","beauty_score":0.7202214025254974,"source":"wikidata","wd":"Q341905","tags":[]},{"id":"wd_montagna_Q1374413","name":"Teneguía","country":"ES","lat":28.47333333,"lng":-17.85166667,"types":["montagna"],"visibility":"chicca","beauty_score":0.7202214025254974,"source":"wikidata","wd":"Q1374413","tags":[]},{"id":"wd_montagna_Q507593","name":"Cilindro di Marboré","country":"ES","lat":42.684722,"lng":0.023889,"types":["montagna"],"visibility":"chicca","beauty_score":0.7202214025254974,"source":"wikidata","wd":"Q507593","tags":[]},{"id":"wd_montagna_Q35644","name":"Mount Pindo","country":"ES","lat":42.893883333,"lng":-9.119813888,"types":["montagna"],"visibility":"chicca","beauty_score":0.7202214025254974,"source":"wikidata","wd":"Q35644","tags":[]},{"id":"wd_montagna_Q1573762","name":"Monte Paget","country":"UK","lat":-54.440833333,"lng":-36.555277777,"types":["montagna"],"visibility":"chicca","beauty_score":0.7202214025254974,"source":"wikidata","wd":"Q1573762","tags":[]},{"id":"wd_natura_Q2156810","name":"parco nazionale De Zoom-Kalmthoutse Heide","country":"BE","lat":51.3969,"lng":4.4036,"types":["natura"],"visibility":"chicca","beauty_score":0.7202214025254974,"source":"wikidata","wd":"Q2156810","tags":[]},{"id":"wd_natura_Q287883","name":"parco nazionale di Pyhä-Häkki","country":"FI","lat":62.84555556,"lng":25.4725,"types":["natura"],"visibility":"chicca","beauty_score":0.7202214025254974,"source":"wikidata","wd":"Q287883","tags":[]},{"id":"wd_natura_Q591025","name":"parco nazionale di Patvinsuo","country":"FI","lat":63.11138889,"lng":30.70444444,"types":["natura"],"visibility":"chicca","beauty_score":0.7202214025254974,"source":"wikidata","wd":"Q591025","tags":[]},{"id":"wd_natura_Q762706","name":"parco nazionale di Perämeri","country":"FI","lat":65.622777777,"lng":24.319444444,"types":["natura"],"visibility":"chicca","beauty_score":0.7202214025254974,"source":"wikidata","wd":"Q762706","tags":[]},{"id":"wd_natura_Q2378279","name":"parco nazionale di Päijänne","country":"FI","lat":61.38666667,"lng":25.39333333,"types":["natura"],"visibility":"chicca","beauty_score":0.7202214025254974,"source":"wikidata","wd":"Q2378279","tags":[]},{"id":"wd_natura_Q2554309","name":"parco nazionale del Golfo di Finlandia orientale","country":"FI","lat":60.28472222,"lng":27.27388889,"types":["natura"],"visibility":"chicca","beauty_score":0.7202214025254974,"source":"wikidata","wd":"Q2554309","tags":[]},{"id":"wd_natura_Q2606800","name":"parco nazionale di Tiilikkajärvi","country":"FI","lat":63.6667,"lng":28.3,"types":["natura"],"visibility":"chicca","beauty_score":0.7202214025254974,"source":"wikidata","wd":"Q2606800","tags":[]},{"id":"wd_natura_Q2606971","name":"parco nazionale di Isojärvi","country":"FI","lat":61.69833333,"lng":25.01083333,"types":["natura"],"visibility":"chicca","beauty_score":0.7202214025254974,"source":"wikidata","wd":"Q2606971","tags":[]},{"id":"wd_natura_Q2721494","name":"parco nazionale di Salamajärvi","country":"FI","lat":63.26666667,"lng":24.75,"types":["natura"],"visibility":"chicca","beauty_score":0.7202214025254974,"source":"wikidata","wd":"Q2721494","tags":[]},{"id":"wd_natura_Q805409","name":"parco nazionale di Ballycroy","country":"IE","lat":54.01666667,"lng":-9.7,"types":["natura"],"visibility":"chicca","beauty_score":0.7202214025254974,"source":"wikidata","wd":"Q805409","tags":[]},{"id":"wd_natura_Q778921","name":"parco nazionale dell'Aspromonte","country":"IT","lat":38.17,"lng":15.99,"types":["natura"],"visibility":"chicca","beauty_score":0.7202214025254974,"source":"wikidata","wd":"Q778921","tags":[]},{"id":"wd_natura_Q1111568","name":"parco nazionale dell'Arcipelago Toscano","country":"IT","lat":42.824947222,"lng":10.268736111,"types":["natura"],"visibility":"chicca","beauty_score":0.7202214025254974,"source":"wikidata","wd":"Q1111568","tags":[]},{"id":"wd_natura_Q268533","name":"parco nazionale di Žemaitija","country":"LT","lat":56.044,"lng":21.889,"types":["natura"],"visibility":"chicca","beauty_score":0.7202214025254974,"source":"wikidata","wd":"Q268533","tags":[]},{"id":"wd_natura_Q619001","name":"Stołowe Mountains National Park","country":"PL","lat":50.4683308,"lng":16.3675697,"types":["natura"],"visibility":"chicca","beauty_score":0.7202214025254974,"source":"wikidata","wd":"Q619001","tags":[]},{"id":"wd_natura_Q962373","name":"parco nazionale Dalby Söderskog","country":"SE","lat":55.675,"lng":13.330555555,"types":["natura"],"visibility":"chicca","beauty_score":0.7202214025254974,"source":"wikidata","wd":"Q962373","tags":[]},{"id":"wd_natura_Q1968993","name":"parco nazionale Norra Kvill","country":"SE","lat":57.763727856,"lng":15.59356756,"types":["natura"],"visibility":"chicca","beauty_score":0.7202214025254974,"source":"wikidata","wd":"Q1968993","tags":[]},{"id":"wd_natura_Q391929","name":"parco nazionale Tiveden","country":"SE","lat":58.716146467,"lng":14.612543028,"types":["natura"],"visibility":"chicca","beauty_score":0.7202214025254974,"source":"wikidata","wd":"Q391929","tags":[]},{"id":"wd_natura_Q1544161","name":"parco nazionale Tyresta","country":"SE","lat":59.184227615,"lng":18.281203682,"types":["natura"],"visibility":"chicca","beauty_score":0.7202214025254974,"source":"wikidata","wd":"Q1544161","tags":[]},{"id":"wd_montagna_Q227875","name":"Pan di Zucchero","country":"AT","lat":46.964444444,"lng":11.153611111,"types":["montagna"],"visibility":"chicca","beauty_score":0.7142883987859148,"source":"wikidata","wd":"Q227875","tags":[]},{"id":"wd_montagna_Q668551","name":"Fluchthorn","country":"AT","lat":46.893055555,"lng":10.226944444,"types":["montagna"],"visibility":"chicca","beauty_score":0.7142883987859148,"source":"wikidata","wd":"Q668551","tags":[]},{"id":"wd_montagna_Q661135","name":"Großer Krottenkopf","country":"AT","lat":47.3115458,"lng":10.3556629,"types":["montagna"],"visibility":"chicca","beauty_score":0.7142883987859148,"source":"wikidata","wd":"Q661135","tags":[]},{"id":"wd_montagna_Q702352","name":"Birkkarspitze","country":"AT","lat":47.411389,"lng":11.4375,"types":["montagna"],"visibility":"chicca","beauty_score":0.7142883987859148,"source":"wikidata","wd":"Q702352","tags":[]},{"id":"wd_montagna_Q700225","name":"Gran Pilastro","country":"AT","lat":46.972519,"lng":11.727675,"types":["montagna"],"visibility":"chicca","beauty_score":0.7142883987859148,"source":"wikidata","wd":"Q700225","tags":[]},{"id":"wd_montagna_Q700259","name":"Hochgolling","country":"AT","lat":47.266111111,"lng":13.760555555,"types":["montagna"],"visibility":"chicca","beauty_score":0.7142883987859148,"source":"wikidata","wd":"Q700259","tags":[]},{"id":"wd_montagna_Q700271","name":"Plechý / Plöckenstein","country":"AT","lat":48.771111111,"lng":13.857222222,"types":["montagna"],"visibility":"chicca","beauty_score":0.7142883987859148,"source":"wikidata","wd":"Q700271","tags":[]},{"id":"wd_montagna_Q15241","name":"Schesaplana","country":"AT","lat":47.05385,"lng":9.7074,"types":["montagna"],"visibility":"chicca","beauty_score":0.7142883987859148,"source":"wikidata","wd":"Q15241","tags":[]},{"id":"wd_montagna_Q202098","name":"Ruy Mountain","country":"BG","lat":42.862777777,"lng":22.575555555,"types":["montagna"],"visibility":"chicca","beauty_score":0.7142883987859148,"source":"wikidata","wd":"Q202098","tags":[]},{"id":"wd_montagna_Q1573557","name":"Lysá hora","country":"CZ","lat":49.545833333,"lng":18.4475,"types":["montagna"],"visibility":"chicca","beauty_score":0.7142883987859148,"source":"wikidata","wd":"Q1573557","tags":[]},{"id":"wd_montagna_Q17477","name":"Puigmal","country":"FR","lat":42.38326609,"lng":2.116790662,"types":["montagna"],"visibility":"chicca","beauty_score":0.7142883987859148,"source":"wikidata","wd":"Q17477","tags":[]},{"id":"wd_montagna_Q404720","name":"Aiguille du Tour","country":"FR","lat":45.994416666,"lng":7.009833333,"types":["montagna"],"visibility":"chicca","beauty_score":0.7142883987859148,"source":"wikidata","wd":"Q404720","tags":[]},{"id":"wd_montagna_Q2298456","name":"Balaïtous","country":"FR","lat":42.838923,"lng":-0.290149,"types":["montagna"],"visibility":"chicca","beauty_score":0.7142883987859148,"source":"wikidata","wd":"Q2298456","tags":[]},{"id":"wd_montagna_Q2401467","name":"Monte Gelàs","country":"FR","lat":44.122777777,"lng":7.383888888,"types":["montagna"],"visibility":"chicca","beauty_score":0.7142883987859148,"source":"wikidata","wd":"Q2401467","tags":[]},