{
  "region_id": "it-sicilia-borghi",
  "country": "IT",
  "label_it": "Sicilia • borghi",
  "generated_at": "2026-01-14T20:55:21.034Z",
  "places": [
    {
      "id": "node:1280343597",
      "name": "Borgo Bonsignore",
      "lat": 37.422752,
      "lon": 13.2701788,
      "type": "borghi",
      "visibility": "chicca",
      "tags": [
        "name=Borgo Bonsignore",
        "name:scn=Santu Petru",
        "place=hamlet",
        "population=73",
        "source:population=Istat 2021",
        "wikidata=Q3642482",
        "wikipedia=it:Borgo Bonsignore"
      ],
      "score": 85
    },
    {
      "id": "node:1431755299",
      "name": "Borgo Verdi",
      "lat": 37.7633618,
      "lon": 14.1574362,
      "type": "borghi",
      "visibility": "chicca",
      "tags": [
        "ele=825",
        "istat_id=2147483647",
        "name=Borgo Verdi",
        "place=hamlet",
        "population=5",
        "wikidata=Q18467420"
      ],
      "score": 85
    },
    {
      "id": "node:1644923847",
      "name": "Borgo Petilia",
      "lat": 37.5432247,
      "lon": 14.0605047,
      "type": "borghi",
      "visibility": "chicca",
      "tags": [
        "name=Borgo Petilia",
        "old_name=Borgo Gigino Gattuso",
        "place=hamlet",
        "population=24",
        "wikidata=Q3642509",
        "wikipedia=it:Borgo Petilia"
      ],
      "score": 85
    },
    {
      "id": "node:1672238081",
      "name": "Borgo Canicassè Casale",
      "lat": 37.4353606,
      "lon": 14.0094507,
      "type": "borghi",
      "visibility": "chicca",
      "tags": [
        "name=Borgo Canicassè Casale",
        "place=hamlet",
        "population=21",
        "wikidata=Q3642484",
        "wikipedia=it:Borgo Canicassè Casale"
      ],
      "score": 85
    },
    {
      "id": "node:1896174207",
      "name": "Borgo Cascino",
      "lat": 37.4968247,
      "lon": 14.2003116,
      "type": "borghi",
      "visibility": "chicca",
      "tags": [
        "name=Borgo Cascino",
        "place=hamlet",
        "population=10",
        "source:population=Istat 2021",
        "wikidata=Q18461795"
      ],
      "score": 85
    },
    {
      "id": "node:2474210896",
      "name": "Borgo Pietro Lupo",
      "lat": 37.3415994,
      "lon": 14.6261359,
      "type": "borghi",
      "visibility": "chicca",
      "tags": [
        "name=Borgo Pietro Lupo",
        "place=hamlet",
        "population=1",
        "source:population=Istat 2021",
        "wikidata=Q2694971",
        "wikipedia=it:Borgo Pietro Lupo"
      ],
      "score": 85
    },
    {
      "id": "node:2546203999",
      "name": "Borgo Giacomo Schirò",
      "lat": 37.8761958,
      "lon": 13.2286825,
      "type": "borghi",
      "visibility": "chicca",
      "tags": [
        "name=Borgo Giacomo Schirò",
        "place=hamlet",
        "short_name=Borgo Schirò",
        "wikidata=Q3642543",
        "wikipedia=it:Borgo Schirò"
      ],
      "score": 85
    },
    {
      "id": "node:3955332598",
      "name": "Borgo Castellazzo",
      "lat": 38.0395553,
      "lon": 12.8595184,
      "type": "borghi",
      "visibility": "chicca",
      "tags": [
        "name=Borgo Castellazzo",
        "place=hamlet",
        "population=43",
        "wikidata=Q18471708"
      ],
      "score": 85
    },
    {
      "id": "node:316036833",
      "name": "Borgo Fenicio",
      "lat": 36.9238359,
      "lon": 14.4192886,
      "type": "borghi",
      "visibility": "chicca",
      "tags": [
        "ele=38",
        "istat_id=2147483647",
        "name=Borgo Fenicio",
        "place=hamlet",
        "population=2",
        "source:population=Istat 2021"
      ],
      "score": 75
    },
    {
      "id": "node:316036847",
      "name": "Borgo Zafaglione",
      "lat": 36.9145799,
      "lon": 14.4255235,
      "type": "borghi",
      "visibility": "chicca",
      "tags": [
        "ele=35",
        "istat_id=2147483647",
        "name=Borgo Zafaglione",
        "place=hamlet",
        "population=9",
        "source:population=Istat 2021"
      ],
      "score": 75
    },
    {
      "id": "node:1431755298",
      "name": "Borgo Pala",
      "lat": 37.7771573,
      "lon": 14.1406913,
      "type": "borghi",
      "visibility": "chicca",
      "tags": [
        "ele=850",
        "istat_id=2147483647",
        "name=Borgo Pala",
        "place=hamlet",
        "population=6"
      ],
      "score": 75
    },
    {
      "id": "node:1703357207",
      "name": "Borgo Schisina",
      "lat": 37.9461604,
      "lon": 15.1273604,
      "type": "borghi",
      "visibility": "chicca",
      "tags": [
        "abandoned=yes",
        "ele=825",
        "name=Borgo Schisina",
        "place=hamlet"
      ],
      "score": 75
    },
    {
      "id": "node:1703357212",
      "name": "Borgo Piano Torre",
      "lat": 37.9422242,
      "lon": 15.1139705,
      "type": "borghi",
      "visibility": "chicca",
      "tags": [
        "abandoned=yes",
        "ele=660",
        "name=Borgo Piano Torre",
        "place=hamlet"
      ],
      "score": 75
    },
    {
      "id": "node:1703357219",
      "name": "Borgo Morfia",
      "lat": 37.9571423,
      "lon": 15.1173686,
      "type": "borghi",
      "visibility": "chicca",
      "tags": [
        "abandoned=yes",
        "ele=970",
        "name=Borgo Morfia",
        "place=hamlet"
      ],
      "score": 75
    },
    {
      "id": "node:1703357223",
      "name": "Borgo San Giovanni",
      "lat": 37.9260348,
      "lon": 15.1130168,
      "type": "borghi",
      "visibility": "chicca",
      "tags": [
        "abandoned:place=hamlet",
        "disused=yes",
        "ele=532",
        "name=Borgo San Giovanni",
        "place=hamlet"
      ],
      "score": 75
    },
    {
      "id": "node:1734564588",
      "name": "Borgo Pietrapizzuta",
      "lat": 37.9528141,
      "lon": 15.1259837,
      "type": "borghi",
      "visibility": "chicca",
      "tags": [
        "abandoned=yes",
        "ele=970",
        "name=Borgo Pietrapizzuta",
        "place=hamlet"
      ],
      "score": 75
    },
    {
      "id": "node:1734565361",
      "name": "Borgo Malfitano",
      "lat": 37.9472981,
      "lon": 15.1302323,
      "type": "borghi",
      "visibility": "chicca",
      "tags": [
        "abandoned=yes",
        "ele=829",
        "name=Borgo Malfitano",
        "place=hamlet"
      ],
      "score": 75
    },
    {
      "id": "node:2034938914",
      "name": "Borgo Gallitano",
      "lat": 37.3367901,
      "lon": 14.0551233,
      "type": "borghi",
      "visibility": "chicca",
      "tags": [
        "name=Borgo Gallitano",
        "place=hamlet"
      ],
      "score": 75
    },
    {
      "id": "node:2036188988",
      "name": "Borgo",
      "lat": 38.0510752,
      "lon": 15.4392759,
      "type": "borghi",
      "visibility": "chicca",
      "tags": [
        "ele=180",
        "name=Borgo",
        "place=hamlet",
        "population=135"
      ],
      "score": 75
    },
    {
      "id": "node:2098505819",
      "name": "Borgo San Giacomo",
      "lat": 36.9788039,
      "lon": 14.8629154,
      "type": "borghi",
      "visibility": "chicca",
      "tags": [
        "name=Borgo San Giacomo",
        "place=hamlet"
      ],
      "score": 75
    },
    {
      "id": "node:2242181814",
      "name": "Borgo Franchetto",
      "lat": 37.4881578,
      "lon": 14.7106867,
      "type": "borghi",
      "visibility": "chicca",
      "tags": [
        "name=Borgo Franchetto",
        "place=hamlet",
        "population=63",
        "short_name=Franchetto"
      ],
      "score": 75
    },
    {
      "id": "node:2311770983",
      "name": "Borgo Molisa",
      "lat": 38.007288,
      "lon": 14.7938516,
      "type": "borghi",
      "visibility": "chicca",
      "tags": [
        "ele=820",
        "name=Borgo Molisa",
        "place=hamlet"
      ],
      "score": 75
    },
    {
      "id": "node:2427919155",
      "name": "Borgo Eras A",
      "lat": 37.8905189,
      "lon": 13.9125729,
      "type": "borghi",
      "visibility": "chicca",
      "tags": [
        "name=Borgo Eras A",
        "place=hamlet",
        "population=31"
      ],
      "score": 75
    },
    {
      "id": "node:2427938669",
      "name": "Borgo Eras B",
      "lat": 37.8830153,
      "lon": 13.9196471,
      "type": "borghi",
      "visibility": "chicca",
      "tags": [
        "name=Borgo Eras B",
        "place=hamlet"
      ],
      "score": 75
    },
    {
      "id": "node:2545925093",
      "name": "Borgo Littorio",
      "lat": 37.8247301,
      "lon": 13.4424275,
      "type": "borghi",
      "visibility": "chicca",
      "tags": [
        "name=Borgo Littorio",
        "place=hamlet"
      ],
      "score": 75
    },
    {
      "id": "node:2545985780",
      "name": "Borgo Regalmici",
      "lat": 37.6967224,
      "lon": 13.7206211,
      "type": "borghi",
      "visibility": "chicca",
      "tags": [
        "name=Borgo Regalmici",
        "place=hamlet"
      ],
      "score": 75
    },
    {
      "id": "node:2546774137",
      "name": "Borgo Angelo Rizza",
      "lat": 37.2306829,
      "lon": 15.0239781,
      "type": "borghi",
      "visibility": "chicca",
      "tags": [
        "name=Borgo Angelo Rizza",
        "place=hamlet"
      ],
      "score": 75
    },
    {
      "id": "node:2546935070",
      "name": "Borgo Guttadauro",
      "lat": 37.166984,
      "lon": 14.281635,
      "type": "borghi",
      "visibility": "chicca",
      "tags": [
        "alt_name=Borgo Emanuele Guttadauro",
        "name=Borgo Guttadauro",
        "place=hamlet"
      ],
      "score": 75
    },
    {
      "id": "node:2547009585",
      "name": "Borgo Callea",
      "lat": 37.6296665,
      "lon": 13.7544534,
      "type": "borghi",
      "visibility": "chicca",
      "tags": [
        "name=Borgo Callea",
        "place=hamlet",
        "population=1",
        "source:population=Istat 2021"
      ],
      "score": 75
    },
    {
      "id": "node:2551144989",
      "name": "Borgo Ficuzza",
      "lat": 37.4671291,
      "lon": 14.6317003,
      "type": "borghi",
      "visibility": "chicca",
      "tags": [
        "name=Borgo Ficuzza",
        "place=hamlet",
        "population=3",
        "source:population=Istat 2021"
      ],
      "score": 75
    },
    {
      "id": "node:2551488563",
      "name": "Borgo Manganaro",
      "lat": 37.7919296,
      "lon": 13.6114607,
      "type": "borghi",
      "visibility": "chicca",
      "tags": [
        "name=Borgo Manganaro",
        "place=hamlet",
        "population=21"
      ],
      "score": 75
    },
    {
      "id": "node:2553519730",
      "name": "Borgo Vicaretto",
      "lat": 37.6674034,
      "lon": 13.9253126,
      "type": "borghi",
      "visibility": "chicca",
      "tags": [
        "name=Borgo Vicaretto",
        "place=hamlet"
      ],
      "score": 75
    },
    {
      "id": "node:2644258394",
      "name": "Borgo Angelo Borzellino",
      "lat": 37.9189662,
      "lon": 13.1492149,
      "type": "borghi",
      "visibility": "chicca",
      "tags": [
        "name=Borgo Angelo Borzellino",
        "place=hamlet",
        "short_name=Borgo Borzellino"
      ],
      "score": 75
    },
    {
      "id": "node:2646131964",
      "name": "Borgo Salvatore Giuliano",
      "lat": 37.8210663,
      "lon": 14.6865624,
      "type": "borghi",
      "visibility": "chicca",
      "tags": [
        "alt_name=Borgo Giuliano",
        "name=Borgo Salvatore Giuliano",
        "place=hamlet"
      ],
      "score": 75
    },
    {
      "id": "node:2649875838",
      "name": "Borgo E.S.A.",
      "lat": 37.5065752,
      "lon": 14.5902004,
      "type": "borghi",
      "visibility": "chicca",
      "tags": [
        "name=Borgo E.S.A.",
        "place=hamlet"
      ],
      "score": 75
    },
    {
      "id": "node:2653879449",
      "name": "Borgo Arrigo Ventimiglia",
      "lat": 37.0672345,
      "lon": 14.5042811,
      "type": "borghi",
      "visibility": "chicca",
      "tags": [
        "name=Borgo Arrigo Ventimiglia",
        "place=hamlet",
        "short_name=Borgo Ventimiglia"
      ],
      "score": 75
    },
    {
      "id": "node:2654239762",
      "name": "Borgo Palo",
      "lat": 37.4955252,
      "lon": 13.9036553,
      "type": "borghi",
      "visibility": "chicca",
      "tags": [
        "name=Borgo Palo",
        "place=hamlet"
      ],
      "score": 75
    },
    {
      "id": "node:4083437377",
      "name": "Borgo Riena",
      "lat": 37.7229071,
      "lon": 13.5326858,
      "type": "borghi",
      "visibility": "chicca",
      "tags": [
        "name=Borgo Riena",
        "place=hamlet"
      ],
      "score": 75
    },
    {
      "id": "node:4633774731",
      "name": "Borgo dei Comisani",
      "lat": 36.9662783,
      "lon": 14.5734782,
      "type": "borghi",
      "visibility": "chicca",
      "tags": [
        "name=Borgo dei Comisani",
        "place=hamlet",
        "population=2",
        "source:population=Istat 2021"
      ],
      "score": 75
    },
    {
      "id": "node:4633774732",
      "name": "Borgo Fontana Volpe",
      "lat": 36.9703286,
      "lon": 14.5683767,
      "type": "borghi",
      "visibility": "chicca",
      "tags": [
        "name=Borgo Fontana Volpe",
        "place=hamlet"
      ],
      "score": 75
    },
    {
      "id": "node:4633774733",
      "name": "Borgo del Vivaio",
      "lat": 36.9701914,
      "lon": 14.572282,
      "type": "borghi",
      "visibility": "chicca",
      "tags": [
        "name=Borgo del Vivaio",
        "place=hamlet",
        "population=26",
        "source:population=Istat 2021"
      ],
      "score": 75
    },
    {
      "id": "node:4633774734",
      "name": "Borgo Orchidea",
      "lat": 36.9826763,
      "lon": 14.5901978,
      "type": "borghi",
      "visibility": "chicca",
      "tags": [
        "name=Borgo Orchidea",
        "place=hamlet",
        "population=17",
        "source:population=Istat 2021"
      ],
      "score": 75
    },
    {
      "id": "node:5526319940",
      "name": "Borgo Pantano",
      "lat": 38.2024286,
      "lon": 15.4201537,
      "type": "borghi",
      "visibility": "chicca",
      "tags": [
        "name=Borgo Pantano",
        "place=hamlet"
      ],
      "score": 75
    },
    {
      "id": "node:5968535547",
      "name": "Borgo Roccella",
      "lat": 37.7598437,
      "lon": 13.1244859,
      "type": "borghi",
      "visibility": "chicca",
      "tags": [
        "name=Borgo Roccella",
        "place=hamlet",
        "population=2"
      ],
      "score": 75
    },
    {
      "id": "node:6461973740",
      "name": "Borgo Portella della Croce",
      "lat": 37.7723791,
      "lon": 13.4943505,
      "type": "borghi",
      "visibility": "chicca",
      "tags": [
        "name=Borgo Portella della Croce",
        "place=hamlet"
      ],
      "score": 75
    },
    {
      "id": "node:6814281478",
      "name": "Borgo Garbinogara",
      "lat": 37.9535047,
      "lon": 13.8499642,
      "type": "borghi",
      "visibility": "chicca",
      "tags": [
        "name=Borgo Garbinogara",
        "place=hamlet",
        "population=10"
      ],
      "score": 75
    },
    {
      "id": "node:6910765919",
      "name": "Borgo Parrini",
      "lat": 38.0736725,
      "lon": 13.1082137,
      "type": "borghi",
      "visibility": "chicca",
      "tags": [
        "name=Borgo Parrini",
        "place=hamlet",
        "population=109"
      ],
      "score": 75
    },
    {
      "id": "node:7129230212",
      "name": "Borgo Portella della Paglia",
      "lat": 38.0096216,
      "lon": 13.2438952,
      "type": "borghi",
      "visibility": "chicca",
      "tags": [
        "name=Borgo Portella della Paglia",
        "place=hamlet"
      ],
      "score": 75
    },
    {
      "id": "node:7622331802",
      "name": "Borgo Aquila",
      "lat": 37.9144663,
      "lon": 13.2986096,
      "type": "borghi",
      "visibility": "chicca",
      "tags": [
        "name=Borgo Aquila",
        "place=hamlet"
      ],
      "score": 75
    },
    {
      "id": "node:8300571531",
      "name": "Borgo Ratumemi",
      "lat": 37.3142876,
      "lon": 14.1420972,
      "type": "borghi",
      "visibility": "chicca",
      "tags": [
        "name=Borgo Ratumemi",
        "place=hamlet"
      ],
      "score": 75
    },
    {
      "id": "node:8372234646",
      "name": "Borgo Saladino",
      "lat": 37.8875647,
      "lon": 13.3023559,
      "type": "borghi",
      "visibility": "chicca",
      "tags": [
        "name=Borgo Saladino",
        "place=hamlet"
      ],
      "score": 75
    },
    {
      "id": "node:8971549867",
      "name": "Borgo Borruso",
      "lat": 37.9701678,
      "lon": 12.8833419,
      "type": "borghi",
      "visibility": "chicca",
      "tags": [
        "name=Borgo Borruso",
        "place=hamlet"
      ],
      "score": 75
    },
    {
      "id": "node:9062305126",
      "name": "Borgo Gurgazzi",
      "lat": 37.2012562,
      "lon": 14.0469925,
      "type": "borghi",
      "visibility": "chicca",
      "tags": [
        "name=Borgo Gurgazzi",
        "place=hamlet"
      ],
      "score": 75
    },
    {
      "id": "node:9064006410",
      "name": "Borgo Runza",
      "lat": 37.743351,
      "lon": 12.6515929,
      "type": "borghi",
      "visibility": "chicca",
      "tags": [
        "name=Borgo Runza",
        "place=hamlet"
      ],
      "score": 75
    },
    {
      "id": "node:10800202483",
      "name": "Borgo Europa",
      "lat": 36.9280218,
      "lon": 14.4669918,
      "type": "borghi",
      "visibility": "chicca",
      "tags": [
        "name=Borgo Europa",
        "place=hamlet",
        "population=232",
        "source:population=Istat 2021"
      ],
      "score": 75
    },
    {
      "id": "node:11230038046",
      "name": "Borgo del Vecchio Carrubo",
      "lat": 36.9222097,
      "lon": 14.4500631,
      "type": "borghi",
      "visibility": "chicca",
      "tags": [
        "name=Borgo del Vecchio Carrubo",
        "place=hamlet"
      ],
      "score": 75
    },
    {
      "id": "node:12782066995",
      "name": "Borgo Malia",
      "lat": 37.8803005,
      "lon": 14.2078281,
      "type": "borghi",
      "visibility": "chicca",
      "tags": [
        "name=Borgo Malia",
        "place=hamlet"
      ],
      "score": 75
    },
    {
      "id": "node:13141856650",
      "name": "Borgo Bosco",
      "lat": 36.9634331,
      "lon": 14.5920236,
      "type": "borghi",
      "visibility": "chicca",
      "tags": [
        "name=Borgo Bosco",
        "place=hamlet"
      ],
      "score": 75
    },
    {
      "id": "node:13250442987",
      "name": "Borgo 84",
      "lat": 36.7239742,
      "lon": 15.1185447,
      "type": "borghi",
      "visibility": "chicca",
      "tags": [
        "name=Borgo 84",
        "place=hamlet"
      ],
      "score": 75
    },
    {
      "id": "node:602097307",
      "name": "Finale",
      "lat": 38.0198811,
      "lon": 14.1622345,
      "type": "borghi",
      "visibility": "chicca",
      "tags": [
        "alt_name=Finale di Pollina",
        "name=Finale",
        "place=village",
        "population=1792",
        "postal_code=90010",
        "website=https://www.facebook.com/finale.sicilia",
        "wikidata=Q2156103",
        "wikipedia=it:Finale (Pollina)"
      ],
      "score": 71
    },
    {
      "id": "node:2460840155",
      "name": "Granieri",
      "lat": 37.1273106,
      "lon": 14.5771806,
      "type": "borghi",
      "visibility": "chicca",
      "tags": [
        "ele=351",
        "name=Granieri",
        "place=village",
        "population=321",
        "source:population=Istat 2021",
        "website=http://granieri.altervista.org",
        "wikidata=Q1054609",
        "wikipedia=it:Granieri"
      ],
      "score": 71
    },
    {
      "id": "node:3735598316",
      "name": "Solicchiata",
      "lat": 37.8650985,
      "lon": 15.0729026,
      "type": "borghi",
      "visibility": "chicca",
      "tags": [
        "name=Solicchiata",
        "place=village",
        "population=549",
        "source:population=Istat 2021",
        "website=http://www.solicchiata.it/",
        "wikidata=Q2380534",
        "wikipedia=it:Solicchiata"
      ],
      "score": 71
    },
    {
      "id": "node:67253815",
      "name": "Sant'Angelo Muxaro",
      "lat": 37.4790152,
      "lon": 13.5443155,
      "type": "borghi",
      "visibility": "classica",
      "tags": [
        "name=Sant'Angelo Muxaro",
        "name:scn=Sant'Àngilu Muxaru",
        "place=village",
        "population=1172",
        "source:population=Istat febbraio 2024",
        "wikidata=Q125763074"
      ],
      "score": 65
    },
    {
      "id": "node:67253841",
      "name": "Camastra",
      "lat": 37.2522942,
      "lon": 13.7935999,
      "type": "borghi",
      "visibility": "classica",
      "tags": [
        "name=Camastra",
        "place=village",
        "population=1978",
        "source:population=Istat febbraio 2024",
        "wikidata=Q125753948"
      ],
      "score": 65
    },
    {
      "id": "node:67253933",
      "name": "San Biagio Platani",
      "lat": 37.5090143,
      "lon": 13.524282,
      "type": "borghi",
      "visibility": "classica",
      "tags": [
        "name=San Biagio Platani",
        "name:scn=Sammrasi",
        "place=village",
        "population=2818",
        "source:population=Istat febbraio 2024",
        "wikidata=Q125763072"
      ],
      "score": 65
    },
    {
      "id": "node:67254054",
      "name": "Serradifalco",
      "lat": 37.4544225,
      "lon": 13.8818684,
      "type": "borghi",
      "visibility": "classica",
      "tags": [
        "name=Serradifalco",
        "name:scn=Serradifarcu",
        "place=village",
        "population=5449",
        "source:population=Istat febbraio 2024",
        "wikidata=Q30030622"
      ],
      "score": 65
    },
    {
      "id": "node:67254072",
      "name": "Resuttano",
      "lat": 37.678648,
      "lon": 14.029464,
      "type": "borghi",
      "visibility": "classica",
      "tags": [
        "name=Resuttano",
        "name:scn=Resuttanu",
        "place=village",
        "population=1715",
        "source:population=Istat febbraio 2024",
        "wikidata=Q30029323"
      ],
      "score": 65
    },
    {
      "id": "node:67254449",
      "name": "San Pietro Clarenza",
      "lat": 37.568853,
      "lon": 15.022886,
      "type": "borghi",
      "visibility": "classica",
      "tags": [
        "name=San Pietro Clarenza",
        "name:scn=San Petru Clarenza",
        "place=village",
        "population=8331",
        "source:population=Istat febbraio 2024",
        "wikidata=Q30030099"
      ],
      "score": 65
    },
    {
      "id": "node:67254518",
      "name": "Valverde",
      "lat": 37.576954,
      "lon": 15.124188,
      "type": "borghi",
      "visibility": "classica",
      "tags": [
        "name=Valverde",
        "name:scn=Beɖɖuvirdi",
        "place=village",
        "population=7831",
        "source:population=Istat febbraio 2024",
        "wikidata=Q30031540"
      ],
      "score": 65
    },
    {
      "id": "node:67254835",
      "name": "Assoro",
      "lat": 37.6279049,
      "lon": 14.4238862,
      "type": "borghi",
      "visibility": "classica",
      "tags": [
        "alt_name:la=Asaru",
        "name=Assoro",
        "name:scn=Assoru",
        "place=village",
        "population=4774",
        "source:population=Istat febbraio 2024",
        "wikidata=Q4810310"
      ],
      "score": 65
    },
    {
      "id": "node:67255026",
      "name": "Melia",
      "lat": 37.9034002,
      "lon": 15.2754256,
      "type": "borghi",
      "visibility": "classica",
      "tags": [
        "ele=410",
        "name=Melia",
        "name:scn=Milia",
        "place=village",
        "population=374",
        "wikidata=Q18464144"
      ],
      "score": 65
    },
    {
      "id": "node:67255340",
      "name": "Alì Terme",
      "lat": 38.005064,
      "lon": 15.42269,
      "type": "borghi",
      "visibility": "classica",
      "tags": [
        "name=Alì Terme",
        "name:scn=Marina d'Alì",
        "place=village",
        "population=2308",
        "short_name:scn=Alì Marina",
        "source:population=Istat febbraio 2024",
        "wikidata=Q30022124"
      ],
      "score": 65
    },
    {
      "id": "node:67255538",
      "name": "Alcara li Fusi",
      "lat": 38.0213177,
      "lon": 14.7013957,
      "type": "borghi",
      "visibility": "classica",
      "tags": [
        "name=Alcara li Fusi",
        "name:scn=l'Arcara",
        "place=village",
        "population=1651",
        "source:population=Istat febbraio 2024",
        "wikidata=Q125749081"
      ],
      "score": 65
    },
    {
      "id": "node:67255666",
      "name": "Leni",
      "lat": 38.5550993,
      "lon": 14.8252497,
      "type": "borghi",
      "visibility": "classica",
      "tags": [
        "name=Leni",
        "name:ar=ليني",
        "name:it=Leni",
        "name:ru=Лени",
        "name:uk=Лені",
        "place=village",
        "population=672",
        "source:population=Istat febbraio 2024",
        "wikidata=Q33689645"
      ],
      "score": 65
    },
    {
      "id": "node:67255693",
      "name": "Frazzanò",
      "lat": 38.0722687,
      "lon": 14.7449534,
      "type": "borghi",
      "visibility": "classica",
      "tags": [
        "name=Frazzanò",
        "place=village",
        "population=559",
        "source:population=Istat febbraio 2024",
        "wikidata=Q30025896"
      ],
      "score": 65
    },
    {
      "id": "node:67255808",
      "name": "Castell'Umberto",
      "lat": 38.0843696,
      "lon": 14.8071222,
      "type": "borghi",
      "visibility": "classica",
      "tags": [
        "ele=660",
        "name=Castell'Umberto",
        "name:scn=Casteḍḍ'Umbertu",
        "old_name:scn=Castania",
        "place=village",
        "population=2813",
        "source:population=Istat febbraio 2024",
        "wikidata=Q491697"
      ],
      "score": 65
    },
    {
      "id": "node:67256177",
      "name": "Santa Marina Salina",
      "lat": 38.5595401,
      "lon": 14.8715961,
      "type": "borghi",
      "visibility": "classica",
      "tags": [
        "name=Santa Marina Salina",
        "name:scn=Santa Marina",
        "place=village",
        "population=852",
        "source:population=Istat febbraio 2024",
        "wikidata=Q30030277"
      ],
      "score": 65
    },
    {
      "id": "node:67256598",
      "name": "Cerda",
      "lat": 37.9038816,
      "lon": 13.8154084,
      "type": "borghi",
      "visibility": "classica",
      "tags": [
        "name=Cerda",
        "place=village",
        "population=4879",
        "source:population=Istat febbraio 2024",
        "wikidata=Q125695205"
      ],
      "score": 65
    },
    {
      "id": "node:67256642",
      "name": "Isola delle Femmine",
      "lat": 38.198295,
      "lon": 13.2473444,
      "type": "borghi",
      "visibility": "classica",
      "tags": [
        "name=Isola delle Femmine",
        "name:scn=Isula",
        "place=village",
        "population=7031",
        "source:population=Istat febbraio 2024",
        "wikidata=Q489865",
        "wikipedia=it:Isola delle Femmine"
      ],
      "score": 65
    },
    {
      "id": "node:67256783",
      "name": "Castelbuono",
      "lat": 37.9331292,
      "lon": 14.0877842,
      "type": "borghi",
      "visibility": "classica",
      "tags": [
        "name=Castelbuono",
        "name:ru=Кастельбуоно",
        "name:scn=Castiddubbonu",
        "place=village",
        "population=8010",
        "source:population=Istat febbraio 2024",
        "wikidata=Q125695085"
      ],
      "score": 65
    },
    {
      "id": "node:268411542",
      "name": "Porto Palo",
      "lat": 37.5750156,
      "lon": 12.9039787,
      "type": "borghi",
      "visibility": "classica",
      "tags": [
        "name=Porto Palo",
        "note=popolazione ottenuta aggiungendo anche gli abitanti di Porto Palo Est",
        "place=village",
        "population=220",
        "source:population=Istat 2021",
        "wikidata=Q3897578",
        "wikipedia=it:Porto Palo"
      ],
      "score": 65
    },
    {
      "id": "node:268591120",
      "name": "Balata di Baida",
      "lat": 38.0252954,
      "lon": 12.7895232,
      "type": "borghi",
      "visibility": "classica",
      "tags": [
        "name=Balata di Baida",
        "place=village",
        "population=209",
        "wikidata=Q3633214",
        "wikipedia=it:Balata di Baida"
      ],
      "score": 65
    },
    {
      "id": "node:270723454",
      "name": "Aspra",
      "lat": 38.103736,
      "lon": 13.4988976,
      "type": "borghi",
      "visibility": "classica",
      "tags": [
        "name=Aspra",
        "place=village",
        "population=3981",
        "wikidata=Q4808202",
        "wikipedia=it:Aspra (Bagheria)"
      ],
      "score": 65
    },
    {
      "id": "node:271010627",
      "name": "Lingua",
      "lat": 38.538839,
      "lon": 14.867436,
      "type": "borghi",
      "visibility": "classica",
      "tags": [
        "name=Lingua",
        "place=village",
        "population=262",
        "wikidata=Q18463761"
      ],
      "score": 65
    },
    {
      "id": "node:273440551",
      "name": "Canneto",
      "lat": 38.4905952,
      "lon": 14.9623055,
      "type": "borghi",
      "visibility": "classica",
      "tags": [
        "ele=8",
        "name=Canneto",
        "place=village",
        "population=2065",
        "wikidata=Q3655409",
        "wikipedia=it:Canneto (Lipari)"
      ],
      "score": 65
    },
    {
      "id": "node:273440553",
      "name": "Quattropani",
      "lat": 38.507912,
      "lon": 14.9167384,
      "type": "borghi",
      "visibility": "classica",
      "tags": [
        "name=Quattropani",
        "place=village",
        "population=821",
        "wikidata=Q18465134",
        "wikipedia=it:Quattropani"
      ],
      "score": 65
    },
    {
      "id": "node:275933667",
      "name": "Aci Trezza",
      "lat": 37.5638474,
      "lon": 15.1614186,
      "type": "borghi",
      "visibility": "classica",
      "tags": [
        "name=Aci Trezza",
        "place=village",
        "population=4771",
        "wikidata=Q341300",
        "wikipedia=it:Aci Trezza"
      ],
      "score": 65
    },
    {
      "id": "node:276522706",
      "name": "Santa Maria la Scala",
      "lat": 37.6171389,
      "lon": 15.172408,
      "type": "borghi",
      "visibility": "classica",
      "tags": [
        "name=Santa Maria la Scala",
        "place=village",
        "population=813",
        "wikidata=Q1884772",
        "wikipedia=it:Santa Maria la Scala"
      ],
      "score": 65
    },
    {
      "id": "node:280848083",
      "name": "Pozzillo",
      "lat": 37.6604693,
      "lon": 15.1948741,
      "type": "borghi",
      "visibility": "classica",
      "tags": [
        "alt_name=Pozzillo Inferiore",
        "name=Pozzillo",
        "place=village",
        "population=1179",
        "wikidata=Q2635975",
        "wikipedia=it:Pozzillo (Acireale)"
      ],
      "score": 65
    },
    {
      "id": "node:288343509",
      "name": "Ognina",
      "lat": 36.9850031,
      "lon": 15.2597843,
      "type": "borghi",
      "visibility": "classica",
      "tags": [
        "name=Ognina",
        "place=village",
        "population=272",
        "source:population=Istat 2021",
        "wikidata=Q3349804"
      ],
      "score": 65
    },
    {
      "id": "node:288343511",
      "name": "Cassibile",
      "lat": 36.9762673,
      "lon": 15.197661,
      "type": "borghi",
      "visibility": "classica",
      "tags": [
        "name=Cassibile",
        "place=village",
        "population=4605",
        "source:population=Istat 2021",
        "wikidata=Q1012526"
      ],
      "score": 65
    },
    {
      "id": "node:301715679",
      "name": "Tonnarella",
      "lat": 38.1275952,
      "lon": 15.1185726,
      "type": "borghi",
      "visibility": "classica",
      "tags": [
        "ele=5",
        "name=Tonnarella",
        "name:scn=a Tunnareḍḍa",
        "place=village",
        "population=1193",
        "wikidata=Q3993151",
        "wikipedia=it:Tonnarella"
      ],
      "score": 65
    },
    {
      "id": "node:309143589",
      "name": "Marettimo",
      "lat": 37.9683832,
      "lon": 12.0737919,
      "type": "borghi",
      "visibility": "classica",
      "tags": [
        "name=Marettimo",
        "place=village",
        "population=664",
        "wikidata=Q18472530"
      ],
      "score": 65
    },
    {
      "id": "node:352943317",
      "name": "Donnalucata",
      "lat": 36.7627924,
      "lon": 14.6372223,
      "type": "borghi",
      "visibility": "classica",
      "tags": [
        "name=Donnalucata",
        "place=village",
        "population=3533",
        "source:population=Istat 2021",
        "wikidata=Q379107",
        "wikipedia=it:Donnalucata"
      ],
      "score": 65
    },
    {
      "id": "node:355548852",
      "name": "Sampieri",
      "lat": 36.720397,
      "lon": 14.7367789,
      "type": "borghi",
      "visibility": "classica",
      "tags": [
        "name=Sampieri",
        "place=village",
        "population=732",
        "source:population=Istat 2021",
        "wikidata=Q386929",
        "wikipedia=it:Sampieri"
      ],
      "score": 65
    },
    {
      "id": "node:364927860",
      "name": "Pedalino",
      "lat": 37.0236326,
      "lon": 14.5840085,
      "type": "borghi",
      "visibility": "classica",
      "tags": [
        "name=Pedalino",
        "place=village",
        "population=2124",
        "source:population=Istat 2021",
        "wikidata=Q2232790",
        "wikipedia=it:Pedalino"
      ],
      "score": 65
    },
    {
      "id": "node:368067183",
      "name": "Punta Secca",
      "lat": 36.7880597,
      "lon": 14.4943956,
      "type": "borghi",
      "visibility": "classica",
      "tags": [
        "name=Punta Secca",
        "place=village",
        "population=339",
        "source:population=Istat 2021",
        "wikidata=Q762981",
        "wikipedia=it:Punta Secca"
      ],
      "score": 65
    },
    {
      "id": "node:368067945",
      "name": "Casuzze",
      "lat": 36.7866149,
      "lon": 14.5249265,
      "type": "borghi",
      "visibility": "classica",
      "tags": [
        "name=Casuzze",
        "place=village",
        "population=552",
        "source:population=Istat 2021",
        "wikidata=Q3663149",
        "wikipedia=it:Casuzze"
      ],
      "score": 65
    },
    {
      "id": "node:368364710",
      "name": "Testa dell'Acqua",
      "lat": 36.9622889,
      "lon": 14.9744509,
      "type": "borghi",
      "visibility": "classica",
      "tags": [
        "name=Testa dell'Acqua",
        "place=village",
        "population=213",
        "source:population=Istat 2021",
        "wikidata=Q18471315",
        "wikipedia=it:Testa dell'Acqua"
      ],
      "score": 65
    },
    {
      "id": "node:373450551",
      "name": "Canalicchio",
      "lat": 37.5398012,
      "lon": 15.097114,
      "type": "borghi",
      "visibility": "classica",
      "tags": [
        "ele=140",
        "name=Canalicchio",
        "place=village",
        "population=6704",
        "source:population=Istat 2021",
        "wikidata=Q2583458",
        "wikipedia=it:Canalicchio (Tremestieri Etneo)"
      ],
      "score": 65
    },
    {
      "id": "node:451025649",
      "name": "Mongiove",
      "lat": 38.148243,
      "lon": 15.0138306,
      "type": "borghi",
      "visibility": "classica",
      "tags": [
        "name=Mongiove",
        "place=village",
        "population=565",
        "wikidata=Q2403597",
        "wikipedia=it:Mongiove"
      ],
      "score": 65
    },
    {
      "id": "node:482893200",
      "name": "Borgata Costiera",
      "lat": 37.710335,
      "lon": 12.6411393,
      "type": "borghi",
      "visibility": "classica",
      "tags": [
        "ele=128",
        "istat_id=2147483647",
        "name=Borgata Costiera",
        "place=village",
        "population=410",
        "source=Istat 2001 - geodati.gfoss.it",
        "wikidata=Q3642448",
        "wikipedia=it:Borgata Costiera"
      ],
      "score": 65
    },
    {
      "id": "node:482893203",
      "name": "Mazara Due",
      "lat": 37.6817869,
      "lon": 12.6024021,
      "type": "borghi",
      "visibility": "classica",
      "tags": [
        "ele=45",
        "istat_id=2147483647",
        "name=Mazara Due",
        "place=village",
        "population=1270",
        "source=Istat 2001 - geodati.gfoss.it",
        "wikidata=Q3853218",
        "wikipedia=it:Mazara Due"
      ],
      "score": 65
    },
    {
      "id": "node:520581309",
      "name": "Capomulini",
      "lat": 37.5762235,
      "lon": 15.171342,
      "type": "borghi",
      "visibility": "classica",
      "tags": [
        "name=Capomulini",
        "place=village",
        "population=308",
        "wikidata=Q2139380",
        "wikipedia=it:Capo Mulini"
      ],
      "score": 65
    },
    {
      "id": "node:559955382",
      "name": "Tre Fontane",
      "lat": 37.5741707,
      "lon": 12.7306069,
      "type": "borghi",
      "visibility": "classica",
      "tags": [
        "ele=4",
        "istat_id=2147483647",
        "name=Tre Fontane",
        "place=village",
        "population=1263",
        "postal_code=91021",
        "wikidata=Q18473008",
        "wikipedia=it:Tre Fontane (Campobello di Mazara)"
      ],
      "score": 65
    },
    {
      "id": "node:574337789",
      "name": "Fleri",
      "lat": 37.6554252,
      "lon": 15.097831,
      "type": "borghi",
      "visibility": "classica",
      "tags": [
        "name=Fleri",
        "place=village",
        "population=1191",
        "wikidata=Q3746571",
        "wikipedia=it:Fleri"
      ],
      "score": 65
    },
    {
      "id": "node:576014141",
      "name": "Pisano",
      "lat": 37.6647222,
      "lon": 15.1103046,
      "type": "borghi",
      "visibility": "classica",
      "tags": [
        "name=Pisano",
        "place=village",
        "population=305",
        "wikidata=Q1884046",
        "wikipedia=it:Pisano Etneo"
      ],
      "score": 65
    },
    {
      "id": "node:592391978",
      "name": "Città Giardino",
      "lat": 37.1031795,
      "lon": 15.20769,
      "type": "borghi",
      "visibility": "classica",
      "tags": [
        "name=Città Giardino",
        "place=village",
        "population=2592",
        "source:population=Istat 2021",
        "wikidata=Q590156",
        "wikipedia=it:Città Giardino (Melilli)"
      ],
      "score": 65
    },
    {
      "id": "node:596506839",
      "name": "Portella di Mare",
      "lat": 38.0718721,
      "lon": 13.4552035,
      "type": "borghi",
      "visibility": "classica",
      "tags": [
        "name=Portella di Mare",
        "place=village",
        "population=4707",
        "wikidata=Q3453318"
      ],
      "score": 65
    },
    {
      "id": "node:665117951",
      "name": "San Martino delle Scale",
      "lat": 38.0885504,
      "lon": 13.2510823,
      "type": "borghi",
      "visibility": "classica",
      "tags": [
        "name=San Martino delle Scale",
        "place=village",
        "population=540",
        "wikidata=Q3947649",
        "wikipedia=it:San Martino delle Scale"
      ],
      "score": 65
    },
    {
      "id": "node:675822927",
      "name": "San Nicola l'Arena",
      "lat": 38.0152408,
      "lon": 13.6144186,
      "type": "borghi",
      "visibility": "classica",
      "tags": [
        "name=San Nicola l'Arena",
        "place=village",
        "population=645",
        "wikidata=Q3947725",
        "wikipedia=it:San Nicola l'Arena"
      ],
      "score": 65
    },
    {
      "id": "node:677043567",
      "name": "Porticello",
      "lat": 38.0890349,
      "lon": 13.5376937,
      "type": "borghi",
      "visibility": "classica",
      "tags": [
        "name=Porticello",
        "place=village",
        "population=5551",
        "wikidata=Q3399292"
      ],
      "score": 65
    },
    {
      "id": "node:692920897",
      "name": "Macari",
      "lat": 38.1319259,
      "lon": 12.7413471,
      "type": "borghi",
      "visibility": "classica",
      "tags": [
        "addr:city=San Vito Lo Capo",
        "alt_name=Makari",
        "name=Macari",
        "place=village",
        "population=329",
        "wikidata=Q18472486"
      ],
      "score": 65
    },
    {
      "id": "node:700904268",
      "name": "Giaconia",
      "lat": 37.5572115,
      "lon": 14.9183151,
      "type": "borghi",
      "visibility": "classica",
      "tags": [
        "ele=297",
        "istat_id=2147483647",
        "name=Giaconia",
        "place=village",
        "population=387",
        "wikidata=Q18461344"
      ],
      "score": 65
    },
    {
      "id": "node:700904279",
      "name": "Palazzolo",
      "lat": 37.5647611,
      "lon": 14.9299432,
      "type": "borghi",
      "visibility": "classica",
      "tags": [
        "ele=325",
        "istat_id=2147483647",
        "name=Palazzolo",
        "place=village",
        "population=1608",
        "wikidata=Q18461454"
      ],
      "score": 65
    },
    {
      "id": "node:700904331",
      "name": "Frumenti",
      "lat": 37.5965929,
      "lon": 15.0111839,
      "type": "borghi",
      "visibility": "classica",
      "tags": [
        "ele=290",
        "istat_id=2147483647",
        "name=Frumenti",
        "place=village",
        "population=441",
        "source:population=Istat 2021",
        "wikidata=Q18461338"
      ],
      "score": 65
    },
    {
      "id": "node:700909193",
      "name": "Maugeri",
      "lat": 37.5898879,
      "lon": 15.1252572,
      "type": "borghi",
      "visibility": "classica",
      "tags": [
        "ele=295",
        "istat_id=2147483647",
        "name=Maugeri",
        "note=popolazione ottenuta sottraendo gli abitanti di Belfiore",
        "place=village",
        "population=640",
        "source:population=Istat 2021",
        "wikidata=Q18461421"
      ],
      "score": 65
    },
    {
      "id": "node:810125856",
      "name": "Villasmundo",
      "lat": 37.2514111,
      "lon": 15.092585,
      "type": "borghi",
      "visibility": "classica",
      "tags": [
        "name=Villasmundo",
        "place=village",
        "population=3299",
        "source:population=Istat 2021",
        "wikidata=Q2225123",
        "wikipedia=it:Villasmundo"
      ],
      "score": 65
    },
    {
      "id": "node:825679690",
      "name": "Marina di Modica",
      "lat": 36.712695,
      "lon": 14.775637,
      "type": "borghi",
      "visibility": "classica",
      "tags": [
        "name=Marina di Modica",
        "place=village",
        "population=1040",
        "postal_code=97010",
        "source:population=Istat 2021",
        "wikidata=Q18509757"
      ],
      "score": 65
    },
    {
      "id": "node:836202941",
      "name": "Ciaculli",
      "lat": 38.0783021,
      "lon": 13.4011969,
      "type": "borghi",
      "visibility": "classica",
      "tags": [
        "name=Ciaculli",
        "place=village",
        "population=6307",
        "wikidata=Q2972191",
        "wikipedia=it:Ciaculli"
      ],
      "score": 65
    },
    {
      "id": "node:836243063",
      "name": "Solanto",
      "lat": 38.0766691,
      "lon": 13.5428481,
      "type": "borghi",
      "visibility": "classica",
      "tags": [
        "name=Solanto",
        "place=village",
        "population=303",
        "wikidata=Q18289145",
        "wikipedia=it:Solanto"
      ],
      "score": 65
    },
    {
      "id": "node:838048455",
      "name": "Giacalone",
      "lat": 38.0333002,
      "lon": 13.2346562,
      "type": "borghi",
      "visibility": "classica",
      "tags": [
        "name=Giacalone",
        "place=village",
        "population=204",
        "wikidata=Q3761859",
        "wikipedia=it:Giacalone"
      ],
      "score": 65
    },
    {
      "id": "node:846346566",
      "name": "Pioppo",
      "lat": 38.047224,
      "lon": 13.2281406,
      "type": "borghi",
      "visibility": "classica",
      "tags": [
        "name=Pioppo",
        "place=village",
        "population=2656",
        "wikidata=Q18468538",
        "wikipedia=it:Pioppo (Monreale)"
      ],
      "score": 65
    },
    {
      "id": "node:846545993",
      "name": "Santa Maria la Stella",
      "lat": 37.6265936,
      "lon": 15.1245931,
      "type": "borghi",
      "visibility": "classica",
      "tags": [
        "ele=320",
        "istat_id=2147483647",
        "name=Santa Maria la Stella",
        "note=popolazione ottenuta sottraendo gli abitanti intorno a Via Tropea",
        "place=village",
        "population=4859",
        "source:population=Istat 2021",
        "wikidata=Q3949197",
        "wikipedia=it:Santa Maria la Stella"
      ],
      "score": 65
    },
    {
      "id": "node:846545998",
      "name": "Pennisi",
      "lat": 37.6465696,
      "lon": 15.1255962,
      "type": "borghi",
      "visibility": "classica",
      "tags": [
        "ele=360",
        "istat_id=2147483647",
        "name=Pennisi",
        "note=popolazione ottenuta sottraendo gli abitanti di Fiandaca",
        "place=village",
        "population=838",
        "source:population=Istat 2021",
        "wikidata=Q2513042",
        "wikipedia=it:Pennisi"
      ],
      "score": 65
    },
    {
      "id": "node:846726225",
      "name": "Grisì",
      "lat": 37.9532039,
      "lon": 13.0900878,
      "type": "borghi",
      "visibility": "classica",
      "tags": [
        "name=Grisì",
        "place=village",
        "population=995",
        "postal_code=90040",
        "wikidata=Q2282309",
        "wikipedia=it:Grisì"
      ],
      "score": 65
    },
    {
      "id": "node:849556328",
      "name": "Villagrazia di Carini",
      "lat": 38.1579151,
      "lon": 13.1744862,
      "type": "borghi",
      "visibility": "classica",
      "tags": [
        "name=Villagrazia di Carini",
        "place=village",
        "population=2485",
        "wikidata=Q18467565",
        "wikipedia=it:Villagrazia di Carini"
      ],
      "score": 65
    },
    {
      "id": "node:874442383",
      "name": "Terrenove Bambina",
      "lat": 37.7518171,
      "lon": 12.4830007,
      "type": "borghi",
      "visibility": "classica",
      "tags": [
        "ele=22",
        "name=Terrenove Bambina",
        "place=village",
        "population=2984",
        "wikidata=Q16613213",
        "wikipedia=it:Terrenove"
      ],
      "score": 65
    },
    {
      "id": "node:891926519",
      "name": "Marzamemi",
      "lat": 36.7418376,
      "lon": 15.1176543,
      "type": "borghi",
      "visibility": "classica",
      "tags": [
        "ele=2",
        "istat_id=2147483647",
        "name=Marzamemi",
        "place=village",
        "population=399",
        "source:population=Istat 2021",
        "wikidata=Q745380",
        "wikipedia=it:Marzamemi"
      ],
      "score": 65
    },
    {
      "id": "node:901594168",
      "name": "Torre Archirafi",
      "lat": 37.7109863,
      "lon": 15.2166938,
      "type": "borghi",
      "visibility": "classica",
      "tags": [
        "name=Torre Archirafi",
        "place=village",
        "population=1240",
        "wikidata=Q2767009",
        "wikipedia=it:Torre Archirafi"
      ],
      "score": 65
    },
    {
      "id": "node:919100752",
      "name": "San Leone",
      "lat": 37.2660916,
      "lon": 13.5820424,
      "type": "borghi",
      "visibility": "classica",
      "tags": [
        "name=San Leone",
        "place=village",
        "population=5030",
        "wikidata=Q3947467",
        "wikipedia=it:San Leone (Agrigento)"
      ],
      "score": 65
    },
    {
      "id": "node:927895713",
      "name": "Triscina",
      "lat": 37.5851233,
      "lon": 12.7897179,
      "type": "borghi",
      "visibility": "classica",
      "tags": [
        "alt_name=Triscina di Selinunte",
        "ele=31",
        "istat_id=2147483647",
        "name=Triscina",
        "place=village",
        "population=1353",
        "postal_code=91022",
        "wikidata=Q3999015",
        "wikipedia=it:Triscina"
      ],
      "score": 65
    },
    {
      "id": "node:927895722",
      "name": "Selinunte",
      "lat": 37.583954,
      "lon": 12.8404213,
      "type": "borghi",
      "visibility": "classica",
      "tags": [
        "alt_name=Marinella di Selinunte",
        "ele=2",
        "istat_id=2147483647",
        "name=Selinunte",
        "place=village",
        "population=1499",
        "postal_code=91022",
        "wikidata=Q3293265",
        "wikipedia=it:Marinella (Castelvetrano)"
      ],
      "score": 65
    },
    {
      "id": "node:1190588159",
      "name": "Santa Tecla",
      "lat": 37.6367024,
      "lon": 15.1754238,
      "type": "borghi",
      "visibility": "classica",
      "tags": [
        "name=Santa Tecla",
        "place=village",
        "population=1006",
        "wikidata=Q522074",
        "wikipedia=it:Santa Tecla (Acireale)"
      ],
      "score": 65
    },
    {
      "id": "node:1190588165",
      "name": "Stazzo",
      "lat": 37.6513281,
      "lon": 15.1940389,
      "type": "borghi",
      "visibility": "classica",
      "tags": [
        "name=Stazzo",
        "place=village",
        "population=1233",
        "wikidata=Q2635975",
        "wikipedia=it:Stazzo (Acireale)"
      ],
      "score": 65
    },
    {
      "id": "node:1190598247",
      "name": "Scillichenti",
      "lat": 37.6519321,
      "lon": 15.1790168,
      "type": "borghi",
      "visibility": "classica",
      "tags": [
        "name=Scillichenti",
        "place=village",
        "population=1199",
        "wikidata=Q2746360",
        "wikipedia=it:Scillichenti"
      ],
      "score": 65
    },
    {
      "id": "node:1190598253",
      "name": "Guardia",
      "lat": 37.6641276,
      "lon": 15.1649146,
      "type": "borghi",
      "visibility": "classica",
      "tags": [
        "name=Guardia",
        "place=village",
        "population=1899",
        "wikidata=Q3133330",
        "wikipedia=it:Guardia (Acireale)"
      ],
      "score": 65
    },
    {
      "id": "node:1282725515",
      "name": "Sant'Anna",
      "lat": 37.5594702,
      "lon": 13.2344365,
      "type": "borghi",
      "visibility": "classica",
      "tags": [
        "name=Sant'Anna",
        "place=village",
        "population=527",
        "source:population=Istat 2021",
        "wikidata=Q1811801",
        "wikipedia=it:Sant'Anna (Caltabellotta)"
      ],
      "score": 65
    },
    {
      "id": "node:1331034609",
      "name": "Acquacalda",
      "lat": 38.5189432,
      "lon": 14.9463818,
      "type": "borghi",
      "visibility": "classica",
      "tags": [
        "name=Acquacalda",
        "place=village",
        "population=263",
        "wikidata=Q3604653",
        "wikipedia=it:Acquacalda"
      ],
      "score": 65
    },
    {
      "id": "node:1354736617",
      "name": "Cannizzaro",
      "lat": 37.5457199,
      "lon": 15.128208,
      "type": "borghi",
      "visibility": "classica",
      "tags": [
        "name=Cannizzaro",
        "place=village",
        "population=4832",
        "wikidata=Q2486398",
        "wikipedia=it:Cannizzaro"
      ],
      "score": 65
    },
    {
      "id": "node:1376889739",
      "name": "Ficarazzi",
      "lat": 37.5616637,
      "lon": 15.1277366,
      "type": "borghi",
      "visibility": "classica",
      "tags": [
        "ele=210",
        "name=Ficarazzi",
        "place=village",
        "population=4751",
        "wikidata=Q2847841",
        "wikipedia=it:Ficarazzi (Aci Castello)"
      ],
      "score": 65
    },
    {
      "id": "node:1387968746",
      "name": "San Nicolò",
      "lat": 37.575733,
      "lon": 15.1377919,
      "type": "borghi",
      "visibility": "classica",
      "tags": [
        "name=San Nicolò",
        "place=village",
        "population=3576",
        "wikidata=Q3947728",
        "wikipedia=it:San Nicolò (Aci Catena)"
      ],
      "score": 65
    },
    {
      "id": "node:1388405712",
      "name": "Aci San Filippo",
      "lat": 37.5877723,
      "lon": 15.1408715,
      "type": "borghi",
      "visibility": "classica",
      "tags": [
        "name=Aci San Filippo",
        "name:scn=Jaci San Fulippu",
        "place=village",
        "population=5206",
        "wikidata=Q2989536",
        "wikipedia=it:Aci San Filippo"
      ],
      "score": 65
    },
    {
      "id": "node:1419338295",
      "name": "Piano d'Api",
      "lat": 37.6289186,
      "lon": 15.1444626,
      "type": "borghi",
      "visibility": "classica",
      "tags": [
        "name=Piano d'Api",
        "place=village",
        "population=1559",
        "wikidata=Q2627113",
        "wikipedia=it:Piano d'Api"
      ],
      "score": 65
    },
    {
      "id": "node:1419622526",
      "name": "Santa Maria delle Grazie",
      "lat": 37.5922905,
      "lon": 15.1660601,
      "type": "borghi",
      "visibility": "classica",
      "tags": [
        "alt_name=Gazzena",
        "name=Santa Maria delle Grazie",
        "place=village",
        "population=745",
        "wikidata=Q2692833",
        "wikipedia=it:Santa Maria delle Grazie (Acireale)"
      ],
      "score": 65
    },
    {
      "id": "node:1419623045",
      "name": "Santa Caterina",
      "lat": 37.6051448,
      "lon": 15.1702619,
      "type": "borghi",
      "visibility": "classica",
      "tags": [
        "name=Santa Caterina",
        "place=village",
        "population=322",
        "wikidata=Q3948936",
        "wikipedia=it:Santa Caterina (Acireale)"
      ],
      "score": 65
    },
    {
      "id": "node:1431606146",
      "name": "Pizzolungo",
      "lat": 38.0637089,
      "lon": 12.5628792,
      "type": "borghi",
      "visibility": "classica",
      "tags": [
        "name=Pizzolungo",
        "place=village",
        "population=792",
        "wikidata=Q3906048",
        "wikipedia=it:Pizzolungo"
      ],
      "score": 65
    },
    {
      "id": "node:1431606151",
      "name": "Napola",
      "lat": 37.9903855,
      "lon": 12.6324553,
      "type": "borghi",
      "visibility": "classica",
      "tags": [
        "name=Napola",
        "place=village",
        "population=867",
        "wikidata=Q3870238",
        "wikipedia=it:Napola (Erice)"
      ],
      "score": 65
    },
    {
      "id": "node:1431755316",
      "name": "Raffo",
      "lat": 37.7852323,
      "lon": 14.1302201,
      "type": "borghi",
      "visibility": "classica",
      "tags": [
        "ele=750",
        "istat_id=2147483647",
        "name=Raffo",
        "place=village",
        "population=222",
        "wikidata=Q2084406",
        "wikipedia=it:Raffo (Petralia Soprana)"
      ],
      "score": 65
    },
    {
      "id": "node:1452276748",
      "name": "Villaggio Mosè",
      "lat": 37.2717979,
      "lon": 13.6212835,
      "type": "borghi",
      "visibility": "classica",
      "tags": [
        "name=Villaggio Mosè",
        "place=village",
        "population=5645",
        "wikidata=Q4012833",
        "wikipedia=it:Villaggio Mosè"
      ],
      "score": 65
    },
    {
      "id": "node:1453655157",
      "name": "Aci Platani",
      "lat": 37.5987833,
      "lon": 15.1520875,
      "type": "borghi",
      "visibility": "classica",
      "tags": [
        "name=Aci Platani",
        "place=village",
        "population=3233",
        "wikidata=Q2439445",
        "wikipedia=it:Aci Platani"
      ],
      "score": 65
    },
    {
      "id": "node:1465630370",
      "name": "Santa Maria Ammalati",
      "lat": 37.6457539,
      "lon": 15.1545194,
      "type": "borghi",
      "visibility": "classica",
      "tags": [
        "name=Santa Maria Ammalati",
        "place=village",
        "population=2022",
        "wikidata=Q2190212",
        "wikipedia=it:Santa Maria degli Ammalati"
      ],
      "score": 65
    },
    {
      "id": "node:1471871404",
      "name": "Rometta Marea",
      "lat": 38.2305569,
      "lon": 15.4037344,
      "type": "borghi",
      "visibility": "classica",
      "tags": [
        "ele=10",
        "name=Rometta Marea",
        "name:scn=Rumetta Marea",
        "place=village",
        "population=4835",
        "wikidata=Q18465347"
      ],
      "score": 65
    },
    {
      "id": "node:1499849783",
      "name": "Linosa",
      "lat": 35.85944,
      "lon": 12.8632659,
      "type": "borghi",
      "visibility": "classica",
      "tags": [
        "name=Linosa",
        "name:ar=نموشة",
        "name:it=Linosa",
        "name:lt=Linoza",
        "name:ru=Линоза",
        "name:scn=Linusa",
        "place=village",
        "population=289",
        "source:population=Istat 2021",
        "wikidata=Q497321",
        "wikipedia=it:Isola di Linosa"
      ],
      "score": 65
    },
    {
      "id": "node:1540828015",
      "name": "Milici",
      "lat": 38.0837796,
      "lon": 15.169727,
      "type": "borghi",
      "visibility": "classica",
      "tags": [
        "ele=240",
        "name=Milici",
        "name:scn=Mìlici",
        "place=village",
        "population=382",
        "wikidata=Q6851855"
      ],
      "score": 65
    },
    {
      "id": "node:1544122288",
      "name": "Olivarella",
      "lat": 38.1766334,
      "lon": 15.2654563,
      "type": "borghi",
      "visibility": "classica",
      "tags": [
        "name=Olivarella",
        "place=village",
        "population=2812",
        "wikidata=Q3881784",
        "wikipedia=it:Olivarella"
      ],
      "score": 65
    },
    {
      "id": "node:1545510471",
      "name": "Cattafi",
      "lat": 38.1756952,
      "lon": 15.2905496,
      "type": "borghi",
      "visibility": "classica",
      "tags": [
        "ele=125",
        "name=Cattafi",
        "place=village",
        "population=839",
        "wikidata=Q3663635",
        "wikipedia=it:Cattafi"
      ],
      "score": 65
    },
    {
      "id": "node:1545614736",
      "name": "Acquaficara",
      "lat": 38.1276468,
      "lon": 15.2037977,
      "type": "borghi",
      "visibility": "classica",
      "tags": [
        "ele=172",
        "name=Acquaficara",
        "name:la=Aqua Ficarrae",
        "place=village",
        "population=561",
        "wikidata=Q3604655",
        "wikipedia=it:Acquaficara"
      ],
      "score": 65
    },
    {
      "id": "node:1603407723",
      "name": "Gesso",
      "lat": 38.2342684,
      "lon": 15.4703085,
      "type": "borghi",
      "visibility": "classica",
      "tags": [
        "ele=280",
        "name=Gesso",
        "name:scn=u Jìbbisu",
        "old_name=Gibiso",
        "place=village",
        "population=549",
        "short_name:scn=Jìbbisu",
        "sorting_name:scn=Jìbbisu",
        "wikidata=Q2564630",
        "wikipedia=it:Gesso (Messina)"
      ],
      "score": 65
    },
    {
      "id": "node:1603410019",
      "name": "Salice",
      "lat": 38.2508682,
      "lon": 15.4939987,
      "type": "borghi",
      "visibility": "classica",
      "tags": [
        "ele=240",
        "name=Salice",
        "name:scn=u Salici",
        "place=village",
        "population=961",
        "short_name:scn=Salici",
        "sorting_name:scn=Salici",
        "wikidata=Q1850830",
        "wikipedia=it:Salice (Messina)"
      ],
      "score": 65
    },
    {
      "id": "node:1603413126",
      "name": "Orto Liuzzo",
      "lat": 38.255552,
      "lon": 15.4584126,
      "type": "borghi",
      "visibility": "classica",
      "tags": [
        "ele=2",
        "name=Orto Liuzzo",
        "place=village",
        "population=309",
        "wikidata=Q18464668"
      ],
      "score": 65
    },
    {
      "id": "node:1634162786",
      "name": "Spartà",
      "lat": 38.2943244,
      "lon": 15.5418238,
      "type": "borghi",
      "visibility": "classica",
      "tags": [
        "ele=100",
        "name=Spartà",
        "name:scn=Spattà",
        "place=village",
        "population=1027",
        "wikidata=Q3966051",
        "wikipedia=it:Spartà"
      ],
      "score": 65
    },
    {
      "id": "node:1634162796",
      "name": "Mortelle",
      "lat": 38.2717461,
      "lon": 15.6142801,
      "type": "borghi",
      "visibility": "classica",
      "tags": [
        "name=Mortelle",
        "name:scn=Muttiḍḍi",
        "place=village",
        "population=234",
        "wikidata=Q3863266",
        "wikipedia=it:Mortelle (Messina)"
      ],
      "score": 65
    },
    {
      "id": "node:1634162798",
      "name": "San Filippo Superiore",
      "lat": 38.1663716,
      "lon": 15.5001116,
      "type": "borghi",
      "visibility": "classica",
      "tags": [
        "alt_name:scn=San Filippu Supiriuri",
        "ele=236",
        "name=San Filippo Superiore",
        "name:scn=San Filippu",
        "place=village",
        "population=946",
        "wikidata=Q3947061",
        "wikipedia=it:San Filippo Superiore"
      ],
      "score": 65
    },
    {
      "id": "node:1634162807",
      "name": "Castanea delle Furie",
      "lat": 38.2628007,
      "lon": 15.5224245,
      "type": "borghi",
      "visibility": "classica",
      "tags": [
        "ele=400",
        "name=Castanea delle Furie",
        "name:scn=a Castanìa",
        "place=village",
        "population=1888",
        "short_name=Castanea",
        "short_name:scn=Castanìa",
        "sorting_name:scn=Castanìa",
        "wikidata=Q2580352",
        "wikipedia=it:Castanea delle Furie"
      ],
      "score": 65
    },
    {
      "id": "node:1634162820",
      "name": "San Saba",
      "lat": 38.2839,
      "lon": 15.5002324,
      "type": "borghi",
      "visibility": "classica",
      "tags": [
        "alt_name=Santo Saba",
        "ele=5",
        "name=San Saba",
        "name:scn=Santu Sabba",
        "place=village",
        "population=322",
        "wikidata=Q2743788",
        "wikipedia=it:San Saba (Messina)"
      ],
      "score": 65
    },
    {
      "id": "node:1634162821",
      "name": "Faro Superiore",
      "lat": 38.2651969,
      "lon": 15.5824465,
      "type": "borghi",
      "visibility": "classica",
      "tags": [
        "ele=170",
        "name=Faro Superiore",
        "name:scn=u Faru di Susu",
        "place=village",
        "population=2586",
        "short_name:scn=Faru di Susu",
        "sorting_name:scn=Faru di Susu",
        "wikidata=Q2442711",
        "wikipedia=it:Faro Superiore"
      ],
      "score": 65
    },
    {
      "id": "node:1634162822",
      "name": "Curcuraci",
      "lat": 38.260869,
      "lon": 15.5679169,
      "type": "borghi",
      "visibility": "classica",
      "tags": [
        "ele=295",
        "name=Curcuraci",
        "name:scn=Cuccuraci",
        "old_name=Curcurace",
        "place=village",
        "population=463",
        "wikidata=Q2254389",
        "wikipedia=it:Curcuraci"
      ],
      "score": 65
    },
    {
      "id": "node:1634162825",
      "name": "San Filippo Inferiore",
      "lat": 38.1623672,
      "lon": 15.5120618,
      "type": "borghi",
      "visibility": "classica",
      "tags": [
        "alt_name:scn=Casalottu",
        "ele=153",
        "name=San Filippo Inferiore",
        "name:scn=San Filippu Infiriuri",
        "place=village",
        "population=497",
        "wikidata=Q3947056",
        "wikipedia=it:San Filippo Inferiore"
      ],
      "score": 65
    },
    {
      "id": "node:1634170788",
      "name": "Rodia",
      "lat": 38.2692553,
      "lon": 15.4801591,
      "type": "borghi",
      "visibility": "classica",
      "tags": [
        "ele=5",
        "name=Rodia",
        "name:scn=Rudìa",
        "place=village",
        "population=520",
        "wikidata=Q3939886",
        "wikipedia=it:Rodia"
      ],
      "score": 65
    },
    {
      "id": "node:1634199528",
      "name": "Galati Marina",
      "lat": 38.1071682,
      "lon": 15.5090345,
      "type": "borghi",
      "visibility": "classica",
      "tags": [
        "alt_name:scn=Galati Marina",
        "ele=5",
        "name=Galati Marina",
        "name:scn=Marina i Galati",
        "place=village",
        "population=1779",
        "short_name:scn=Galati Marina",
        "sorting_name:scn=Galati Marina",
        "wikidata=Q3757473",
        "wikipedia=it:Galati Marina"
      ],
      "score": 65
    },
    {
      "id": "node:1634199531",
      "name": "Altolia",
      "lat": 38.075664,
      "lon": 15.4464639,
      "type": "borghi",
      "visibility": "classica",
      "tags": [
        "ele=275",
        "name=Altolia",
        "name:scn=l'Attulìa",
        "old_name=Artolia",
        "place=village",
        "population=354",
        "short_name:scn=Attulìa",
        "sorting_name:scn=Attulìa",
        "wikidata=Q3613318",
        "wikipedia=it:Altolia"
      ],
      "score": 65
    },
    {
      "id": "node:1634199535",
      "name": "Santo Stefano di Briga",
      "lat": 38.1006421,
      "lon": 15.4789508,
      "type": "borghi",
      "visibility": "classica",
      "tags": [
        "alt_name=Santo Stefano Soprano",
        "alt_name:scn=Santu Stèfanu i Briga",
        "ele=135",
        "name=Santo Stefano di Briga",
        "name:scn=Santu Stèfanu Supranu",
        "place=village",
        "population=1811",
        "short_name=Santo Stefano Briga",
        "wikidata=Q2639385",
        "wikipedia=it:Santo Stefano di Briga"
      ],
      "score": 65
    },
    {
      "id": "node:1634199538",
      "name": "Pezzolo",
      "lat": 38.0848008,
      "lon": 15.4584507,
      "type": "borghi",
      "visibility": "classica",
      "tags": [
        "ele=330",
        "name=Pezzolo",
        "name:scn=Pèzzulu",
        "place=village",
        "population=486",
        "wikidata=Q2081905",
        "wikipedia=it:Pezzolo (Messina)"
      ],
      "score": 65
    },
    {
      "id": "node:1634199541",
      "name": "Santo Stefano Medio",
      "lat": 38.1034282,
      "lon": 15.4868258,
      "type": "borghi",
      "visibility": "classica",
      "tags": [
        "alt_name=Santo Stefano Mezzano",
        "ele=90",
        "name=Santo Stefano Medio",
        "name:scn=Santu Stèfanu Minzanu",
        "place=village",
        "wikidata=Q2407901",
        "wikipedia=it:Santo Stefano Medio"
      ],
      "score": 65
    },
    {
      "id": "node:1634199542",
      "name": "Santa Margherita",
      "lat": 38.0993175,
      "lon": 15.4957629,
      "type": "borghi",
      "visibility": "classica",
      "tags": [
        "ele=48",
        "name=Santa Margherita",
        "name:ru=Санта-Маргерита",
        "name:scn=Santa Maggarita",
        "place=village",
        "wikidata=Q2428989",
        "wikipedia=it:Santa Margherita (Messina)"
      ],
      "score": 65
    },
    {
      "id": "node:1634199546",
      "name": "Giampilieri Superiore",
      "lat": 38.069718,
      "lon": 15.4694665,
      "type": "borghi",
      "visibility": "classica",
      "tags": [
        "alt_name=Giampilieri",
        "alt_name:scn=Giampileri Supiriuri",
        "ele=104",
        "name=Giampilieri Superiore",
        "name:scn=Giampileri",
        "place=village",
        "population=918",
        "short_name=Giampilieri",
        "wikidata=Q3762567",
        "wikipedia=it:Giampilieri Superiore"
      ],
      "score": 65
    },
    {
      "id": "node:1634199549",
      "name": "Zaffaria",
      "lat": 38.1519578,
      "lon": 15.5077168,
      "type": "borghi",
      "visibility": "classica",
      "tags": [
        "alt_name=Zafferia",
        "ele=136",
        "name=Zaffaria",
        "name:scn=Zaffaria",
        "place=village",
        "population=1077",
        "wikidata=Q2614156",
        "wikipedia=it:Zafferia"
      ],
      "score": 65
    },
    {
      "id": "node:1634199552",
      "name": "Mili San Pietro",
      "lat": 38.1269719,
      "lon": 15.4879563,
      "type": "borghi",
      "visibility": "classica",
      "tags": [
        "alt_name:scn=Mili Suprana",
        "ele=200",
        "name=Mili San Pietro",
        "name:scn=Mili San Petru",
        "place=village",
        "population=551",
        "wikidata=Q3857878",
        "wikipedia=it:Mili San Pietro"
      ],
      "score": 65
    },
    {
      "id": "node:1634199555",
      "name": "Mili San Marco",
      "lat": 38.121296,
      "lon": 15.507323,
      "type": "borghi",
      "visibility": "classica",
      "tags": [
        "alt_name:scn=Mili Suttana",
        "ele=56",
        "name=Mili San Marco",
        "name:scn=Mili San Marcu",
        "place=village",
        "population=1581",
        "wikidata=Q2370087",
        "wikipedia=it:Mili San Marco"
      ],
      "score": 65
    },
    {
      "id": "node:1634199557",
      "name": "Mili Marina",
      "lat": 38.1198881,
      "lon": 15.515876,
      "type": "borghi",
      "visibility": "classica",
      "tags": [
        "alt_name:scn=Mili Marina",
        "ele=5",
        "name=Mili Marina",
        "name:scn=Marina i Mili",
        "place=village",
        "population=1865",
        "short_name:scn=Mili Marina",
        "sorting_name:scn=Mili Marina",
        "wikidata=Q3857876",
        "wikipedia=it:Mili Marina"
      ],
      "score": 65
    },
    {
      "id": "node:1634199564",
      "name": "Briga Marina",
      "lat": 38.0732138,
      "lon": 15.4908513,
      "type": "borghi",
      "visibility": "classica",
      "tags": [
        "alt_name=San Paolo",
        "alt_name:scn=San Paulu",
        "name=Briga Marina",
        "name:scn=Marina di Briga",
        "place=village",
        "population=688",
        "short_name:scn=Briga Marina",
        "sorting_name:scn=Briga Marina",
        "wikidata=Q3644608",
        "wikipedia=it:Briga Marina"
      ],
      "score": 65
    },
    {
      "id": "node:1634199569",
      "name": "Molino",
      "lat": 38.0748194,
      "lon": 15.4551757,
      "type": "borghi",
      "visibility": "classica",
      "tags": [
        "ele=209",
        "name=Molino",
        "name:scn=u Mulinu",
        "place=village",
        "population=214",
        "short_name:scn=Mulinu",
        "sorting_name:scn=Mulinu",
        "wikidata=Q3860234",
        "wikipedia=it:Molino (Messina)"
      ],
      "score": 65
    },
    {
      "id": "node:1634199571",
      "name": "Galati Sant'Anna",
      "lat": 38.1102889,
      "lon": 15.5032405,
      "type": "borghi",
      "visibility": "classica",
      "tags": [
        "alt_name=Galati Inferiore",
        "alt_name:scn=Galati Suttana",
        "ele=28",
        "name=Galati Sant'Anna",
        "name:scn=Galati Sant'Anna",
        "place=village",
        "wikidata=Q3757471",
        "wikipedia=it:Galati Inferiore"
      ],
      "score": 65
    },
    {
      "id": "node:1634202059",
      "name": "Giampilieri Marina",
      "lat": 38.0663055,
      "lon": 15.4827273,
      "type": "borghi",
      "visibility": "classica",
      "tags": [
        "name=Giampilieri Marina",
        "name:scn=Marina di Giampileri",
        "place=village",
        "population=1029",
        "short_name:scn=Giampileri Marina",
        "sorting_name:scn=Giampileri Marina",
        "wikidata=Q3762561",
        "wikipedia=it:Giampilieri Marina"
      ],
      "score": 65
    },
    {
      "id": "node:1644924199",
      "name": "Villaggio Santa Barbara",
      "lat": 37.4988749,
      "lon": 14.0904894,
      "type": "borghi",
      "visibility": "classica",
      "tags": [
        "alt_name=Terrapelata",
        "name=Villaggio Santa Barbara",
        "place=village",
        "population=1958",
        "wikidata=Q2615133",
        "wikipedia=it:Villaggio Santa Barbara"
      ],
      "score": 65
    },
    {
      "id": "node:1660727255",
      "name": "Massa San Giorgio",
      "lat": 38.2753167,
      "lon": 15.5373927,
      "type": "borghi",
      "visibility": "classica",
      "tags": [
        "ele=252",
        "name=Massa San Giorgio",
        "name:scn=Massa San Giorgiu",
        "place=village",
        "population=351",
        "wikidata=Q2417160",
        "wikipedia=it:Massa San Giorgio"
      ],
      "score": 65
    },
    {
      "id": "node:1660727258",
      "name": "Massa Santa Lucia",
      "lat": 38.269679,
      "lon": 15.5501397,
      "type": "borghi",
      "visibility": "classica",
      "tags": [
        "ele=254",
        "name=Massa Santa Lucia",
        "place=village",
        "population=352",
        "wikidata=Q3850872",
        "wikipedia=it:Massa Santa Lucia"
      ],
      "score": 65
    },
    {
      "id": "node:1697601336",
      "name": "Rocchenere",
      "lat": 37.9744787,
      "lon": 15.3764731,
      "type": "borghi",
      "visibility": "classica",
      "tags": [
        "name=Rocchenere",
        "name:scn=Rocchiniri",
        "place=village",
        "population=701",
        "wikidata=Q3939526",
        "wikipedia=it:Rocchenere"
      ],
      "score": 65
    },
    {
      "id": "node:1697673115",
      "name": "Cumia Inferiore",
      "lat": 38.1751549,
      "lon": 15.5027627,
      "type": "borghi",
      "visibility": "classica",
      "tags": [
        "ele=270",
        "name=Cumia Inferiore",
        "name:scn=Cumìa Suttana",
        "place=village",
        "wikidata=Q2063352",
        "wikipedia=it:Cumia"
      ],
      "score": 65
    },
    {
      "id": "node:1719583346",
      "name": "Mongiuffi",
      "lat": 37.9108045,
      "lon": 15.2772043,
      "type": "borghi",
      "visibility": "classica",
      "tags": [
        "alt_name:scn=Miciuffi;Mungiuffi",
        "ele=420",
        "name=Mongiuffi",
        "name:scn=Munciuffi",
        "place=village",
        "population=249",
        "wikidata=Q490919"
      ],
      "score": 65
    },
    {
      "id": "node:1720518518",
      "name": "Misserio",
      "lat": 37.9794959,
      "lon": 15.3149085,
      "type": "borghi",
      "visibility": "classica",
      "tags": [
        "alt_name:scn=Missarìu",
        "name=Misserio",
        "name:scn=Misserìo",
        "place=village",
        "population=375",
        "wikidata=Q3859210",
        "wikipedia=it:Misserio"
      ],
      "score": 65
    },
    {
      "id": "node:1721782918",
      "name": "Rina",
      "lat": 37.9439168,
      "lon": 15.3345326,
      "type": "borghi",
      "visibility": "classica",
      "tags": [
        "name=Rina",
        "place=village",
        "population=634",
        "wikidata=Q18465223"
      ],
      "score": 65
    },
    {
      "id": "node:1730273372",
      "name": "San Michele",
      "lat": 38.2235697,
      "lon": 15.526613,
      "type": "borghi",
      "visibility": "classica",
      "tags": [
        "ele=210",
        "name=San Michele",
        "name:scn=San Miceli",
        "place=village",
        "population=894",
        "wikidata=Q3947680",
        "wikipedia=it:San Michele (Messina)"
      ],
      "score": 65
    },
    {
      "id": "node:1744727996",
      "name": "Marina di Caronia",
      "lat": 38.0342984,
      "lon": 14.4463424,
      "type": "borghi",
      "visibility": "classica",
      "tags": [
        "alt_name=Caronia Marina",
        "name=Marina di Caronia",
        "place=village",
        "population=1015",
        "wikidata=Q3848099",
        "wikipedia=it:Marina di Caronia"
      ],
      "score": 65
    },
    {
      "id": "node:1747629160",
      "name": "Calvaruso",
      "lat": 38.2220681,
      "lon": 15.4536577,
      "type": "borghi",
      "visibility": "classica",
      "tags": [
        "ele=114",
        "name=Calvaruso",
        "name:scn=Cabbarusu",
        "place=village",
        "population=433",
        "wikidata=Q2689988",
        "wikipedia=it:Calvaruso"
      ],
      "score": 65
    },
    {
      "id": "node:1752410832",
      "name": "Scarcelli",
      "lat": 38.2026991,
      "lon": 15.4314191,
      "type": "borghi",
      "visibility": "classica",
      "tags": [
        "ele=118",
        "name=Scarcelli",
        "name:scn=Scacceḍḍi",
        "place=village",
        "population=868",
        "wikidata=Q18466299"
      ],
      "score": 65
    },
    {
      "id": "node:1771567701",
      "name": "Piano Torre",
      "lat": 38.2934317,
      "lon": 15.5218807,
      "type": "borghi",
      "visibility": "classica",
      "tags": [
        "ele=90",
        "name=Piano Torre",
        "name:scn=Ghianu Turri",
        "old_name=Piano della Torre",
        "old_name:scn=Ghianu â Turri",
        "place=village",
        "population=288",
        "source:name=road sign",
        "wikidata=Q3901997",
        "wikipedia=it:Piano Torre"
      ],
      "score": 65
    },
    {
      "id": "node:1771784211",
      "name": "Bonagia",
      "lat": 38.0641776,
      "lon": 12.594922,
      "type": "borghi",
      "visibility": "classica",
      "tags": [
        "alt_name=Tonnara di Bonagia",
        "name=Bonagia",
        "place=village",
        "population=1004",
        "wikidata=Q26085601"
      ],
      "score": 65
    },
    {
      "id": "node:1799284199",
      "name": "Marina di Ragusa",
      "lat": 36.7839507,
      "lon": 14.5544944,
      "type": "borghi",
      "visibility": "classica",
      "tags": [
        "name=Marina di Ragusa",
        "place=village",
        "population=5277",
        "source:population=Istat 2021",
        "wikidata=Q1012515",
        "wikipedia=it:Marina di Ragusa"
      ],
      "score": 65
    },
    {
      "id": "node:1826824612",
      "name": "Case Nuove Malluzzo",
      "lat": 38.1391882,
      "lon": 15.0059414,
      "type": "borghi",
      "visibility": "classica",
      "tags": [
        "ele=40",
        "name=Case Nuove Malluzzo",
        "place=village",
        "population=228",
        "wikidata=Q18462468"
      ],
      "score": 65
    },
    {
      "id": "node:1826858270",
      "name": "Scala",
      "lat": 38.1329935,
      "lon": 15.035034,
      "type": "borghi",
      "visibility": "classica",
      "tags": [
        "alt_name=Scala Patti",
        "ele=225",
        "name=Scala",
        "place=village",
        "population=260",
        "wikidata=Q18466278"
      ],
      "score": 65
    },
    {
      "id": "node:1829428495",
      "name": "Belvedere",
      "lat": 38.1066983,
      "lon": 15.08213,
      "type": "borghi",
      "visibility": "classica",
      "tags": [
        "alt_name=Casino di Falcone",
        "ele=125",
        "name=Belvedere",
        "name:scn=u Casineḍḍu",
        "place=village",
        "population=276",
        "short_name:scn=Casineḍḍu",
        "sorting_name:scn=Casineḍḍu",
        "wikidata=Q18462004"
      ],
      "score": 65
    },
    {
      "id": "node:1843619044",
      "name": "Nubia",
      "lat": 37.9783726,
      "lon": 12.5123408,
      "type": "borghi",
      "visibility": "classica",
      "tags": [
        "name=Nubia",
        "note=popolazione ottenuta sommando gli abitanti di Culcasi e Marino",
        "place=village",
        "population=921",
        "wikidata=Q2683276"
      ],
      "score": 65
    },
    {
      "id": "node:1843619862",
      "name": "Xitta",
      "lat": 37.9970159,
      "lon": 12.5478219,
      "type": "borghi",
      "visibility": "classica",
      "tags": [
        "name=Xitta",
        "place=village",
        "population=1550",
        "wikidata=Q3142906",
        "wikipedia=it:Xitta"
      ],
      "score": 65
    },
    {
      "id": "node:1865466576",
      "name": "Villaseta",
      "lat": 37.29799,
      "lon": 13.5609037,
      "type": "borghi",
      "visibility": "classica",
      "tags": [
        "name=Villaseta",
        "place=village",
        "population=5493",
        "source:population=Istat 2021",
        "wikidata=Q4012906",
        "wikipedia=it:Villaseta"
      ],
      "score": 65
    },
    {
      "id": "node:1972316271",
      "name": "Villadoro",
      "lat": 37.692026,
      "lon": 14.2610326,
      "type": "borghi",
      "visibility": "classica",
      "tags": [
        "name=Villadoro",
        "old_name=Passarello",
        "place=village",
        "population=524",
        "source:population=Istat 2021",
        "wikidata=Q2535246",
        "wikipedia=it:Villadoro"
      ],
      "score": 65
    },
    {
      "id": "node:1975253989",
      "name": "Villapriolo",
      "lat": 37.629427,
      "lon": 14.1930463,
      "type": "borghi",
      "visibility": "classica",
      "tags": [
        "name=Villapriolo",
        "place=village",
        "population=462",
        "source:population=Istat 2021",
        "wikidata=Q2188209",
        "wikipedia=it:Villapriolo"
      ],
      "score": 65
    },
    {
      "id": "node:1977933863",
      "name": "Gimello",
      "lat": 38.155335,
      "lon": 15.4207313,
      "type": "borghi",
      "visibility": "classica",
      "tags": [
        "ele=400",
        "name=Gimello",
        "name:scn=Jimeḍḍu",
        "place=village",
        "population=246",
        "wikidata=Q18463407"
      ],
      "score": 65
    },
    {
      "id": "node:2056096920",
      "name": "Frigintini",
      "lat": 36.9245251,
      "lon": 14.8296639,
      "type": "borghi",
      "visibility": "classica",
      "tags": [
        "name=Frigintini",
        "place=village",
        "population=1737",
        "source:population=Istat 2021",
        "wikidata=Q18469732"
      ],
      "score": 65
    },
    {
      "id": "node:2068581838",
      "name": "Salinagrande",
      "lat": 37.9605701,
      "lon": 12.5118631,
      "type": "borghi",
      "visibility": "classica",
      "tags": [
        "name=Salinagrande",
        "place=village",
        "population=935",
        "wikidata=Q18472950"
      ],
      "score": 65
    },
    {
      "id": "node:2068581839",
      "name": "Palma",
      "lat": 37.951287,
      "lon": 12.5143946,
      "type": "borghi",
      "visibility": "classica",
      "tags": [
        "name=Palma",
        "place=village",
        "population=725",
        "wikidata=Q18472685"
      ],
      "score": 65
    },
    {
      "id": "node:2068581843",
      "name": "Marausa",
      "lat": 37.9404259,
      "lon": 12.5103908,
      "type": "borghi",
      "visibility": "classica",
      "tags": [
        "name=Marausa",
        "place=village",
        "population=1194",
        "wikidata=Q14224116"
      ],
      "score": 65
    },
    {
      "id": "node:2068583091",
      "name": "Locogrande",
      "lat": 37.9218398,
      "lon": 12.5185872,
      "type": "borghi",
      "visibility": "classica",
      "tags": [
        "name=Locogrande",
        "place=village",
        "population=909",
        "wikidata=Q18472465"
      ],
      "score": 65
    },
    {
      "id": "node:2068585103",
      "name": "Rilievo",
      "lat": 37.9167222,
      "lon": 12.5395401,
      "type": "borghi",
      "visibility": "classica",
      "tags": [
        "name=Rilievo",
        "place=village",
        "population=2592",
        "wikidata=Q18472918"
      ],
      "score": 65
    },
    {
      "id": "node:2068595912",
      "name": "Guarrato",
      "lat": 37.9322447,
      "lon": 12.5469823,
      "type": "borghi",
      "visibility": "classica",
      "tags": [
        "name=Guarrato",
        "place=village",
        "population=901",
        "wikidata=Q1172645",
        "wikipedia=it:Guarrato"
      ],
      "score": 65
    },
    {
      "id": "node:2152145734",
      "name": "Cava d'Aliga",
      "lat": 36.7265195,
      "lon": 14.6877876,
      "type": "borghi",
      "visibility": "classica",
      "tags": [
        "name=Cava d'Aliga",
        "place=village",
        "population=1962",
        "source:population=Istat 2021",
        "wikidata=Q2588419",
        "wikipedia=it:Cava d'Aliga"
      ],
      "score": 65
    },
    {
      "id": "node:2229004888",
      "name": "Pergusa",
      "lat": 37.5230681,
      "lon": 14.3055664,
      "type": "borghi",
      "visibility": "classica",
      "tags": [
        "name=Pergusa",
        "place=village",
        "population=765",
        "source:population=Istat 2021",
        "wikidata=Q2701329",
        "wikipedia=it:Villaggio Pergusa"
      ],
      "score": 65
    },
    {
      "id": "node:2242181800",
      "name": "Giumarra",
      "lat": 37.476528,
      "lon": 14.6520167,
      "type": "borghi",
      "visibility": "classica",
      "tags": [
        "name=Giumarra",
        "place=village",
        "population=840",
        "wikidata=Q18461353"
      ],
      "score": 65
    },
    {
      "id": "node:2242181806",
      "name": "Cinquegrana",
      "lat": 37.4735883,
      "lon": 14.6707834,
      "type": "borghi",
      "visibility": "classica",
      "tags": [
        "name=Cinquegrana",
        "place=village",
        "population=609",
        "source:population=Istat 2021",
        "wikidata=Q18461255"
      ],
      "score": 65
    },
    {
      "id": "node:2242181809",
      "name": "Carrubbo",
      "lat": 37.4958086,
      "lon": 14.6338869,
      "type": "borghi",
      "visibility": "classica",
      "tags": [
        "alt_name=Carrubo",
        "name=Carrubbo",
        "place=village",
        "population=629",
        "source:population=Istat 2021",
        "wikidata=Q3660787",
        "wikipedia=it:Carrubbo"
      ],
      "score": 65
    },
    {
      "id": "node:2260287377",
      "name": "Fondachello",
      "lat": 38.2157988,
      "lon": 15.357218,
      "type": "borghi",
      "visibility": "classica",
      "tags": [
        "ele=10",
        "name=Fondachello",
        "place=village",
        "population=752",
        "wikidata=Q17630592",
        "wikipedia=it:Fondachello (Valdina)"
      ],
      "score": 65
    },
    {
      "id": "node:2260287381",
      "name": "Tracoccia",
      "lat": 38.204839,
      "lon": 15.3627978,
      "type": "borghi",
      "visibility": "classica",
      "tags": [
        "ele=110",
        "name=Tracoccia",
        "place=village",
        "population=230",
        "wikidata=Q17638826",
        "wikipedia=it:Tracoccia"
      ],
      "score": 65
    },
    {
      "id": "node:2264307119",
      "name": "Pellegrino",
      "lat": 38.1406098,
      "lon": 15.3961157,
      "type": "borghi",
      "visibility": "classica",
      "tags": [
        "ele=430",
        "name=Pellegrino",
        "place=village",
        "population=440",
        "wikidata=Q18464771"
      ],
      "score": 65
    },
    {
      "id": "node:2267375117",
      "name": "Brucoli",
      "lat": 37.2832883,
      "lon": 15.187668,
      "type": "borghi",
      "visibility": "classica",
      "tags": [
        "name=Brucoli",
        "place=village",
        "population=1262",
        "source:population=Istat 2021",
        "wikidata=Q952146",
        "wikipedia=it:Brucoli"
      ],
      "score": 65
    },
    {
      "id": "node:2351995039",
      "name": "Montaperto",
      "lat": 37.3290375,
      "lon": 13.5511155,
      "type": "borghi",
      "visibility": "classica",
      "tags": [
        "name=Montaperto",
        "place=village",
        "population=440",
        "source:population=Istat 2021",
        "wikidata=Q1082080",
        "wikipedia=it:Montaperto (Agrigento)"
      ],
      "score": 65
    },
    {
      "id": "node:2360705078",
      "name": "Sfaranda",
      "lat": 38.0579911,
      "lon": 14.8296835,
      "type": "borghi",
      "visibility": "classica",
      "tags": [
        "ele=750",
        "name=Sfaranda",
        "note=popolazione ottenuta sottraendo gli abitanti di San Giorgio",
        "place=village",
        "population=872",
        "wikidata=Q3958646",
        "wikipedia=it:Sfaranda"
      ],
      "score": 65
    },
    {
      "id": "node:2385579630",
      "name": "Calabernardo",
      "lat": 36.8706688,
      "lon": 15.1360884,
      "type": "borghi",
      "visibility": "classica",
      "tags": [
        "alt_name=Balata",
        "name=Calabernardo",
        "place=village",
        "population=301",
        "source:population=Istat 2021",
        "wikidata=Q3650020",
        "wikipedia=it:Calabernardo"
      ],
      "score": 65
    },
    {
      "id": "node:2400634626",
      "name": "Trappitello",
      "lat": 37.8330879,
      "lon": 15.2465222,
      "type": "borghi",
      "visibility": "classica",
      "tags": [
        "ele=50",
        "name=Trappitello",
        "name:scn=Trappiteddu",
        "place=village",
        "population=3055",
        "wikidata=Q13198096",
        "wikipedia=it:Trappitello"
      ],
      "score": 65
    },
    {
      "id": "node:2409491304",
      "name": "Case Nuove Russo",
      "lat": 38.1392089,
      "lon": 14.9900134,
      "type": "borghi",
      "visibility": "classica",
      "tags": [
        "ele=30",
        "name=Case Nuove Russo",
        "old_name=Case Nuove Russe",
        "place=village",
        "population=969",
        "wikidata=Q18462479"
      ],
      "score": 65
    },
    {
      "id": "node:2452651652",
      "name": "Mangano",
      "lat": 37.6770687,
      "lon": 15.172577,
      "type": "borghi",
      "visibility": "classica",
      "tags": [
        "name=Mangano",
        "place=village",
        "population=388",
        "source:population=Istat 2021",
        "wikidata=Q2209952",
        "wikipedia=it:Mangano (Acireale)"
      ],
      "score": 65
    },
    {
      "id": "node:2470982646",
      "name": "Sperlinga",
      "lat": 37.0541406,
      "lon": 14.630322,
      "type": "borghi",
      "visibility": "classica",
      "tags": [
        "ele=279",
        "name=Sperlinga",
        "place=village",
        "population=273",
        "source:population=Istat 2021",
        "wikidata=Q3966523",
        "wikipedia=it:Sperlinga (Chiaramonte Gulfi)"
      ],
      "score": 65
    },
    {
      "id": "node:2470983371",
      "name": "Roccazzo",
      "lat": 37.0399035,
      "lon": 14.6232532,
      "type": "borghi",
      "visibility": "classica",
      "tags": [
        "ele=272",
        "name=Roccazzo",
        "note=popolazione ottenuta sottraendo gli abitanti di Sperlinga",
        "place=village",
        "population=331",
        "source:population=Istat 2021",
        "wikidata=Q1082060",
        "wikipedia=it:Roccazzo"
      ],
      "score": 65
    },
    {
      "id": "node:2503293210",
      "name": "Carruba",
      "lat": 37.690172,
      "lon": 15.1899049,
      "type": "borghi",
      "visibility": "classica",
      "tags": [
        "name=Carruba",
        "name:scn=Carrubba",
        "note=Frazione di Giarre",
        "place=village",
        "population=869",
        "wikidata=Q2562846",
        "wikipedia=it:Carruba (Giarre)"
      ],
      "score": 65
    },
    {
      "id": "node:2528595173",
      "name": "Scoglitti",
      "lat": 36.8921215,
      "lon": 14.4316565,
      "type": "borghi",
      "visibility": "classica",
      "tags": [
        "name=Scoglitti",
        "place=village",
        "population=4832",
        "source:population=Istat 2021",
        "wikidata=Q2191593",
        "wikipedia=it:Scoglitti"
      ],
      "score": 65
    },
    {
      "id": "node:2546095117",
      "name": "Bellolampo",
      "lat": 38.1372492,
      "lon": 13.2732139,
      "type": "borghi",
      "visibility": "classica",
      "tags": [
        "name=Bellolampo",
        "place=village",
        "population=676",
        "wikidata=Q3637819"
      ],
      "score": 65
    },
    {
      "id": "node:2553462201",
      "name": "Regalgioffoli",
      "lat": 37.8194055,
      "lon": 13.6382019,
      "type": "borghi",
      "visibility": "classica",
      "tags": [
        "name=Regalgioffoli",
        "place=village",
        "population=247",
        "wikidata=Q2513299"
      ],
      "score": 65
    },
    {
      "id": "node:2565331961",
      "name": "Sorrentini",
      "lat": 38.1426601,
      "lon": 14.9395984,
      "type": "borghi",
      "visibility": "classica",
      "tags": [
        "name=Sorrentini",
        "place=village",
        "population=201",
        "wikidata=Q3059578",
        "wikipedia=it:Sorrentini"
      ],
      "score": 65
    },
    {
      "id": "node:2653527890",
      "name": "Manfria",
      "lat": 37.0980965,
      "lon": 14.1541449,
      "type": "borghi",
      "visibility": "classica",
      "tags": [
        "alt_name=Lido Manfria",
        "name=Manfria",
        "place=village",
        "population=838",
        "source:population=Istat 2021",
        "wikidata=Q2617282",
        "wikipedia=it:Manfria"
      ],
      "score": 65
    },
    {
      "id": "node:2698601180",
      "name": "Scifì",
      "lat": 37.9405407,
      "lon": 15.3054391,
      "type": "borghi",
      "visibility": "classica",
      "tags": [
        "ele=120",
        "istat_id=8302410002",
        "name=Scifì",
        "place=village",
        "population=283",
        "source=Istat 2001 - geodati.gfoss.it",
        "wikidata=Q2079366",
        "wikipedia=it:Scifì"
      ],
      "score": 65
    },
    {
      "id": "node:2698710788",
      "name": "Gliaca di Piraino",
      "lat": 38.1631742,
      "lon": 14.8475746,
      "type": "borghi",
      "visibility": "classica",
      "tags": [
        "ele=18",
        "istat_id=8306810003",
        "name=Gliaca di Piraino",
        "place=village",
        "population=1185",
        "wikidata=Q3772224",
        "wikipedia=it:Gliaca"
      ],
      "score": 65
    },
    {
      "id": "node:2698777791",
      "name": "Colla Maffone",
      "lat": 38.0945336,
      "lon": 14.9774731,
      "type": "borghi",
      "visibility": "classica",
      "tags": [
        "ele=250",
        "istat_id=8303910001",
        "name=Colla Maffone",
        "place=village",
        "population=635",
        "source=Istat 2001 - geodati.gfoss.it",
        "wikidata=Q1108825"
      ],
      "score": 65
    },
    {
      "id": "node:2698850276",
      "name": "San Pier Marina",
      "lat": 38.203117,
      "lon": 15.3253471,
      "type": "borghi",
      "visibility": "classica",
      "tags": [
        "ele=35",
        "istat_id=8308010001",
        "name=San Pier Marina",
        "place=village",
        "population=591",
        "wikidata=Q18465806"
      ],
      "score": 65
    },
    {
      "id": "node:2700541461",
      "name": "Rocca di Capri Leone",
      "lat": 38.1079892,
      "lon": 14.7112006,
      "type": "borghi",
      "visibility": "classica",
      "tags": [
        "alt_name:scn=Crapijusu",
        "ele=40",
        "istat_id=8301010002",
        "name=Rocca di Capri Leone",
        "name:scn=a Rocca di Crapi",
        "place=village",
        "population=4248",
        "wikidata=Q18465261"
      ],
      "score": 65
    },
    {
      "id": "node:2709127900",
      "name": "Murazzo Rotto",
      "lat": 37.8699456,
      "lon": 14.9250804,
      "type": "borghi",
      "visibility": "classica",
      "tags": [
        "ele=812",
        "istat_id=8703810002",
        "name=Murazzo Rotto",
        "place=village",
        "population=387",
        "source:population=Istat 2021",
        "wikidata=Q18461444"
      ],
      "score": 65
    },
    {
      "id": "node:2721708611",
      "name": "San Cono",
      "lat": 38.1660198,
      "lon": 15.4160599,
      "type": "borghi",
      "visibility": "classica",
      "tags": [
        "name=San Cono",
        "place=village",
        "population=420",
        "wikidata=Q530408",
        "wikipedia=it:San Cono (Rometta)"
      ],
      "score": 65
    },
    {
      "id": "node:2904307452",
      "name": "Caldare",
      "lat": 37.3828178,
      "lon": 13.6361184,
      "type": "borghi",
      "visibility": "classica",
      "tags": [
        "name=Caldare",
        "place=village",
        "population=251",
        "source:population=Istat 2021",
        "wikidata=Q106388453"
      ],
      "score": 65
    },
    {
      "id": "node:2920523843",
      "name": "Belvedere",
      "lat": 37.0926994,
      "lon": 15.2086334,
      "type": "borghi",
      "visibility": "classica",
      "tags": [
        "name=Belvedere",
        "note=popolazione ottenuta sottraendo gli abitanti di contrada Tremilia",
        "place=village",
        "population=4912",
        "source:population=Istat 2021",
        "wikidata=Q3637887"
      ],
      "score": 65
    },
    {
      "id": "node:2922609951",
      "name": "Fontane Bianche",
      "lat": 36.9655145,
      "lon": 15.2127826,
      "type": "borghi",
      "visibility": "classica",
      "tags": [
        "name=Fontane Bianche",
        "place=village",
        "population=1374",
        "source:population=Istat 2021",
        "wikidata=Q18470897"
      ],
      "score": 65
    },
    {
      "id": "node:2928867813",
      "name": "San Giacomo",
      "lat": 36.979647,
      "lon": 14.828779,
      "type": "borghi",
      "visibility": "classica",
      "tags": [
        "alt_name=San Giacomo Mulino",
        "name=San Giacomo",
        "place=village",
        "population=105",
        "source:population=Istat 2021",
        "wikidata=Q3947187",
        "wikipedia=it:San Giacomo (Ragusa)"
      ],
      "score": 65
    },
    {
      "id": "node:2934802292",
      "name": "Arenella",
      "lat": 37.0020639,
      "lon": 15.2630353,
      "type": "borghi",
      "visibility": "classica",
      "tags": [
        "name=Arenella",
        "place=village",
        "population=782",
        "wikidata=Q18470459"
      ],
      "score": 65
    },
    {
      "id": "node:2957724335",
      "name": "San Corrado di Fuori",
      "lat": 36.9292559,
      "lon": 15.0648567,
      "type": "borghi",
      "visibility": "classica",
      "tags": [
        "name=San Corrado di Fuori",
        "note=popolazione ottenuta sommando anche gli abitanti di Lenzevacche e Baronazzo",
        "place=village",
        "population=705",
        "source:population=Istat 2021",
        "wikidata=Q18471231"
      ],
      "score": 65
    },
    {
      "id": "node:2986354612",
      "name": "Pedagaggi",
      "lat": 37.1917337,
      "lon": 14.9368425,
      "type": "borghi",
      "visibility": "classica",
      "tags": [
        "name=Pedagaggi",
        "place=village",
        "population=1233",
        "source:population=Istat 2021",
        "wikidata=Q770694",
        "wikipedia=it:Pedagaggi"
      ],
      "score": 65
    },
    {
      "id": "node:3738885641",
      "name": "Lido di Noto",
      "lat": 36.8550342,
      "lon": 15.1130841,
      "type": "borghi",
      "visibility": "classica",
      "tags": [
        "alt_name=Noto Marina",
        "ele=5",
        "name=Lido di Noto",
        "place=village",
        "population=789",
        "source:population=Istat 2021",
        "wikidata=Q3832083",
        "wikipedia=it:Lido di Noto"
      ],
      "score": 65
    },
    {
      "id": "node:3819328015",
      "name": "Piano Tavola",
      "lat": 37.5377497,
      "lon": 14.9817604,
      "type": "borghi",
      "visibility": "classica",
      "tags": [
        "name=Piano Tavola",
        "note=Frazione di Belpasso - popolazione ottenuta sottraendo gli abitanti di Valcorrente",
        "place=village",
        "population=2656",
        "source:population=Istat 2021",
        "wikidata=Q2188318",
        "wikipedia=it:Piano Tavola"
      ],
      "score": 65
    },
    {
      "id": "node:3878541066",
      "name": "San Giorgio",
      "lat": 37.640351,
      "lon": 14.4685021,
      "type": "borghi",
      "visibility": "classica",
      "tags": [
        "name=San Giorgio",
        "place=village",
        "population=750",
        "source:population=Istat 2021",
        "wikidata=Q18461831"
      ],
      "score": 65
    },